timestamp,time_utc_usec,lat,lon,alt,alt_ellipsoid,s_variance_m_s,c_variance_rad,eph,epv,hdop,vdop,noise_per_ms,jamming_indicator,vel_m_s,vel_n_m_s,vel_e_m_s,vel_d_m_s,cog_rad,timestamp_time_relative,heading,heading_offset,fix_type,jamming_state,vel_ned_valid,satellites_used,selected
579784026,1651992593999510,403543784,1168999423,116403,109276,0.20600002,2.4123461,0.896,1.4230001,0.63,0.96999997,103,76,0.025,-0.024,0.003,0.022000002,0.0,0,nan,0.0,4,0,1,18,0
579975026,1651992594199509,403543784,1168999423,116405,109279,0.29700002,2.4123492,0.89800006,1.4260001,0.63,0.96999997,103,76,0.033,-0.018000001,0.028,-0.034,0.0,0,nan,0.0,4,0,1,18,0
580173026,1651992594399509,403543783,1168999423,116405,109278,0.289,2.4123528,0.90000004,1.4280001,0.63,0.96999997,103,76,0.080000006,-0.07700001,0.021000002,-0.041,0.0,0,nan,0.0,4,0,1,18,0
580374444,1651992594599509,403543782,1168999424,116414,109287,0.305,2.4123564,0.90300006,1.432,0.63,0.96999997,103,60,0.051000003,-0.010000001,0.05,-0.049000002,0.0,0,nan,0.0,4,0,1,18,0
580576025,1651992594799509,403543782,1168999424,116415,109288,0.31300002,2.4123602,0.906,1.4350001,0.63,0.96999997,103,60,0.016,-0.010000001,0.013,-0.019000001,0.0,0,nan,0.0,4,0,1,18,0
580777024,1651992594999510,403543782,1168999425,116405,109278,0.27100003,2.4123628,0.90900004,1.439,0.63,0.96999997,103,60,0.036000002,0.031000001,0.017,0.019000001,0.0,0,nan,0.0,4,0,1,18,0
580972023,1651992595199509,403543782,1168999424,116397,109270,0.27,2.4123662,0.9110001,1.4430001,0.63,0.96999997,103,60,0.048,0.026,-0.041,-0.0050000004,0.0,0,nan,0.0,4,0,1,18,0
581177024,1651992595399509,403543783,1168999423,116380,109254,0.32000002,2.41237,0.91400003,1.4460001,0.63,0.96999997,103,60,0.039,0.019000001,-0.034,0.085,0.0,0,nan,0.0,4,0,1,18,0
581372024,1651992595599509,403543782,1168999422,116370,109243,0.268,2.4123728,0.91700006,1.45,0.63,0.96999997,103,62,0.044000003,-0.020000001,-0.040000003,0.015000001,0.0,0,nan,0.0,4,0,1,18,0
581575024,1651992595799508,403543782,1168999421,116361,109235,0.31500003,2.4123764,0.919,1.4540001,0.63,0.96999997,103,62,0.031000001,0.030000001,-0.004,0.08800001,0.0,0,nan,0.0,4,0,1,18,0
581784024,1651992595999509,403543782,1168999421,116361,109234,0.291,2.4123797,0.92200005,1.457,0.63,0.96999997,103,62,0.020000001,0.018000001,0.007,-0.030000001,0.0,0,nan,0.0,4,0,1,18,0
581975025,1651992596199508,403543782,1168999421,116350,109224,0.31800002,2.4123833,0.924,1.4610001,0.63,0.96999997,103,62,0.017,0.014,-0.008,0.039,0.0,0,nan,0.0,4,0,1,18,0
582174025,1651992596399508,403543782,1168999420,116346,109220,0.28800002,2.4123867,0.92700005,1.4640001,0.63,0.96999997,103,62,0.053000003,-0.052,-0.008,-0.039,0.0,0,nan,0.0,4,0,1,18,0
582375048,1651992596599508,403543782,1168999419,116348,109221,0.266,2.4123898,0.929,1.468,0.63,0.96999997,103,62,0.060000002,0.003,-0.060000002,0.004,0.0,0,nan,0.0,4,0,1,18,0
582574024,1651992596799508,403543782,1168999418,116332,109205,0.26700002,2.4123929,0.93100005,1.4710001,0.63,0.96999997,103,62,0.066,0.065000005,-0.014,-0.045,0.0,0,nan,0.0,4,0,1,18,0
582778026,1651992596999509,403543783,1168999417,116318,109192,0.303,2.412396,0.934,1.4740001,0.63,0.96999997,103,62,0.018000001,0.001,-0.018000001,0.016,0.0,0,nan,0.0,4,0,1,18,0
582977024,1651992597199508,403543783,1168999416,116303,109176,0.293,2.4123995,0.93600005,1.478,0.63,0.96999997,103,62,0.07,0.008,-0.069000006,0.041,0.0,0,nan,0.0,4,0,1,18,0
583184024,1651992597399508,403543784,1168999415,116277,109150,0.261,2.4124029,0.938,1.4810001,0.63,0.96999997,103,62,0.017,0.010000001,0.014,0.012,0.0,0,nan,0.0,4,0,1,18,0
583375201,1651992597599508,403543784,1168999415,116266,109140,0.26500002,2.4124055,0.94000006,1.4840001,0.63,0.96999997,103,62,0.026,0.004,0.026,0.025,0.0,0,nan,0.0,4,0,1,18,0
583578032,1651992597799508,403543784,1168999415,116241,109115,0.29700002,2.412409,0.94200003,1.4870001,0.63,0.96999997,103,62,0.025,-0.015000001,-0.020000001,0.045,0.0,0,nan,0.0,4,0,1,18,0
583786232,1651992597999509,403543785,1168999414,116229,109102,0.307,2.4124124,0.94400007,1.491,0.63,0.96999997,103,62,0.013,0.013,0.001,0.022000002,0.0,0,nan,0.0,4,0,1,18,0
583971406,1651992598199508,403543785,1168999414,116214,109087,0.28800002,2.4124157,0.94600004,1.4940001,0.63,0.96999997,103,62,0.024,0.024,0.001,-0.054,0.0,0,nan,0.0,4,0,1,18,0
584174024,1651992598399507,403543786,1168999414,116206,109080,0.316,2.4124196,0.9480001,1.4970001,0.63,0.96999997,103,62,0.020000001,-0.015000001,0.013,-0.037,0.0,0,nan,0.0,4,0,1,18,0
584381024,1651992598599507,403543786,1168999414,116169,109042,0.266,2.4124222,0.95000005,1.5000001,0.63,0.96999997,103,60,0.020000001,-0.013,0.015000001,0.001,0.0,0,nan,0.0,4,0,1,18,0
584578023,1651992598799507,403543785,1168999415,116177,109050,0.29500002,2.4124258,0.952,1.503,0.63,0.96999997,103,60,0.087000005,-0.041,0.07700001,-0.05,0.0,0,nan,0.0,4,0,1,18,0
584782024,1651992598999508,403543786,1168999416,116164,109037,0.282,2.4124289,0.95300007,1.506,0.63,0.96999997,103,60,0.031000001,0.014,-0.028,-0.074,0.0,0,nan,0.0,4,0,1,18,0
584979024,1651992599199507,403543787,1168999416,116140,109014,0.27100003,2.4124322,0.95500004,1.5090001,0.63,0.96999997,103,60,0.058000002,0.057000004,0.011000001,0.028,0.0,0,nan,0.0,4,0,1,18,0
585184024,1651992599399507,403543788,1168999417,116119,108992,0.272,2.4124353,0.95600003,1.5130001,0.63,0.96999997,103,60,0.08400001,0.035,0.07700001,-0.102000006,0.0,0,nan,0.0,4,0,1,18,0
585378026,1651992599599507,403543790,1168999419,116140,109013,0.286,2.4124384,0.957,1.5150001,0.63,0.96999997,103,60,0.08400001,0.053000003,0.065000005,-0.171,0.0,0,nan,0.0,4,0,1,18,0
585574025,1651992599799507,403543790,1168999422,116165,109039,0.291,2.4124432,0.95900005,1.514,0.63,0.96999997,103,60,0.136,-0.021000002,0.134,-0.395,0.0,0,nan,0.0,4,0,1,18,0
585789027,1651992599999508,403543792,1168999426,116194,109067,0.23600002,2.4124472,0.96000004,1.5120001,0.63,0.96999997,103,60,0.24000001,0.15100001,0.186,-0.268,0.0,0,nan,0.0,4,0,1,18,0
586569228,1651992600799507,403543807,1168999434,116305,109179,0.215,0.7501648,0.96500003,1.5050001,0.63,0.96999997,103,85,0.28300002,0.266,0.096,-0.337,0.419152,0,nan,0.0,4,0,1,18,0
586777024,1651992600999507,403543809,1168999434,116384,109257,0.28500003,0.7501848,0.96800005,1.5070001,0.63,0.96999997,103,85,0.07300001,0.043,-0.059000004,-0.54,0.419152,0,nan,0.0,4,0,1,18,0
586977367,1651992601199506,403543815,1168999434,116439,109312,0.266,0.6351879,0.9710001,1.5090001,0.63,0.96999997,103,85,0.45100003,0.446,-0.068,-0.42200002,0.0871778,0,nan,0.0,4,0,1,18,0
587177026,1651992601399506,403543824,1168999434,116499,109373,0.259,0.49526682,0.97400004,1.511,0.63,0.96999997,103,85,0.54200006,0.53300005,0.09900001,-0.423,0.14665495,0,nan,0.0,4,0,1,18,0
587377023,1651992601599506,403543832,1168999438,116594,109467,0.26700002,0.7781238,0.9760001,1.511,0.63,0.96999997,103,66,0.41200003,0.37,0.179,-0.52000004,0.23447014,0,nan,0.0,4,0,1,18,0
587576024,1651992601799506,403543838,1168999443,116681,109554,0.26500002,0.67364997,0.97900003,1.511,0.63,0.96999997,103,66,0.44400004,0.36400002,0.25500003,-0.62,0.4497237,0,nan,0.0,4,0,1,18,0
587781024,1651992601999507,403543841,1168999450,116824,109697,0.291,0.67367774,0.98,1.5100001,0.63,0.96999997,103,66,0.231,-0.035,0.22800002,-0.642,0.4497237,0,nan,0.0,4,0,1,18,0
587977023,1651992602199506,403543840,1168999457,116926,109800,0.307,0.7852808,0.98200005,1.5120001,0.63,0.96999997,103,66,0.36400002,-0.13100001,0.33900002,-0.771,1.0812311,0,nan,0.0,4,0,1,18,0
588177023,1651992602399506,403543835,1168999464,117060,109933,0.33900002,0.5089191,0.9850001,1.5130001,0.63,0.96999997,103,66,0.49300003,-0.42700002,0.245,-0.86300004,2.165634,0,nan,0.0,4,0,1,18,0
588377048,1651992602599506,403543828,1168999471,117229,110103,0.33800003,0.5049988,0.98700005,1.514,0.63,0.96999997,103,64,0.483,-0.35200003,0.33100003,-0.78800005,2.2771986,0,nan,0.0,4,0,1,18,0
588575317,1651992602799506,403543820,1168999478,117450,110323,0.342,0.4015299,0.99000007,1.514,0.63,0.96999997,103,64,0.546,-0.49300003,0.23300001,-0.90700006,2.5365927,0,nan,0.0,4,0,1,18,0
588777024,1651992602999507,403543810,1168999483,117586,110459,0.347,0.3706299,0.99300003,1.5150001,0.63,0.96999997,103,64,0.643,-0.62100005,0.16700001,-0.95000005,2.721642,0,nan,0.0,4,0,1,18,0
588974024,1651992603199506,403543801,1168999486,117770,110643,0.337,0.5805705,0.99500006,1.516,0.63,0.96999997,103,64,0.4,-0.38900003,0.09200001,-0.8880001,2.7762537,0,nan,0.0,4,0,1,18,0
589170029,1651992603399506,403543793,1168999485,117972,110845,0.32000002,0.6653214,0.99700004,1.5180001,0.63,0.96999997,103,64,0.44700003,-0.39600003,-0.20700002,-1.0320001,3.1422753,0,nan,0.0,4,0,1,18,0
589371025,1651992603599506,403543784,1168999484,118183,111056,0.344,0.42708537,0.9990001,1.5200001,0.63,0.96999997,103,66,0.614,-0.609,0.07300001,-1.095,3.0578938,0,nan,0.0,4,0,1,18,0
589577099,1651992603799505,403543774,1168999483,118407,111280,0.319,0.65104985,1.001,1.5200001,0.63,0.96999997,103,66,0.41400003,-0.39600003,-0.12100001,-0.966,3.1722474,0,nan,0.0,4,0,1,18,0
589783025,1651992603999506,403543767,1168999479,118537,111410,0.32900003,0.5477946,1.003,1.5230001,0.63,0.96999997,103,66,0.55700004,-0.49800003,-0.25,-0.86800003,3.4263396,0,nan,0.0,4,0,1,18,0
589977035,1651992604199505,403543760,1168999476,118769,111642,0.31100002,0.54784817,1.006,1.5250001,0.63,0.96999997,103,66,0.19800001,-0.19600001,-0.025,-1.052,3.4263396,0,nan,0.0,4,0,1,18,0
590177022,1651992604399505,403543757,1168999471,118962,111835,0.29500002,0.547908,1.006,1.526,0.63,0.96999997,103,66,0.381,-0.157,-0.347,-1.136,3.4263396,0,nan,0.0,4,0,1,18,0
590375024,1651992604599505,403543754,1168999463,119147,112020,0.27800003,0.61473477,1.008,1.526,0.63,0.96999997,103,65,0.432,-0.223,-0.37,-0.87000006,3.7556262,0,nan,0.0,4,0,1,18,0
590576025,1651992604799505,403543753,1168999453,119301,112175,0.252,0.45999128,1.008,1.5270001,0.63,0.96999997,103,65,0.503,0.15900001,-0.47700003,-0.734,4.574802,0,nan,0.0,4,0,1,18,0
590778024,1651992604999506,403543754,1168999442,119427,112300,0.28,0.6994904,1.01,1.5280001,0.63,0.96999997,103,65,0.476,-0.177,-0.44200003,-0.88500005,4.5014935,0,nan,0.0,4,0,1,18,0
590975143,1651992605199505,403543753,1168999433,119654,112527,0.26700002,0.59954536,1.0120001,1.529,0.63,0.96999997,103,65,0.39000002,0.16000001,-0.356,-0.88100004,4.8666716,0,nan,0.0,4,0,1,18,0
591175519,1651992605399505,403543756,1168999426,119837,112710,0.28800002,0.59959614,1.014,1.5300001,0.63,0.96999997,103,65,0.286,0.101,-0.268,-1.072,4.8666716,0,nan,0.0,4,0,1,18,0
591376024,1651992605599505,403543760,1168999422,120055,112929,0.28300002,0.58615327,1.016,1.5320001,0.63,0.96999997,103,69,0.43,0.42700002,-0.054,-1.0320001,5.526393,0,nan,0.0,4,0,1,18,0
591574024,1651992605799505,403543767,1168999415,120315,113188,0.261,0.4055166,1.018,1.5330001,0.63,0.96999997,103,69,0.63900006,0.36200002,-0.526,-1.0630001,5.3837323,0,nan,0.0,4,0,1,18,0
591782025,1651992605999506,403543772,1168999407,120549,113422,0.282,0.4055972,1.021,1.534,0.63,0.96999997,103,69,0.317,0.23700002,-0.21000001,-1.149,5.3837323,0,nan,0.0,4,0,1,18,0
591976024,1651992606199505,403543778,1168999403,120753,113626,0.27100003,0.59871614,1.024,1.5350001,0.63,0.96999997,103,69,0.39800003,0.38300002,-0.11000001,-1.0600001,5.579057,0,nan,0.0,4,0,1,18,0
592176024,1651992606399504,403543786,1168999398,120889,113763,0.275,0.6101355,1.028,1.5380001,0.63,0.96999997,103,69,0.49100003,0.42100003,-0.252,-1.0400001,5.660116,0,nan,0.0,4,0,1,18,0
592374024,1651992606599504,403543796,1168999394,121101,113974,0.27,0.38616875,1.0320001,1.5410001,0.63,0.96999997,103,68,0.72900003,0.72300005,-0.093,-0.91800004,6.0133,0,nan,0.0,4,0,1,18,0
592573024,1651992606799504,403543804,1168999393,121291,114165,0.286,0.38624674,1.0350001,1.5400001,0.63,0.96999997,103,68,0.23200001,0.22800002,0.041,-1.075,6.0133,0,nan,0.0,4,0,1,18,0
592777022,1651992606999505,403543809,1168999392,121534,114407,0.27400002,0.7000364,1.0380001,1.5410001,0.63,0.96999997,103,68,0.379,0.36400002,-0.10700001,-0.984,6.009664,0,nan,0.0,4,0,1,18,0
592972062,1651992607199504,403543812,1168999390,121766,114639,0.32500002,0.7000787,1.041,1.5450001,0.63,0.96999997,103,68,0.076000005,0.074,-0.017,-1.082,6.009664,0,nan,0.0,4,0,1,18,0
593173026,1651992607399504,403543813,1168999388,122042,114915,0.31500003,0.7001252,1.046,1.547,0.63,0.96999997,103,68,0.16000001,0.14500001,-0.069000006,-1.172,6.009664,0,nan,0.0,4,0,1,18,0
593372024,1651992607599504,403543816,1168999387,122312,115185,0.307,0.70017004,1.049,1.547,0.63,0.96999997,103,66,0.18200001,0.18,-0.027,-1.1290001,6.009664,0,nan,0.0,4,0,1,18,0
593575286,1651992607799504,403543815,1168999390,122506,115379,0.351,0.70022225,1.051,1.549,0.63,0.96999997,103,66,0.39100003,-0.24200001,0.307,-1.276,6.009664,0,nan,0.0,4,0,1,18,0
593784054,1651992607999505,403543814,1168999399,122723,115596,0.35000002,0.6720709,1.054,1.552,0.63,0.96999997,103,66,0.513,0.0050000004,0.513,-1.105,0.681657,0,nan,0.0,4,0,1,18,0
593978021,1651992608199504,403543811,1168999408,122932,115805,0.36100003,0.6721177,1.057,1.5550001,0.63,0.96999997,103,66,0.395,-0.22500001,0.324,-1.0760001,0.681657,0,nan,0.0,4,0,1,18,0
594177023,1651992608399504,403543808,1168999416,123117,115990,0.34600002,0.7386324,1.0600001,1.557,0.63,0.96999997,103,66,0.44400004,-0.16600001,0.41200003,-1.0960001,1.2582471,0,nan,0.0,4,0,1,18,0
594371024,1651992608599504,403543804,1168999426,123364,116237,0.35900003,0.70407504,1.062,1.5600001,0.66999996,1.0799999,103,65,0.44300002,-0.16900001,0.41000003,-1.138,1.6272111,0,nan,0.0,4,0,1,17,0
594572039,1651992608799504,403543802,1168999434,123552,116425,0.358,0.7041155,1.065,1.565,0.66999996,1.0799999,103,65,0.31300002,-0.043,0.31,-0.99200004,1.6272111,0,nan,0.0,4,0,1,17,0
594772276,1651992608999504,403543803,1168999440,123720,116593,0.356,0.70415777,1.0680001,1.5680001,0.66999996,1.0799999,103,65,0.26700002,0.14,0.22700001,-1.051,1.6272111,0,nan,0.0,4,0,1,17,0
594975187,1651992609199503,403543801,1168999444,123935,116809,0.37600002,0.7042032,1.07,1.572,0.63,0.96999997,103,65,0.33100003,-0.29700002,0.14600001,-1.1170001,1.6272111,0,nan,0.0,4,0,1,18,0
595175022,1651992609399503,403543797,1168999448,124148,117021,0.377,0.70424503,1.0730001,1.5780001,0.63,0.96999997,103,65,0.24400002,-0.187,0.158,-1.051,1.6272111,0,nan,0.0,4,0,1,18,0
595372024,1651992609599503,403543796,1168999452,124351,117224,0.35200003,0.7042827,1.075,1.5840001,0.63,0.96999997,103,66,0.048,0.0050000004,0.047000002,-0.96700007,1.6272111,0,nan,0.0,4,0,1,18,0
595571110,1651992609799503,403543795,1168999451,124507,117380,0.36200002,0.7043189,1.0760001,1.5890001,0.63,0.96999997,103,66,0.187,-0.14600001,-0.117000006,-0.9110001,1.6272111,0,nan,0.0,4,0,1,18,0
595784450,1651992609999504,403543790,1168999451,124689,117562,0.39900002,0.68599296,1.079,1.593,0.63,0.96999997,103,66,0.395,-0.39100003,0.056,-1.0730001,2.3307705,0,nan,0.0,4,0,1,18,0
595975025,1651992610199503,403543786,1168999451,124936,117810,0.356,0.686031,1.082,1.5990001,0.63,0.96999997,103,66,0.11400001,-0.072000004,-0.089,-0.94400007,2.3307705,0,nan,0.0,4,0,1,18,0
596177246,1651992610399503,403543782,1168999449,125127,118000,0.37100002,0.686074,1.085,1.605,0.63,0.96999997,103,66,0.356,-0.34500003,-0.08800001,-1.0170001,2.3307705,0,nan,0.0,4,0,1,18,0
596372023,1651992610599503,403543777,1168999444,125329,118202,0.342,0.68611264,1.087,1.6110001,0.63,0.96999997,103,65,0.328,-0.14500001,-0.29500002,-0.90900004,2.3307705,0,nan,0.0,4,0,1,18,0
596577023,1651992610799503,403543777,1168999436,125472,118345,0.32000002,0.68615055,1.09,1.6170001,0.63,0.96999997,103,65,0.34100002,0.106000006,-0.324,-0.882,2.3307705,0,nan,0.0,4,0,1,18,0
596776181,1651992610999504,403543776,1168999430,125750,118623,0.32200003,0.68619436,1.093,1.621,0.63,0.96999997,103,65,0.35000002,-0.057000004,-0.34500003,-1.042,2.3307705,0,nan,0.0,4,0,1,18,0
596971024,1651992611199503,403543774,1168999424,125962,118835,0.356,0.68623954,1.0960001,1.628,0.63,0.96999997,103,65,0.18800001,-0.108,-0.15300001,-1.1170001,2.3307705,0,nan,0.0,4,0,1,18,0
597174252,1651992611399503,403543773,1168999419,126230,119103,0.333,0.68629014,1.0990001,1.6330001,0.63,0.96999997,103,65,0.284,0.001,-0.284,-1.2310001,2.3307705,0,nan,0.0,4,0,1,18,0
597372512,1651992611599502,403543772,1168999413,126472,119346,0.35000002,0.68635106,1.1010001,1.639,0.63,0.96999997,103,68,0.24900001,-0.063,-0.24100001,-1.5070001,2.3307705,0,nan,0.0,4,0,1,18,0
597575039,1651992611799502,403543769,1168999409,126826,119699,0.356,0.6864235,1.1040001,1.646,0.63,0.96999997,103,68,0.223,-0.13900001,-0.17400001,-1.7960001,2.3307705,0,nan,0.0,4,0,1,18,0
597784024,1651992611999503,403543766,1168999404,127181,120054,0.35500002,0.68651444,1.1060001,1.651,0.63,0.96999997,103,68,0.201,-0.094000004,-0.177,-2.2710001,2.3307705,0,nan,0.0,4,0,1,18,0
597973383,1651992612199502,403543765,1168999401,127650,120523,0.356,0.6866193,1.108,1.6580001,0.63,0.96999997,103,68,0.15100001,0.061000004,-0.13800001,-2.618,2.3307705,0,nan,0.0,4,0,1,18,0
598177024,1651992612399502,403543767,1168999398,128191,121064,0.35700002,0.6867296,1.11,1.664,0.63,0.96999997,103,68,0.18100001,0.141,-0.113000005,-2.7580001,2.3307705,0,nan,0.0,4,0,1,18,0
598373037,1651992612599502,403543769,1168999396,128711,121584,0.356,0.68683946,1.1120001,1.6700001,0.63,0.96999997,103,64,0.164,0.13100001,-0.098000005,-2.7450001,2.3307705,0,nan,0.0,4,0,1,18,0
598575024,1651992612799502,403543771,1168999393,129240,122114,0.35500002,0.68694556,1.1140001,1.6760001,0.63,0.96999997,103,64,0.19500001,0.172,-0.093,-2.65,2.3307705,0,nan,0.0,4,0,1,18,0
598777022,1651992612999503,403543774,1168999392,129753,122626,0.35500002,0.6870515,1.116,1.6830001,0.63,0.96999997,103,64,0.164,0.163,0.010000001,-2.653,2.3307705,0,nan,0.0,4,0,1,18,0
598973025,1651992613199502,403543776,1168999393,130261,123135,0.35000002,0.6871622,1.1170001,1.6880001,0.63,0.96999997,103,64,0.18300001,0.162,0.08400001,-2.7700002,2.3307705,0,nan,0.0,4,0,1,18,0
599172029,1651992613399502,403543778,1168999394,130829,123702,0.34600002,0.68727225,1.1170001,1.692,0.63,0.96999997,103,64,0.125,0.124000005,0.018000001,-2.7540002,2.3307705,0,nan,0.0,4,0,1,18,0
599375023,1651992613599502,403543780,1168999395,131370,124244,0.34500003,0.6873824,1.1170001,1.697,0.63,0.96999997,103,64,0.14400001,0.12200001,0.075,-2.755,2.3307705,0,nan,0.0,4,0,1,18,0
599571024,1651992613799502,403543782,1168999396,131912,124785,0.347,0.6874932,1.1170001,1.702,0.63,0.96999997,103,64,0.215,0.20500001,0.064,-2.7700002,2.3307705,0,nan,0.0,4,0,1,18,0
599782026,1651992613999503,403543785,1168999400,132461,125334,0.34800002,0.68760747,1.118,1.7080001,0.63,0.96999997,103,64,0.30100003,0.22900002,0.19500001,-2.851,2.3307705,0,nan,0.0,4,0,1,18,0
599992973,1651992614199501,403543789,1168999402,133101,125974,0.335,0.68772566,1.118,1.71,0.63,0.96999997,103,64,0.289,0.289,-0.021000002,-2.9480002,2.3307705,0,nan,0.0,4,0,1,18,0
600187025,1651992614399501,403543793,1168999403,133679,126552,0.342,0.6878428,1.118,1.715,0.63,0.96999997,103,67,0.155,0.09900001,0.120000005,-2.9310002,2.3307705,0,nan,0.0,4,0,1,18,0
600376025,1651992614599501,403543792,1168999404,134291,127164,0.337,0.68795836,1.1170001,1.718,0.63,0.96999997,103,67,0.07300001,-0.062000003,-0.038000003,-2.897,2.3307705,0,nan,0.0,4,0,1,18,0
600574026,1651992614799501,403543790,1168999404,134870,127744,0.34100002,0.68807334,1.118,1.7220001,0.63,0.96999997,103,67,0.119,-0.072000004,0.095000006,-2.8860002,2.3307705,0,nan,0.0,4,0,1,18,0
600775024,1651992614999502,403543788,1168999408,135522,128395,0.342,0.6881967,1.118,1.7270001,0.63,0.96999997,103,67,0.18400002,-0.064,0.172,-3.091,2.3307705,0,nan,0.0,4,0,1,18,0
600976023,1651992615199501,403543787,1168999412,136103,128976,0.342,0.6883208,1.118,1.7310001,0.63,0.96999997,103,67,0.17600001,-0.010000001,0.17600001,-3.1100001,2.3307705,0,nan,0.0,4,0,1,18,0
601177029,1651992615399501,403543784,1168999416,136712,129585,0.35000002,0.68844175,1.1190001,1.7370001,0.63,0.96999997,103,67,0.208,-0.12900001,0.163,-3.0300002,2.3307705,0,nan,0.0,4,0,1,18,0
601378024,1651992615599501,403543782,1168999421,137263,130137,0.344,0.68856186,1.1190001,1.741,0.63,0.96999997,103,66,0.25100002,-0.038000003,0.24900001,-3.006,2.3307705,0,nan,0.0,4,0,1,18,0
601577024,1651992615799501,403543780,1168999426,137845,130718,0.342,0.68868434,1.1190001,1.7440001,0.63,0.96999997,103,66,0.23,-0.102000006,0.20600002,-3.0660002,2.3307705,0,nan,0.0,4,0,1,18,0
601777026,1651992615999502,403543775,1168999430,138550,131423,0.34,0.688805,1.118,1.748,0.63,0.96999997,103,66,0.165,-0.163,0.024,-3.0260003,2.3307705,0,nan,0.0,4,0,1,18,0
601973025,1651992616199501,403543772,1168999430,139160,132033,0.34500003,0.6889272,1.118,1.7530001,0.63,0.96999997,103,66,0.116000004,-0.116000004,-0.001,-3.0690002,2.3307705,0,nan,0.0,4,0,1,18,0
602166024,1651992616399501,403543769,1168999429,139722,132595,0.34800002,0.68904865,1.1190001,1.7580001,0.63,0.96999997,103,66,0.126,-0.119,-0.040000003,-3.0460002,2.3307705,0,nan,0.0,4,0,1,18,0
602373325,1651992616599501,403543766,1168999428,140271,133145,0.35000002,0.68916875,1.1190001,1.7630001,0.63,0.96999997,103,68,0.12200001,-0.120000005,-0.020000001,-3.0140002,2.3307705,0,nan,0.0,4,0,1,18,0
602577360,1651992616799501,403543762,1168999427,140876,133749,0.351,0.6892839,1.1190001,1.7680001,0.63,0.96999997,103,68,0.14500001,-0.115,-0.08800001,-2.8950002,2.3307705,0,nan,0.0,4,0,1,18,0
602780469,1651992616999501,403543760,1168999426,141461,134335,0.35200003,0.68940395,1.1190001,1.7730001,0.63,0.96999997,103,68,0.11100001,-0.08400001,-0.072000004,-3.0170002,2.3307705,0,nan,0.0,4,0,1,18,0
602977024,1651992617199500,403543758,1168999425,141997,134870,0.35200003,0.6895206,1.12,1.7770001,0.63,0.96999997,103,68,0.094000004,-0.074,-0.058000002,-2.9280002,2.3307705,0,nan,0.0,4,0,1,18,0
603179024,1651992617399500,403543757,1168999424,142577,135451,0.351,0.6896352,1.12,1.7810001,0.63,0.96999997,103,68,0.058000002,-0.035,-0.047000002,-2.8860002,2.3307705,0,nan,0.0,4,0,1,18,0
603375024,1651992617599500,403543755,1168999421,143157,136030,0.358,0.68975234,1.12,1.7880001,0.63,0.96999997,103,70,0.178,-0.075,-0.16100001,-2.94,2.3307705,0,nan,0.0,4,0,1,18,0
603575024,1651992617799500,403543752,1168999416,143832,136706,0.356,0.6898684,1.12,1.794,0.63,0.96999997,103,70,0.287,-0.094000004,-0.27100003,-2.903,2.3307705,0,nan,0.0,4,0,1,18,0
603791024,1651992617999501,403543748,1168999409,144499,137372,0.356,0.617309,1.121,1.8000001,0.63,0.96999997,103,70,0.38300002,-0.15200001,-0.35200003,-3.071,3.4277167,0,nan,0.0,4,0,1,18,0
603972044,1651992618199500,403543747,1168999405,145063,137936,0.36600003,0.6174465,1.121,1.8060001,0.63,0.96999997,103,70,0.047000002,-0.030000001,-0.036000002,-3.0930002,3.4277167,0,nan,0.0,4,0,1,18,0
604175380,1651992618399500,403543746,1168999403,145674,138547,0.36600003,0.6175835,1.1220001,1.812,0.63,0.96999997,103,70,0.125,-0.045,-0.117000006,-3.085,3.4277167,0,nan,0.0,4,0,1,18,0
604376025,1651992618599500,403543746,1168999401,146257,139130,0.365,0.6177184,1.1220001,1.817,0.63,0.96999997,103,66,0.071,0.049000002,-0.052,-3.0370002,3.4277167,0,nan,0.0,4,0,1,18,0
604584025,1651992618799500,403543748,1168999401,146835,139709,0.36400002,0.61785215,1.1220001,1.8220001,0.63,0.96999997,103,66,0.2,0.19800001,0.024,-3.0070002,3.4277167,0,nan,0.0,4,0,1,18,0
604771024,1651992618999501,403543753,1168999401,147393,140266,0.35900003,0.6179891,1.1220001,1.8260001,0.63,0.96999997,103,66,0.26000002,0.25300002,-0.061000004,-3.0740001,3.4277167,0,nan,0.0,4,0,1,18,0
604976024,1651992619199500,403543759,1168999399,147920,140794,0.356,0.76688755,1.123,1.83,0.63,0.96999997,103,66,0.37300003,0.36800003,-0.062000003,-2.9720001,4.4863896,0,nan,0.0,4,0,1,18,0
605177534,1651992619399500,403543764,1168999398,148516,141389,0.358,0.76699483,1.123,1.835,0.63,0.96999997,103,66,0.289,0.256,-0.134,-2.9880002,4.4863896,0,nan,0.0,4,0,1,18,0
605375025,1651992619599499,403543768,1168999396,149158,142031,0.36,0.7671057,1.1240001,1.84,0.63,0.96999997,103,65,0.29000002,0.284,-0.060000002,-3.085,4.4863896,0,nan,0.0,4,0,1,18,0
605575025,1651992619799499,403543774,1168999395,149719,142593,0.35900003,0.7672146,1.125,1.845,0.63,0.96999997,103,65,0.344,0.344,-0.014,-3.032,4.4863896,0,nan,0.0,4,0,1,18,0
605786024,1651992620000499,403543779,1168999396,150308,143181,0.36200002,0.7673228,1.125,1.8490001,0.63,0.96999997,103,65,0.223,0.21300001,0.065000005,-3.0040002,4.4863896,0,nan,0.0,4,0,1,18,0
605969124,1651992620200499,403543781,1168999398,150867,143740,0.36100003,0.7674329,1.126,1.853,0.63,0.96999997,103,65,0.086,0.052,0.069000006,-3.084,4.4863896,0,nan,0.0,4,0,1,18,0
606171039,1651992620400499,403543781,1168999402,151506,144380,0.363,0.76754326,1.1270001,1.8570001,0.63,0.96999997,103,65,0.21100001,0.018000001,0.21000001,-3.078,4.4863896,0,nan,0.0,4,0,1,18,0
606370025,1651992620600499,403543781,1168999406,152074,144947,0.363,0.7676508,1.1270001,1.8620001,0.63,0.96999997,103,67,0.24100001,0.066,0.23200001,-3.002,4.4863896,0,nan,0.0,4,0,1,18,0
606578024,1651992620800499,403543782,1168999411,152680,145553,0.36100003,0.7677574,1.128,1.866,0.63,0.96999997,103,67,0.16700001,0.057000004,0.157,-2.9810002,4.4863896,0,nan,0.0,4,0,1,18,0
606776024,1651992621000499,403543782,1168999415,153277,146151,0.36600003,0.7678683,1.1290001,1.8700001,0.63,0.96999997,103,67,0.216,0.019000001,0.215,-3.0960002,4.4863896,0,nan,0.0,4,0,1,18,0
606974024,1651992621200499,403543783,1168999418,153728,146601,0.363,0.7679735,1.1290001,1.8750001,0.63,0.96999997,103,67,0.086,-0.009000001,0.085,-2.9410002,4.4863896,0,nan,0.0,4,0,1,18,0
607173024,1651992621400499,403543783,1168999422,154321,147194,0.37100002,0.76807946,1.13,1.8800001,0.63,0.96999997,103,67,0.21700001,0.083000004,0.201,-2.9620001,4.4863896,0,nan,0.0,4,0,1,18,0
607368024,1651992621600499,403543784,1168999425,154909,147783,0.372,0.7681861,1.131,1.8850001,0.63,0.96999997,103,67,0.12200001,-0.030000001,0.11800001,-2.9870002,4.4863896,0,nan,0.0,4,0,1,18,0
607574024,1651992621800499,403543782,1168999428,155591,148465,0.35500002,0.7682932,1.131,1.8850001,0.63,0.96999997,103,67,0.132,-0.115,0.064,-2.999,4.4863896,0,nan,0.0,4,0,1,18,0
607779025,1651992622000499,403543781,1168999430,156162,149035,0.358,0.7684035,1.1320001,1.8880001,0.65999997,0.96999997,103,67,0.14600001,0.039,0.141,-3.0890002,4.4863896,0,nan,0.0,4,0,1,17,0
607977033,1651992622200498,403543780,1168999431,156772,149645,0.35200003,0.7685138,1.133,1.8900001,0.63,0.96999997,103,67,0.119,-0.10700001,-0.052,-3.0900002,4.4863896,0,nan,0.0,4,0,1,18,0
608175025,1651992622400498,403543777,1168999430,157411,150284,0.35000002,0.7686241,1.133,1.891,0.65999997,0.96999997,103,67,0.163,-0.158,-0.040000003,-3.0860002,4.4863896,0,nan,0.0,4,0,1,17,0
608376024,1651992622600498,403543772,1168999430,158100,150973,0.34600002,0.768737,1.1340001,1.891,0.63,0.96999997,103,67,0.165,-0.155,0.054,-3.163,4.4863896,0,nan,0.0,4,0,1,18,0
608574474,1651992622800498,403543768,1168999429,158782,151655,0.33800003,0.76884925,1.1340001,1.891,0.63,0.96999997,103,67,0.19900002,-0.106000006,-0.16900001,-3.137,4.4863896,0,nan,0.0,4,0,1,18,0
608779488,1651992623000498,403543763,1168999425,159465,152338,0.335,0.7689606,1.1340001,1.8900001,0.63,0.96999997,103,67,0.30800003,-0.27,-0.149,-3.111,4.4863896,0,nan,0.0,4,0,1,18,0
608977024,1651992623200498,403543758,1168999422,160101,152974,0.32900003,0.7690737,1.1340001,1.889,0.63,0.96999997,103,67,0.22500001,-0.134,-0.18100001,-3.1610003,4.4863896,0,nan,0.0,4,0,1,18,0
609177023,1651992623400498,403543756,1168999417,160723,153596,0.32500002,0.7691859,1.1340001,1.8880001,0.63,0.96999997,103,67,0.26700002,-0.033,-0.26500002,-3.1350002,4.4863896,0,nan,0.0,4,0,1,18,0
609375024,1651992623600498,403543754,1168999411,161364,154237,0.324,0.7692945,1.1340001,1.8870001,0.63,0.96999997,103,66,0.209,0.001,-0.209,-3.0410001,4.4863896,0,nan,0.0,4,0,1,18,0
609574024,1651992623800498,403543753,1168999407,162030,154903,0.32500002,0.76940763,1.1340001,1.886,0.63,0.96999997,103,66,0.17500001,0.034,-0.171,-3.17,4.4863896,0,nan,0.0,4,0,1,18,0
609786331,1651992624000498,403543752,1168999403,162703,155576,0.33,0.7695198,1.1350001,1.886,0.63,0.96999997,103,66,0.158,0.033,-0.15400001,-3.144,4.4863896,0,nan,0.0,4,0,1,18,0
609970025,1651992624200498,403543752,1168999400,163342,156215,0.33,0.76962733,1.1350001,1.886,0.63,0.96999997,103,66,0.179,0.14400001,-0.10700001,-3.012,4.4863896,0,nan,0.0,4,0,1,18,0
610191053,1651992624400498,403543753,1168999396,164023,156896,0.33100003,0.76973605,1.136,1.886,0.63,0.96999997,103,65,0.208,0.141,-0.15300001,-3.0470002,4.4863896,0,nan,0.0,4,0,1,18,0
610373025,1651992624600498,403543757,1168999396,164623,157496,0.333,0.7698478,1.1370001,1.8880001,0.66999996,1.05,103,65,0.30600002,0.30400002,0.030000001,-3.117,4.4863896,0,nan,0.0,4,0,1,17,0
610573540,1651992624800497,403543762,1168999397,165213,158086,0.33200002,0.7699562,1.138,1.889,0.66999996,1.05,103,65,0.25,0.25,-0.008,-3.035,4.4863896,0,nan,0.0,4,0,1,17,0
610778221,1651992625000497,403543766,1168999399,165818,158692,0.33400002,0.7700658,1.139,1.891,0.66999996,1.05,103,65,0.26200002,0.26200002,0.018000001,-3.0670002,4.4863896,0,nan,0.0,4,0,1,17,0
610974025,1651992625200497,403543771,1168999401,166403,159276,0.34800002,0.77017707,1.1400001,1.8930001,0.66999996,1.05,103,65,0.22800002,0.22100002,0.057000004,-3.1190002,4.4863896,0,nan,0.0,4,0,1,17,0
611174182,1651992625400497,403543775,1168999403,166973,159846,0.35000002,0.7702862,1.141,1.8960001,0.63,0.96999997,103,65,0.261,0.252,0.069000006,-3.0540001,4.4863896,0,nan,0.0,4,0,1,18,0
611378023,1651992625600497,403543779,1168999407,167561,160434,0.35200003,0.7703939,1.141,1.8980001,0.63,0.96999997,103,66,0.282,0.24300002,0.143,-3.0100002,4.4863896,0,nan,0.0,4,0,1,18,0
611578024,1651992625800497,403543783,1168999412,168103,160976,0.35500002,0.77049756,1.141,1.9010001,0.63,0.96999997,103,66,0.194,0.14600001,0.127,-2.907,4.4863896,0,nan,0.0,4,0,1,18,0
611787023,1651992626000497,403543786,1168999417,168651,161524,0.354,0.77060294,1.1420001,1.9030001,0.63,0.96999997,103,66,0.282,0.20400001,0.194,-2.95,4.4863896,0,nan,0.0,4,0,1,18,0
611981024,1651992626200497,403543790,1168999423,169198,162071,0.35300002,0.7707053,1.141,1.904,0.63,0.96999997,103,66,0.25500003,0.14400001,0.21000001,-2.864,4.4863896,0,nan,0.0,4,0,1,18,0
612174025,1651992626400497,403543792,1168999430,169728,162601,0.35000002,0.77080804,1.141,1.9050001,0.63,0.96999997,103,66,0.27100003,0.026,0.27,-2.877,4.4863896,0,nan,0.0,4,0,1,18,0
612378268,1651992626600497,403543793,1168999437,170305,163178,0.347,0.77091277,1.141,1.9060001,0.63,0.96999997,103,68,0.19900002,0.037,0.19500001,-2.9380002,4.4863896,0,nan,0.0,4,0,1,18,0
612572025,1651992626800497,403543793,1168999442,170906,163779,0.35000002,0.7710183,1.1400001,1.9070001,0.63,0.96999997,103,68,0.177,-0.006,0.177,-2.9620001,4.4863896,0,nan,0.0,4,0,1,18,0
612778024,1651992627000497,403543793,1168999448,171456,164330,0.347,0.77112484,1.139,1.9080001,0.63,0.96999997,103,68,0.16600001,-0.030000001,0.164,-2.986,4.4863896,0,nan,0.0,4,0,1,18,0
612979024,1651992627200497,403543792,1168999454,172039,164912,0.342,0.77122957,1.139,1.9080001,0.63,0.96999997,103,68,0.22900002,-0.09,0.21100001,-2.9390001,4.4863896,0,nan,0.0,4,0,1,18,0
613197028,1651992627400496,403543790,1168999460,172681,165555,0.34,0.7713353,1.138,1.9080001,0.63,0.96999997,103,67,0.231,-0.13700001,0.185,-2.9650002,4.4863896,0,nan,0.0,4,0,1,18,0
613374024,1651992627600496,403543786,1168999463,173264,166138,0.33800003,0.7714439,1.138,1.9080001,0.63,0.96999997,103,67,0.252,-0.24700001,0.049000002,-3.042,4.4863896,0,nan,0.0,4,0,1,18,0
613577023,1651992627800496,403543780,1168999464,173895,166768,0.335,0.77154964,1.1370001,1.9070001,0.63,0.96999997,103,67,0.307,-0.307,-0.019000001,-2.9610002,4.4863896,0,nan,0.0,4,0,1,18,0
613781025,1651992628000496,403543775,1168999466,174465,167338,0.33400002,0.771657,1.136,1.9070001,0.63,0.96999997,103,67,0.319,-0.30900002,0.076000005,-3.006,4.4863896,0,nan,0.0,4,0,1,18,0
613974232,1651992628200496,403543770,1168999467,175025,167898,0.333,0.77176636,1.136,1.9050001,0.63,0.96999997,103,67,0.291,-0.29000002,-0.012,-3.065,4.4863896,0,nan,0.0,4,0,1,18,0
614175025,1651992628400496,403543765,1168999467,175605,168478,0.33100003,0.7718701,1.1350001,1.904,0.63,0.96999997,103,67,0.294,-0.289,-0.054,-2.9050002,4.4863896,0,nan,0.0,4,0,1,18,0
614377025,1651992628600496,403543759,1168999465,176181,169054,0.32900003,0.65453684,1.1340001,1.9030001,0.63,0.96999997,103,64,0.379,-0.34100002,-0.16600001,-2.979,3.96788,0,nan,0.0,4,0,1,18,0
614579025,1651992628800496,403543753,1168999460,176780,169654,0.328,0.7072032,1.1340001,1.9020001,0.63,0.96999997,103,64,0.36600003,-0.22000001,-0.293,-2.9640002,4.0141225,0,nan,0.0,4,0,1,18,0
614777023,1651992629000496,403543749,1168999453,177362,170236,0.326,0.7135152,1.1340001,1.9000001,0.63,0.96999997,103,64,0.36400002,-0.20300001,-0.30200002,-2.946,4.06748,0,nan,0.0,4,0,1,18,0
614977026,1651992629200496,403543746,1168999445,177952,170825,0.32500002,0.65055925,1.133,1.9000001,0.63,0.96999997,103,64,0.411,-0.15,-0.38300002,-2.9550002,4.215543,0,nan,0.0,4,0,1,18,0
615177033,1651992629400496,403543744,1168999437,178511,171385,0.32500002,0.741242,1.133,1.899,0.65,0.97999996,103,64,0.36200002,-0.082,-0.35300002,-3.0310001,4.3320208,0,nan,0.0,4,0,1,17,0
615376025,1651992629600496,403543744,1168999428,179078,171951,0.323,0.60983497,1.133,1.8970001,0.63,0.96999997,103,68,0.44200003,-0.027,-0.441,-2.9750001,4.5229163,0,nan,0.0,4,0,1,18,0
615573027,1651992629800496,403543743,1168999417,179706,172579,0.323,0.6331121,1.1320001,1.8950001,0.63,0.96999997,103,68,0.42600003,0.029000001,-0.425,-3.048,4.6465898,0,nan,0.0,4,0,1,18,0
615792025,1651992630000496,403543743,1168999408,180333,173206,0.323,0.6645016,1.1320001,1.894,0.63,0.96999997,103,68,0.411,0.063,-0.40600002,-3.052,4.751593,0,nan,0.0,4,0,1,18,0
615968379,1651992630200495,403543744,1168999399,180974,173847,0.324,0.6785913,1.131,1.8930001,0.63,0.96999997,103,68,0.402,0.08800001,-0.39200002,-3.0760002,4.840049,0,nan,0.0,4,0,1,18,0
616170023,1651992630400495,403543747,1168999390,181554,174427,0.32500002,0.65086275,1.131,1.8920001,0.63,0.96999997,103,68,0.41400003,0.18300001,-0.37100002,-3.042,5.012416,0,nan,0.0,4,0,1,18,0
616374552,1651992630600495,403543752,1168999382,182104,174978,0.32900003,0.5882941,1.131,1.8920001,0.63,0.96999997,103,67,0.46300003,0.335,-0.32000002,-2.9390001,5.292179,0,nan,0.0,4,0,1,18,0
616582024,1651992630800495,403543760,1168999376,182654,175527,0.33200002,0.55727684,1.131,1.8920001,0.63,0.96999997,103,67,0.47100002,0.402,-0.24700001,-2.861,5.5244117,0,nan,0.0,4,0,1,18,0
616781025,1651992631000495,403543766,1168999372,183218,176091,0.337,0.7795297,1.131,1.8930001,0.63,0.96999997,103,67,0.335,0.32000002,-0.098000005,-2.812,5.6808524,0,nan,0.0,4,0,1,18,0
616976036,1651992631200495,403543772,1168999370,183802,176675,0.33800003,0.6860777,1.1320001,1.8930001,0.63,0.96999997,103,67,0.374,0.36,-0.09900001,-2.8260002,5.868811,0,nan,0.0,4,0,1,18,0
617177025,1651992631400495,403543778,1168999369,184358,177231,0.342,0.7121515,1.1320001,1.8930001,0.65,0.97999996,103,67,0.36100003,0.36100003,-0.025,-2.7960002,6.034422,0,nan,0.0,4,0,1,17,0
617377027,1651992631600495,403543785,1168999370,184905,177778,0.33800003,0.6228106,1.133,1.8930001,0.65,0.97999996,103,68,0.432,0.42700002,0.061000004,-2.7930002,6.2556353,0,nan,0.0,4,0,1,17,0
617575023,1651992631800495,403543792,1168999372,185441,178314,0.34,0.6229337,1.1340001,1.8930001,0.65,0.97999996,103,68,0.333,0.31800002,0.098000005,-2.7740002,6.2556353,0,nan,0.0,4,0,1,17,0
617777045,1651992632000495,403543796,1168999374,185996,178870,0.34600002,0.62305653,1.1350001,1.8930001,0.65,0.97999996,103,68,0.31,0.287,0.116000004,-2.7740002,6.2556353,0,nan,0.0,4,0,1,17,0
617978026,1651992632200495,403543800,1168999378,186578,179451,0.34500003,0.6231806,1.136,1.8920001,0.65,0.97999996,103,68,0.33,0.21100001,0.254,-2.801,6.2556353,0,nan,0.0,4,0,1,17,0
618173028,1651992632400495,403543803,1168999386,187104,179978,0.34100002,0.62330645,1.1370001,1.891,0.69,1.01,103,68,0.35700002,0.094000004,0.344,-2.838,6.2556353,0,nan,0.0,4,0,1,16,0
618377025,1651992632600495,403543805,1168999395,187620,180493,0.33900002,0.62343,1.139,1.889,0.69,1.01,103,66,0.40300003,0.101,0.39000002,-2.779,6.2556353,0,nan,0.0,4,0,1,16,0
618573365,1651992632800494,403543805,1168999406,188174,181048,0.34,0.6235543,1.1400001,1.8870001,0.69,1.01,103,66,0.43300003,-0.080000006,0.42600003,-2.792,6.2556353,0,nan,0.0,4,0,1,16,0
618777024,1651992633000494,403543803,1168999414,188776,181649,0.328,0.6236817,1.141,1.8820001,0.65,0.97999996,103,66,0.388,0.030000001,0.38700002,-2.8720002,6.2556353,0,nan,0.0,4,0,1,17,0
618976024,1651992633200494,403543803,1168999422,189307,182181,0.328,0.62380666,1.141,1.8780001,0.65,0.98999995,103,66,0.319,-0.021000002,0.31800002,-2.8270001,6.2556353,0,nan,0.0,4,0,1,17,0
619178022,1651992633400494,403543801,1168999428,189839,182712,0.324,0.6239362,1.1420001,1.8750001,0.69,1.01,103,66,0.314,-0.21000001,0.23300001,-2.9290001,6.2556353,0,nan,0.0,4,0,1,16,0
619378026,1651992633600494,403543797,1168999433,190362,183235,0.32200003,0.624065,1.143,1.8700001,0.65,0.97999996,103,65,0.35300002,-0.21100001,0.28300002,-2.9110003,6.2556353,0,nan,0.0,4,0,1,17,0
619576025,1651992633800494,403543791,1168999437,190954,183827,0.323,0.72461045,1.1420001,1.866,0.63,0.96999997,103,65,0.35300002,-0.289,0.20300001,-2.723,1.0614841,0,nan,0.0,4,0,1,18,0
619784024,1651992634000494,403543785,1168999439,191478,184351,0.321,0.6762241,1.1420001,1.8620001,0.65,0.97999996,103,65,0.33800003,-0.32200003,0.10300001,-2.4120002,2.0080218,0,nan,0.0,4,0,1,17,0
619977023,1651992634200494,403543777,1168999441,191962,184836,0.319,0.56433964,1.1420001,1.858,0.65,0.97999996,103,65,0.40300003,-0.38700002,0.112,-2.3070002,2.50944,0,nan,0.0,4,0,1,17,0
620177024,1651992634400494,403543768,1168999440,192434,185307,0.317,0.5368734,1.1420001,1.8540001,0.63,0.96999997,103,65,0.423,-0.42100003,0.034,-2.1000001,2.7988253,0,nan,0.0,4,0,1,18,0
620372027,1651992634600494,403543761,1168999440,192808,185681,0.317,0.59191793,1.1420001,1.8510001,0.69,1.01,103,68,0.397,-0.39600003,-0.027,-1.9690001,2.9843502,0,nan,0.0,4,0,1,16,0
620575025,1651992634800494,403543755,1168999439,193124,185997,0.31800002,0.59628665,1.1420001,1.848,0.69,1.01,103,68,0.409,-0.40600002,-0.052,-1.7530001,3.1250827,0,nan,0.0,4,0,1,16,0
620777026,1651992635000494,403543748,1168999436,193467,186341,0.319,0.7325113,1.143,1.845,0.69,1.01,103,68,0.35200003,-0.317,-0.15300001,-1.6500001,3.3107839,0,nan,0.0,4,0,1,16,0
620978024,1651992635200494,403543740,1168999429,193832,186705,0.31800002,0.56581044,1.143,1.8420001,0.65,0.97999996,103,68,0.469,-0.384,-0.26900002,-1.6010001,3.586983,0,nan,0.0,4,0,1,17,0
621176024,1651992635400493,403543735,1168999423,194085,186958,0.323,0.5658767,1.1450001,1.8410001,0.69,1.01,103,68,0.33600003,-0.24400002,-0.23200001,-1.3280001,3.586983,0,nan,0.0,4,0,1,16,0
621377023,1651992635600493,403543731,1168999415,194374,187247,0.319,0.6719535,1.146,1.84,0.69,1.01,103,69,0.43500003,-0.21800001,-0.37600002,-1.2830001,3.8360634,0,nan,0.0,4,0,1,16,0
621573023,1651992635800493,403543727,1168999403,194659,187533,0.314,0.5736255,1.146,1.8390001,0.65,0.97999996,103,69,0.52900004,-0.18300001,-0.49600002,-1.218,4.138367,0,nan,0.0,4,0,1,17,0
621787024,1651992636000493,403543724,1168999391,194912,187785,0.316,0.5736782,1.146,1.8370001,0.65,0.98999995,103,69,0.326,-0.061000004,-0.32000002,-1.054,4.138367,0,nan,0.0,4,0,1,17,0
621973024,1651992636200493,403543723,1168999382,195107,187980,0.31500003,0.5737241,1.146,1.8370001,0.65,0.98999995,103,69,0.36100003,0.025,-0.36,-0.89000005,4.138367,0,nan,0.0,4,0,1,17,0
622177024,1651992636400493,403543723,1168999371,195319,188192,0.351,0.7513913,1.1470001,1.838,0.65,0.98999995,103,69,0.41700003,0.12900001,-0.39600003,-0.90300006,4.4654183,0,nan,0.0,4,0,1,17,0
622377026,1651992636600493,403543726,1168999363,195503,188376,0.35900003,0.7514246,1.1470001,1.8390001,0.69,1.01,103,69,0.35000002,0.22000001,-0.272,-0.84300005,4.4654183,0,nan,0.0,4,0,1,16,0
622579024,1651992636800493,403543726,1168999352,195771,188644,0.363,0.7514578,1.148,1.84,0.63,0.96999997,103,69,0.293,0.132,-0.26200002,-0.85700005,4.4654183,0,nan,0.0,4,0,1,18,0
622778039,1651992637000493,403543726,1168999342,195959,188832,0.354,0.75148606,1.149,1.8410001,0.65,0.97999996,103,69,0.36100003,0.120000005,-0.34100002,-0.68700004,4.4654183,0,nan,0.0,4,0,1,17,0
622972027,1651992637200493,403543730,1168999335,196117,188990,0.36,0.7515199,1.1500001,1.843,0.69,1.01,103,69,0.407,0.28300002,-0.29200003,-0.83500004,4.4654183,0,nan,0.0,4,0,1,16,0
623177558,1651992637400493,403543735,1168999329,196289,189163,0.365,0.7515503,1.1520001,1.845,0.69,1.01,103,69,0.284,0.22200002,-0.178,-0.78400004,4.4654183,0,nan,0.0,4,0,1,16,0
623387025,1651992637600493,403543738,1168999324,196495,189368,0.34800002,0.75157875,1.153,1.8460001,0.65,0.97999996,103,64,0.321,0.286,-0.14500001,-0.70900005,4.4654183,0,nan,0.0,4,0,1,17,0
623577028,1651992637800493,403543741,1168999321,196678,189551,0.33800003,0.62527305,1.153,1.845,0.65,0.97999996,103,64,0.386,0.35500002,0.15300001,-0.52400005,5.7797794,0,nan,0.0,4,0,1,17,0
623788480,1651992638000492,403543747,1168999325,196734,189607,0.31,0.46127304,1.1520001,1.8440001,0.63,0.96999997,103,64,0.499,0.37300003,0.33100003,-0.35500002,0.2922861,0,nan,0.0,4,0,1,18,0
623974026,1651992638200492,403543754,1168999332,196806,189680,0.33,0.6329569,1.1520001,1.8440001,0.69,1.01,103,64,0.395,0.31500003,0.23900001,-0.446,0.41557753,0,nan,0.0,4,0,1,16,0
624174181,1651992638400492,403543757,1168999336,196977,189850,0.284,0.450596,1.151,1.8440001,0.63,0.96999997,103,64,0.58500004,0.33200002,0.48200002,-0.365,0.7821154,0,nan,0.0,4,0,1,18,0
624377025,1651992638600492,403543760,1168999341,197102,189976,0.27,0.58768237,1.149,1.8420001,0.63,0.96999997,103,70,0.453,0.29000002,0.34800002,-0.26700002,0.8171747,0,nan,0.0,4,0,1,18,0
624577118,1651992638800492,403543765,1168999350,197109,189982,0.25500003,0.5131189,1.149,1.8410001,0.69,1.01,103,70,0.514,0.25,0.44900003,-0.044000003,0.9559252,0,nan,0.0,4,0,1,16,0
624781024,1651992639000492,403543770,1168999360,197090,189963,0.246,0.5711295,1.148,1.84,0.69,1.01,103,70,0.44700003,0.15100001,0.42100003,-0.059000004,1.0769868,0,nan,0.0,4,0,1,16,0
624981024,1651992639200492,403543773,1168999369,197085,189958,0.24700001,0.68848544,1.1470001,1.8390001,0.69,1.01,103,70,0.37500003,0.09900001,0.36100003,-0.071,1.1691877,0,nan,0.0,4,0,1,16,0
625178024,1651992639400492,403543775,1168999376,197080,189953,0.23500001,0.68849623,1.146,1.838,0.69,1.01,103,70,0.26900002,0.07700001,0.25800002,0.029000001,1.1691877,0,nan,0.0,4,0,1,16,0
625377038,1651992639600492,403543777,1168999381,197081,189954,0.263,0.6885067,1.1450001,1.8370001,0.69,1.01,103,62,0.231,0.071,0.22000001,-0.062000003,1.1691877,0,nan,0.0,4,0,1,16,0
625570024,1651992639800492,403543780,1168999386,197095,189968,0.26900002,0.68851733,1.1450001,1.8360001,0.69,1.01,103,62,0.26000002,0.157,0.20700002,-0.053000003,1.1691877,0,nan,0.0,4,0,1,16,0
625787670,1651992640000492,403543784,1168999389,197143,190016,0.24700001,0.68853045,1.144,1.8340001,0.63,0.96999997,103,62,0.316,0.26200002,0.177,-0.08800001,1.1691877,0,nan,0.0,4,0,1,18,0
625975040,1651992640200492,403543789,1168999390,197195,190069,0.24000001,0.6519182,1.1420001,1.8330001,0.63,0.96999997,103,62,0.38300002,0.351,0.15300001,-0.006,0.7699665,0,nan,0.0,4,0,1,18,0
626178114,1651992640400492,403543797,1168999392,197244,190118,0.246,0.387968,1.141,1.8310001,0.63,0.96999997,103,62,0.647,0.624,0.171,-0.030000001,0.3985487,0,nan,0.0,4,0,1,18,0
626378477,1651992640600492,403543810,1168999394,197264,190137,0.25,0.24745871,1.1400001,1.83,0.63,0.96999997,103,64,0.97,0.95900005,0.142,-0.082,0.21986923,0,nan,0.0,4,0,1,18,0
626587023,1651992640800491,403543831,1168999396,197270,190143,0.25,0.16691177,1.139,1.8290001,0.63,0.96999997,103,64,1.5020001,1.485,0.22600001,-0.003,0.17238738,0,nan,0.0,4,0,1,18,0
626776546,1651992641000491,403543860,1168999401,197289,190162,0.25,0.14694189,1.139,1.8280001,0.63,0.96999997,103,64,1.9670001,1.94,0.324,0.074,0.16856162,0,nan,0.0,4,0,1,18,0
626974029,1651992641200491,403543900,1168999406,197321,190195,0.24900001,0.105618075,1.139,1.8280001,0.63,0.96999997,103,64,2.647,2.6250002,0.33800003,-0.043,0.14181235,0,nan,0.0,4,0,1,18,0
627177429,1651992641400491,403543952,1168999414,197351,190224,0.268,0.08602641,1.139,1.8280001,0.65,0.98999995,103,64,3.2710001,3.2440002,0.42200002,-0.10300001,0.13423623,0,nan,0.0,4,0,1,17,0
627378025,1651992641600491,403544018,1168999425,197352,190225,0.268,0.06818373,1.139,1.8270001,0.65,0.98999995,103,67,4.0750003,4.0350003,0.56700003,-0.085,0.13754766,0,nan,0.0,4,0,1,17,0
627579022,1651992641800491,403544096,1168999437,197379,190252,0.26500002,0.04887009,1.139,1.8270001,0.63,0.96999997,103,67,4.7710004,4.735,0.58500004,-0.087000005,0.12774344,0,nan,0.0,4,0,1,18,0
627794024,1651992642000491,403544188,1168999450,197390,190264,0.26500002,0.04105468,1.138,1.8240001,0.63,0.96999997,103,67,5.5550003,5.5130005,0.67700005,-0.27400002,0.12435034,0,nan,0.0,4,0,1,18,0
627977023,1651992642200491,403544293,1168999465,197450,190323,0.26000002,0.042992342,1.1370001,1.8220001,0.63,0.96999997,103,67,6.2330003,6.195,0.683,-0.30900002,0.11670598,0,nan,0.0,4,0,1,18,0
628177023,1651992642400491,403544411,1168999483,197503,190377,0.25,0.03679154,1.1370001,1.82,0.69,1.01,103,67,6.8830004,6.8300004,0.84900004,-0.30900002,0.12105568,0,nan,0.0,4,0,1,16,0
628375025,1651992642600491,403544539,1168999503,197576,190449,0.25,0.03659065,1.1370001,1.8190001,0.69,1.01,103,64,7.393,7.3430004,0.855,-0.69100004,0.11815111,0,nan,0.0,4,0,1,16,0
628574029,1651992642800491,403544677,1168999523,197725,190598,0.25,0.031913344,1.1370001,1.817,0.69,1.01,103,64,8.124001,8.088,0.76900005,-0.83000004,0.09480611,0,nan,0.0,4,0,1,16,0
628775024,1651992643000491,403544828,1168999541,197873,190746,0.25300002,0.030299613,1.1370001,1.8160001,0.69,1.01,103,64,8.731,8.698,0.763,-0.532,0.087469265,0,nan,0.0,4,0,1,16,0
628975025,1651992643200491,403544991,1168999556,198016,190889,0.254,0.027837826,1.1370001,1.815,0.65999997,1.03,103,64,9.567,9.5460005,0.642,-0.37600002,0.06713863,0,nan,0.0,4,0,1,16,0
629175023,1651992643400490,403545170,1168999570,198088,190961,0.24100001,0.023066621,1.136,1.8130001,0.65999997,1.03,103,64,10.555,10.530001,0.73,0.15300001,0.06920632,0,nan,0.0,4,0,1,16,0
629374156,1651992643600490,403545367,1168999589,198024,190897,0.25,0.021820454,1.1350001,1.8110001,0.65,0.97999996,103,66,11.553,11.511001,0.98100007,0.61200005,0.084997706,0,nan,0.0,4,0,1,17,0
629574024,1651992643800490,403545582,1168999616,197873,190746,0.28800002,0.022192558,1.136,1.8110001,0.65,0.98999995,103,66,12.426001,12.353001,1.3410001,0.72200006,0.10813327,0,nan,0.0,4,0,1,17,0
629778027,1651992644000490,403545812,1168999654,197777,190650,0.28500003,0.021017952,1.1370001,1.812,0.69,1.01,103,66,13.200001,13.069,1.8570001,0.23,0.14111178,0,nan,0.0,4,0,1,16,0
629977023,1651992644200490,403546054,1168999706,197739,190612,0.303,0.020966114,1.138,1.8130001,0.65,0.98999995,103,66,13.944,13.716001,2.5110002,0.23300001,0.18104212,0,nan,0.0,4,0,1,17,0
630185026,1651992644400490,403546306,1168999765,197679,190552,0.26500002,0.019962203,1.139,1.8140001,0.63,0.96999997,103,62,14.709001,14.449,2.755,0.93700004,0.1883945,0,nan,0.0,4,0,1,18,0
630377026,1651992644600490,403546574,1168999834,197411,190285,0.30400002,0.018790739,1.1400001,1.815,0.63,0.96999997,103,62,15.712001,15.391001,3.1590002,1.8930001,0.20242257,0,nan,0.0,4,0,1,18,0
630575024,1651992644800490,403546859,1168999915,196955,189828,0.32700002,0.018067125,1.141,1.817,0.63,0.96999997,103,62,16.79,16.338001,3.8680003,2.7700002,0.23248884,0,nan,0.0,4,0,1,18,0
630773024,1651992645000490,403547157,1169000012,196342,189215,0.328,0.017471269,1.143,1.82,0.63,0.96999997,103,62,17.259,16.679,4.438,3.305,0.26005545,0,nan,0.0,4,0,1,18,0
630977350,1651992645200490,403547460,1169000120,195596,188469,0.35300002,0.01646247,1.1450001,1.8220001,0.63,0.96999997,103,62,17.53,16.87,4.763,3.9870002,0.2751932,0,nan,0.0,4,0,1,18,0
631177025,1651992645400490,403547769,1169000235,194669,187542,0.298,0.013610076,1.146,1.8230001,0.63,0.96999997,103,62,17.989,17.251001,5.098,4.842,0.2873613,0,nan,0.0,4,0,1,18,0
631373847,1651992645600490,403548086,1169000357,193744,186617,0.279,0.013095205,1.1450001,1.8230001,0.63,0.96999997,103,64,18.625,17.832,5.3750005,4.533,0.2927734,0,nan,0.0,4,0,1,18,0
631576024,1651992645800490,403548414,1169000493,193014,185887,0.282,0.0126073845,1.1450001,1.8230001,0.63,0.96999997,103,64,19.464,18.480001,6.11,3.016,0.31932247,0,nan,0.0,4,0,1,18,0
631783023,1651992646000489,403548752,1169000644,192461,185334,0.28300002,0.013839763,1.1450001,1.8240001,0.63,0.96999997,103,64,20.050001,18.856,6.8160005,1.863,0.346847,0,nan,0.0,4,0,1,18,0
631971032,1651992646200489,403549094,1169000811,192142,185016,0.28100002,0.01309887,1.1450001,1.825,0.63,0.96999997,103,64,20.426,19.077002,7.2990003,1.343,0.3654346,0,nan,0.0,4,0,1,18,0
632178707,1651992646400489,403549439,1169000987,191871,184744,0.264,0.013451951,1.1450001,1.8270001,0.63,0.96999997,103,64,20.716002,19.249,7.6570005,1.366,0.37860206,0,nan,0.0,4,0,1,18,0
632381610,1651992646600489,403549786,1169001172,191558,184431,0.287,0.012983679,1.1450001,1.8280001,0.63,0.96999997,103,61,20.914001,19.289001,8.083,1.687,0.39679414,0,nan,0.0,4,0,1,18,0
632576048,1651992646800489,403550133,1169001369,191252,184126,0.284,0.012715071,1.1450001,1.83,0.63,0.96999997,103,61,21.187,19.284,8.777,1.6880001,0.42711225,0,nan,0.0,4,0,1,18,0
632783024,1651992647000489,403550478,1169001583,190962,183836,0.261,0.012352741,1.1450001,1.8320001,0.63,0.96999997,103,61,21.226002,18.975,9.512,1.378,0.46468604,0,nan,0.0,4,0,1,18,0
632979024,1651992647200489,403550815,1169001821,190745,183619,0.272,0.013527174,1.1450001,1.8330001,0.63,0.96999997,103,61,21.453001,18.594002,10.702001,0.483,0.5222587,0,nan,0.0,4,0,1,18,0
633174314,1651992647400489,403551142,1169002086,190759,183632,0.24800001,0.01607745,1.146,1.8340001,0.63,1.04,103,61,21.382002,17.744001,11.932,-0.19700001,0.5920071,0,nan,0.0,4,0,1,17,0
633376022,1651992647600489,403551456,1169002379,190826,183700,0.21300001,0.016111309,1.1470001,1.8340001,0.63,1.04,103,65,21.467001,17.071001,13.015,-0.41400003,0.65140486,0,nan,0.0,4,0,1,17,0
633583476,1651992647800489,403551756,1169002698,190928,183802,0.252,0.01664852,1.148,1.8360001,0.63,1.04,103,65,21.508001,16.269001,14.069,-0.64900005,0.7130085,0,nan,0.0,4,0,1,17,0
633794945,1651992648000489,403552040,1169003042,190969,183843,0.25,0.016457755,1.149,1.8370001,0.63,0.96999997,103,65,21.584002,15.401001,15.122001,-0.697,0.77625227,0,nan,0.0,4,0,1,18,0
633973025,1651992648200489,403552311,1169003408,190974,183848,0.25300002,0.016412552,1.151,1.838,0.63,0.96999997,103,65,21.813002,14.903001,15.928,-0.19700001,0.81865,0,nan,0.0,4,0,1,18,0
634177021,1651992648400489,403552569,1169003794,190966,183841,0.24700001,0.014767754,1.1520001,1.838,0.63,1.04,103,65,21.883001,14.057001,16.772001,0.003,0.87325084,0,nan,0.0,4,0,1,17,0
634377024,1651992648600488,403552811,1169004196,190891,183766,0.23600002,0.013860881,1.153,1.8390001,0.63,1.04,104,64,21.933,13.252001,17.477001,0.11400001,0.922023,0,nan,0.0,4,0,1,17,0
634575026,1651992648800488,403553031,1169004622,190596,183471,0.28800002,0.012625886,1.153,1.8390001,0.63,0.96999997,104,64,22.015001,11.818001,18.574001,0.14,1.0041238,0,nan,0.0,4,0,1,18,0
634783453,1651992649000488,403553224,1169005072,190272,183146,0.29200003,0.013114753,1.5100001,2.4080002,0.63,0.96999997,104,64,22.185001,10.361,19.617,-0.001,1.0848697,0,nan,0.0,4,0,1,18,0
634974049,1651992649200488,403553394,1169005542,190341,183216,0.287,0.01320359,1.2950001,2.065,0.64,1.09,104,64,22.12,8.569,20.393002,-0.56600004,1.1729901,0,nan,0.0,4,0,1,16,0
635177001,1651992649400488,403553530,1169006025,190539,183414,0.27800003,0.012455192,1.156,1.8440001,0.64,1.09,104,64,21.882002,6.8430004,20.785002,-0.85200006,1.2527637,0,nan,0.0,4,0,1,16,0
635378550,1651992649600488,403553628,1169006516,190620,183495,0.31300002,0.014502116,1.345,2.147,0.63,0.96999997,104,63,21.673,4.809,21.132002,-1.01,1.3470278,0,nan,0.0,4,0,1,18,0
635571983,1651992649800488,403553688,1169007014,190767,183643,0.32900003,0.016227199,1.526,2.436,0.64,1.0,104,63,21.571001,2.5930002,21.415,-1.21,1.4502895,0,nan,0.0,4,0,1,17,0
635780737,1651992650000488,403553718,1169007518,191077,183952,0.37,0.01832683,1.3440001,2.144,0.64,1.09,104,63,21.632002,0.90200007,21.613,-1.838,1.5290722,0,nan,0.0,4,0,1,16,0
635970433,1651992650200488,403553710,1169008020,191193,184068,0.39100003,0.018295588,1.5740001,2.505,0.65,1.0,104,63,21.127,-1.0860001,21.099,-1.342,1.6222122,0,nan,0.0,4,0,1,16,0
636175027,1651992650400488,403553674,1169008518,191560,184435,0.38200003,0.018114772,1.3640001,2.164,0.66999996,1.05,104,63,21.437,-2.7570002,21.259,-2.1320002,1.6997716,0,nan,0.0,4,0,1,15,0
636374029,1651992650600488,403553608,1169009015,192030,184906,0.37500003,0.018945899,1.197,1.894,0.65999997,1.04,104,64,21.552002,-4.388,21.101002,-2.492,1.7758127,0,nan,0.0,4,0,1,16,0
636579900,1651992650800488,403553504,1169009497,192287,185163,0.365,0.018466631,1.4990001,2.3630002,0.65999997,0.96999997,104,64,21.105001,-6.282,20.148,-2.006,1.8730487,0,nan,0.0,4,0,1,17,0
636776025,1651992651000488,403553382,1169009969,192703,185579,0.33200002,0.018608175,1.294,2.035,0.65999997,1.04,104,64,21.233002,-7.09,20.014002,-2.094,1.9112425,0,nan,0.0,4,0,1,16,0
636974081,1651992651200488,403553237,1169010428,192805,185681,0.305,0.016040972,1.5600001,2.4520001,0.69,0.96999997,104,64,21.062,-8.371,19.328001,-1.389,1.9795078,0,nan,0.0,4,0,1,16,0
637271173,1651992651400487,403553066,1169010874,193147,186023,0.312,0.0170482,1.4820001,2.1680002,0.7,1.14,104,65,21.150002,-9.431001,18.931002,-1.598,2.0329933,0,nan,0.0,4,0,1,14,0
637377022,1651992651600487,403552884,1169011310,193177,186054,0.319,0.017672157,1.559,2.2800002,0.65999997,0.96999997,104,65,20.952002,-10.243,18.278002,-0.96400005,2.0815797,0,nan,0.0,4,0,1,17,0
637576025,1651992651800487,403552691,1169011729,193295,186172,0.30100003,0.016311847,1.363,1.996,0.65999997,1.04,104,65,20.607,-10.969001,17.445002,-0.646,2.1320963,0,nan,0.0,4,0,1,16,0
637782852,1651992652000487,403552486,1169012134,193379,186256,0.32500002,0.014866191,1.307,1.9160001,0.63,1.12,104,65,20.669,-11.781,16.983002,-0.351,2.1772552,0,nan,0.0,4,0,1,16,0
637971024,1651992652200487,403552267,1169012526,193435,186312,0.326,0.015219445,1.3080001,1.9180001,0.65999997,1.12,104,65,20.744001,-12.703001,16.400002,0.066,2.2298412,0,nan,0.0,4,0,1,15,0
638175025,1651992652400487,403552027,1169012909,193421,186298,0.291,0.014206281,1.3080001,1.9200001,0.63,1.02,104,65,20.948002,-13.669001,15.874001,0.264,2.2816682,0,nan,0.0,4,0,1,17,0
638374025,1651992652600487,403551767,1169013275,193076,185953,0.333,0.013842031,1.4130001,2.0740001,0.63,1.02,104,62,20.946001,-14.486001,15.129001,0.55200005,2.3344789,0,nan,0.0,4,0,1,17,0
638570022,1651992652800487,403551490,1169013616,192651,185528,0.38200003,0.013644111,1.6940001,2.4840002,0.63,0.96999997,104,62,20.978,-15.512001,14.123001,0.526,2.403061,0,nan,0.0,4,0,1,18,0
638777024,1651992653000487,403551198,1169013934,192477,185354,0.31800002,0.012239121,1.554,2.276,0.63,0.96999997,104,62,21.023,-16.61,12.886001,0.178,2.4817908,0,nan,0.0,4,0,1,18,0
638977023,1651992653200487,403550888,1169014220,192343,185221,0.4,0.012287118,1.457,2.13,0.63,0.96999997,104,62,20.810001,-17.379002,11.4470005,-0.22100002,2.5591333,0,nan,0.0,4,0,1,18,0
639219025,1651992653400487,403550564,1169014474,192489,185367,0.40100002,0.011992332,1.3080001,1.9070001,0.63,1.02,104,66,21.028002,-18.426,10.132001,-0.98800004,2.6388428,0,nan,0.0,4,0,1,17,0
639377283,1651992653600487,403550228,1169014700,192786,185663,0.42400002,0.013375156,1.3080001,1.9060001,0.63,1.02,104,66,20.789001,-18.771002,8.937,-1.503,2.697245,0,nan,0.0,4,0,1,17,0
639574761,1651992653800487,403549891,1169014896,193070,185948,0.397,0.014636854,1.309,1.9070001,0.63,1.02,104,66,20.282001,-18.823,7.5550003,-1.6470001,2.759917,0,nan,0.0,4,0,1,17,0
639779363,1651992654000486,403549551,1169015065,193446,186324,0.40100002,0.013488428,1.309,1.9060001,0.63,0.96999997,104,66,20.161001,-19.016,6.696,-1.9510001,2.8030152,0,nan,0.0,4,0,1,18,0
639976025,1651992654200486,403549207,1169015210,193925,186802,0.40300003,0.0152021665,1.3100001,1.9060001,0.63,1.02,104,66,20.091002,-19.295,5.6010003,-2.3990002,2.8590896,0,nan,0.0,4,0,1,17,0
640178700,1651992654400486,403548862,1169015334,194398,187276,0.36900002,0.014776131,1.3100001,1.9030001,0.63,0.96999997,104,66,19.831001,-19.225,4.868,-2.335,2.8935943,0,nan,0.0,4,0,1,18,0
640377025,1651992654600486,403548517,1169015443,194763,187641,0.36600003,0.015285418,1.3100001,1.9010001,0.63,0.96999997,104,66,19.727001,-19.226002,4.419,-1.695,2.9156942,0,nan,0.0,4,0,1,18,0
640577024,1651992654800486,403548173,1169015543,194992,187870,0.34500003,0.015190299,1.3100001,1.899,0.63,0.96999997,104,66,19.636002,-19.213001,4.053,-0.8880001,2.9336996,0,nan,0.0,4,0,1,18,0
640777026,1651992655000486,403547828,1169015635,195124,188002,0.342,0.016335582,1.3100001,1.8970001,0.63,0.96999997,104,66,19.545,-19.194,3.6870003,-0.39900002,2.9518292,0,nan,0.0,4,0,1,18,0
640979022,1651992655200486,403547484,1169015716,195116,187994,0.32900003,0.015809191,1.3110001,1.8950001,0.63,0.96999997,104,66,19.447,-19.187,3.173,0.038000003,2.9776924,0,nan,0.0,4,0,1,18,0
641173022,1651992655400486,403547138,1169015783,195049,187927,0.35700002,0.016435765,1.312,1.8930001,0.63,0.96999997,104,66,19.582,-19.407001,2.618,0.12200001,3.0075223,0,nan,0.0,4,0,1,18,0
641379050,1651992655600486,403546789,1169015841,194994,187872,0.35200003,0.016476082,1.3130001,1.8920001,0.63,0.96999997,104,61,19.75,-19.607,2.3660002,0.254,3.021506,0,nan,0.0,4,0,1,18,0
641577127,1651992655800486,403546435,1169015891,194920,187798,0.314,0.016144644,1.315,1.8900001,0.63,0.96999997,104,61,19.917002,-19.834002,1.8160001,0.423,3.0502672,0,nan,0.0,4,0,1,18,0
641787025,1651992656000486,403546077,1169015929,194852,187731,0.31500003,0.017339496,1.3160001,1.891,0.63,0.96999997,104,61,20.103,-20.052,1.4330001,0.49800003,3.0702367,0,nan,0.0,4,0,1,18,0
641977024,1651992656200486,403545717,1169015956,194743,187621,0.26500002,0.018093478,1.3180001,1.8920001,0.63,0.96999997,104,61,20.108002,-20.088001,0.8880001,0.837,3.097439,0,nan,0.0,4,0,1,18,0
642175133,1651992656400486,403545356,1169015973,194526,187405,0.294,0.017170025,1.32,1.894,0.63,0.96999997,104,61,20.216002,-20.207,0.60700005,1.0380001,3.111563,0,nan,0.0,4,0,1,18,0
642378024,1651992656600485,403544994,1169015978,194345,187224,0.30900002,0.018075151,1.322,1.8960001,0.63,0.96999997,104,65,20.085001,-20.084002,-0.16900001,0.94200003,3.149989,0,nan,0.0,4,0,1,18,0
642581029,1651992656800485,403544638,1169015965,194187,187066,0.314,0.018888127,1.3260001,1.8980001,0.63,0.96999997,104,65,19.786001,-19.757002,-1.0680001,0.703,3.195609,0,nan,0.0,4,0,1,18,0
642781142,1651992657000485,403544286,1169015932,194132,187010,0.319,0.019386418,1.3290001,1.9010001,0.63,0.96999997,104,65,19.516,-19.434,-1.7870001,0.268,3.2332938,0,nan,0.0,4,0,1,18,0
642981265,1651992657200485,403543942,1169015880,194137,187015,0.324,0.018635055,1.332,1.904,0.63,0.96999997,104,65,19.174002,-18.991001,-2.64,-0.337,3.2797244,0,nan,0.0,4,0,1,18,0
643186026,1651992657400485,403543606,1169015810,194209,187088,0.32000002,0.01793605,1.3340001,1.9060001,0.63,0.96999997,104,64,18.932001,-18.653002,-3.236,-0.43100002,3.313379,0,nan,0.0,4,0,1,18,0
643377024,1651992657600485,403543274,1169015727,194319,187197,0.36900002,0.017042091,1.3360001,1.9070001,0.63,0.96999997,104,64,18.773,-18.389,-3.7770002,-0.416,3.3441617,0,nan,0.0,4,0,1,18,0
643585036,1651992657800485,403542946,1169015635,194390,187268,0.37,0.01718521,1.337,1.9080001,0.63,0.96999997,104,64,18.789001,-18.324001,-4.158,-0.40500003,3.3647366,0,nan,0.0,4,0,1,18,0
643773845,1651992658000485,403542620,1169015534,194454,187333,0.37100002,0.018571176,1.3390001,1.909,0.63,0.96999997,104,64,18.708,-18.133001,-4.602,-0.09900001,3.3901627,0,nan,0.0,4,0,1,18,0
