timestamp,voltage_v,voltage_filtered_v,current_a,current_filtered_a,current_average_a,discharged_mah,remaining,scale,temperature,cell_count,voltage_cell_v[0],voltage_cell_v[1],voltage_cell_v[2],voltage_cell_v[3],voltage_cell_v[4],voltage_cell_v[5],voltage_cell_v[6],voltage_cell_v[7],voltage_cell_v[8],voltage_cell_v[9],voltage_cell_v[10],voltage_cell_v[11],voltage_cell_v[12],voltage_cell_v[13],max_cell_voltage_delta,average_power,available_energy,remaining_capacity,design_capacity,nominal_voltage,capacity,cycle_count,run_time_to_empty,average_time_to_empty,serial_number,manufacture_date,state_of_health,max_error,interface_error,average_time_to_full,over_discharge_count,connected,source,priority,id,is_powering_off,warning
579928913,24.577927,24.752186,0.0,0.0001226894,-1.0,0.09972196,0.81341106,1.0180919,nan,6,4.1253643,4.1253643,4.1253643,4.1253643,4.1253643,4.1253643,0.0,0.0,0.0,0.0,0.0,0.0,0.0,0.0,0.0,0.0,0.0,0.0,0.0,0.0,0,0,0,0,0,0,0,0,0,0,0,1,0,0,1,0,0
579938882,24.624407,24.750921,0.0,0.00012028372,-1.0,0.09972196,0.8128846,1.0181439,nan,6,4.1251535,4.1251535,4.1251535,4.1251535,4.1251535,4.1251535,0.0,0.0,0.0,0.0,0.0,0.0,0.0,0.0,0.0,0.0,0.0,0.0,0.0,0.0,0,0,0,0,0,0,0,0,0,0,0,1,0,0,1,0,0
580129132,24.693674,24.745535,0.0,8.256646e-05,-1.0,0.09972196,0.8106397,1.0183655,nan,6,4.1242557,4.1242557,4.1242557,4.1242557,4.1242557,4.1242557,0.0,0.0,0.0,0.0,0.0,0.0,0.0,0.0,0.0,0.0,0.0,0.0,0.0,0.0,0,0,0,0,0,0,0,0,0,0,0,1,0,0,1,0,0
580338901,24.669067,24.73747,0.0,5.4475357e-05,-1.0,0.09972196,0.8072799,1.0186974,nan,6,4.122912,4.122912,4.122912,4.122912,4.122912,4.122912,0.0,0.0,0.0,0.0,0.0,0.0,0.0,0.0,0.0,0.0,0.0,0.0,0.0,0.0,0,0,0,0,0,0,0,0,0,0,0,1,0,0,1,0,0
580539021,24.765675,24.732996,0.0,3.6660356e-05,-1.0,0.09972196,0.80549175,1.0188742,nan,6,4.122166,4.122166,4.122166,4.122166,4.122166,4.122166,0.0,0.0,0.0,0.0,0.0,0.0,0.0,0.0,0.0,0.0,0.0,0.0,0.0,0.0,0,0,0,0,0,0,0,0,0,0,0,1,0,0,1,0,0
580728917,24.771143,24.73048,0.0,2.5164793e-05,-1.0,0.09972196,0.8066924,1.0187556,nan,6,4.1217465,4.1217465,4.1217465,4.1217465,4.1217465,4.1217465,0.0,0.0,0.0,0.0,0.0,0.0,0.0,0.0,0.0,0.0,0.0,0.0,0.0,0.0,0,0,0,0,0,0,0,0,0,0,0,1,0,0,1,0,0
580928878,24.68365,24.726294,0.0,1.6935184e-05,-1.0,0.09972196,0.8110803,1.018322,nan,6,4.121049,4.121049,4.121049,4.121049,4.121049,4.121049,0.0,0.0,0.0,0.0,0.0,0.0,0.0,0.0,0.0,0.0,0.0,0.0,0.0,0.0,0,0,0,0,0,0,0,0,0,0,0,1,0,0,1,0,0
581128877,24.636255,24.716818,0.0,1.13968945e-05,-1.0,0.09972196,0.8173936,1.0176989,nan,6,4.1194696,4.1194696,4.1194696,4.1194696,4.1194696,4.1194696,0.0,0.0,0.0,0.0,0.0,0.0,0.0,0.0,0.0,0.0,0.0,0.0,0.0,0.0,0,0,0,0,0,0,0,0,0,0,0,1,0,0,1,0,0
581328877,24.72284,24.711344,0.0,7.669783e-06,-1.0,0.09972196,0.82987624,1.0164691,nan,6,4.1185575,4.1185575,4.1185575,4.1185575,4.1185575,4.1185575,0.0,0.0,0.0,0.0,0.0,0.0,0.0,0.0,0.0,0.0,0.0,0.0,0.0,0.0,0,0,0,0,0,0,0,0,0,0,0,1,0,0,1,0,0
581528916,24.771143,24.707844,0.0,5.1615443e-06,-1.0,0.09972196,0.8479236,1.0146964,nan,6,4.117974,4.117974,4.117974,4.117974,4.117974,4.117974,0.0,0.0,0.0,0.0,0.0,0.0,0.0,0.0,0.0,0.0,0.0,0.0,0.0,0.0,0,0,0,0,0,0,0,0,0,0,0,1,0,0,1,0,0
581738884,24.65266,24.700857,0.0,3.4054626e-06,-1.0,0.09972196,0.87025005,1.0125117,nan,6,4.1168094,4.1168094,4.1168094,4.1168094,4.1168094,4.1168094,0.0,0.0,0.0,0.0,0.0,0.0,0.0,0.0,0.0,0.0,0.0,0.0,0.0,0.0,0,0,0,0,0,0,0,0,0,0,0,1,0,0,1,0,0
581938877,24.761118,24.696142,0.0,2.2917789e-06,-1.0,0.09972196,0.8907197,1.0105171,nan,6,4.1160235,4.1160235,4.1160235,4.1160235,4.1160235,4.1160235,0.0,0.0,0.0,0.0,0.0,0.0,0.0,0.0,0.0,0.0,0.0,0.0,0.0,0.0,0,0,0,0,0,0,0,0,0,0,0,1,0,0,1,0,0
582128879,24.614382,24.692606,0.0,1.5731475e-06,-1.0,0.09972196,0.90790206,1.0088488,nan,6,4.115434,4.115434,4.115434,4.115434,4.115434,4.115434,0.0,0.0,0.0,0.0,0.0,0.0,0.0,0.0,0.0,0.0,0.0,0.0,0.0,0.0,0,0,0,0,0,0,0,0,0,0,0,1,0,0,1,0,0
582338879,24.662687,24.688158,0.0,1.0379247e-06,-1.0,0.09972196,0.92438155,1.007254,nan,6,4.114693,4.114693,4.114693,4.114693,4.114693,4.114693,0.0,0.0,0.0,0.0,0.0,0.0,0.0,0.0,0.0,0.0,0.0,0.0,0.0,0.0,0,0,0,0,0,0,0,0,0,0,0,1,0,0,1,0,0
582529227,24.682737,24.687857,0.0,7.124635e-07,-1.0,0.09972196,0.939297,1.0058148,nan,6,4.1146426,4.1146426,4.1146426,4.1146426,4.1146426,4.1146426,0.0,0.0,0.0,0.0,0.0,0.0,0.0,0.0,0.0,0.0,0.0,0.0,0.0,0.0,0,0,0,0,0,0,0,0,0,0,0,1,0,0,1,0,0
582729535,24.657217,24.68749,0.0,4.794675e-07,-1.0,0.09972196,0.95389205,1.0044106,nan,6,4.1145816,4.1145816,4.1145816,4.1145816,4.1145816,4.1145816,0.0,0.0,0.0,0.0,0.0,0.0,0.0,0.0,0.0,0.0,0.0,0.0,0.0,0.0,0,0,0,0,0,0,0,0,0,0,0,1,0,0,1,0,0
582928879,24.688206,24.687288,0.0,3.2266792e-07,-1.0,0.09972196,0.9677785,1.0030781,nan,6,4.114548,4.114548,4.114548,4.114548,4.114548,4.114548,0.0,0.0,0.0,0.0,0.0,0.0,0.0,0.0,0.0,0.0,0.0,0.0,0.0,0.0,0,0,0,0,0,0,0,0,0,0,0,1,0,0,1,0,0
583138877,24.67271,24.680338,0.0,2.1288854e-07,-1.0,0.09972196,0.979194,1.0019854,nan,6,4.1133895,4.1133895,4.1133895,4.1133895,4.1133895,4.1133895,0.0,0.0,0.0,0.0,0.0,0.0,0.0,0.0,0.0,0.0,0.0,0.0,0.0,0.0,0,0,0,0,0,0,0,0,0,0,0,1,0,0,1,0,0
583338876,24.597065,24.67184,0.0,1.4326787e-07,-1.0,0.09972196,0.9891818,1.0010314,nan,6,4.1119733,4.1119733,4.1119733,4.1119733,4.1119733,4.1119733,0.0,0.0,0.0,0.0,0.0,0.0,0.0,0.0,0.0,0.0,0.0,0.0,0.0,0.0,0,0,0,0,0,0,0,0,0,0,0,1,0,0,1,0,0
583528878,24.502277,24.663568,0.0,9.8343484e-08,-1.0,0.09972196,0.99890167,1.0001045,nan,6,4.1105947,4.1105947,4.1105947,4.1105947,4.1105947,4.1105947,0.0,0.0,0.0,0.0,0.0,0.0,0.0,0.0,0.0,0.0,0.0,0.0,0.0,0.0,0,0,0,0,0,0,0,0,0,0,0,1,0,0,1,0,0
583728877,24.536913,24.64071,0.0,6.6182345e-08,-1.0,0.09972196,1.0,1.0,nan,6,4.1067853,4.1067853,4.1067853,4.1067853,4.1067853,4.1067853,0.0,0.0,0.0,0.0,0.0,0.0,0.0,0.0,0.0,0.0,0.0,0.0,0.0,0.0,0,0,0,0,0,0,0,0,0,0,0,1,0,0,1,0,0
583928890,24.531443,24.61829,0.0,4.4538815e-08,-1.0,0.09972196,1.0,1.0,nan,6,4.1030483,4.1030483,4.1030483,4.1030483,4.1030483,4.1030483,0.0,0.0,0.0,0.0,0.0,0.0,0.0,0.0,0.0,0.0,0.0,0.0,0.0,0.0,0,0,0,0,0,0,0,0,0,0,0,1,0,0,1,0,0
584128908,24.37286,24.590569,0.0,2.997334e-08,-1.0,0.09972196,1.0,1.0,nan,6,4.0984282,4.0984282,4.0984282,4.0984282,4.0984282,4.0984282,0.0,0.0,0.0,0.0,0.0,0.0,0.0,0.0,0.0,0.0,0.0,0.0,0.0,0.0,0,0,0,0,0,0,0,0,0,0,0,1,0,0,1,0,0
584328885,24.395645,24.557262,0.0,2.0171198e-08,-1.0,0.09972196,1.0,1.0,nan,6,4.092877,4.092877,4.092877,4.092877,4.092877,4.092877,0.0,0.0,0.0,0.0,0.0,0.0,0.0,0.0,0.0,0.0,0.0,0.0,0.0,0.0,0,0,0,0,0,0,0,0,0,0,0,1,0,0,1,0,0
584539002,24.299034,24.512398,0.0,1.33084725e-08,-1.0,0.09972196,1.0,1.0,nan,6,4.0853996,4.0853996,4.0853996,4.0853996,4.0853996,4.0853996,0.0,0.0,0.0,0.0,0.0,0.0,0.0,0.0,0.0,0.0,0.0,0.0,0.0,0.0,0,0,0,0,0,0,0,0,0,0,0,1,0,0,1,0,0
584738877,24.194221,24.466284,0.0,0.0051652603,-1.0,0.100538604,1.0,1.0,nan,6,4.077714,4.077714,4.077714,4.077714,4.077714,4.077714,0.0,0.0,0.0,0.0,0.0,0.0,0.0,0.0,0.0,0.0,0.0,0.0,0.0,0.0,0,0,0,0,0,0,0,0,0,0,0,1,0,0,1,0,0
584928878,24.018322,24.40969,0.0,0.0035455935,-1.0,0.100538604,1.0,1.0,nan,6,4.0682817,4.0682817,4.0682817,4.0682817,4.0682817,4.0682817,0.0,0.0,0.0,0.0,0.0,0.0,0.0,0.0,0.0,0.0,0.0,0.0,0.0,0.0,0,0,0,0,0,0,0,0,0,0,0,1,0,0,1,0,0
585128878,24.055689,24.350462,0.0,0.0023860827,-1.0,0.100538604,1.0,1.0,nan,6,4.05841,4.05841,4.05841,4.05841,4.05841,4.05841,0.0,0.0,0.0,0.0,0.0,0.0,0.0,0.0,0.0,0.0,0.0,0.0,0.0,0.0,0,0,0,0,0,0,0,0,0,0,0,1,0,0,1,0,0
585329230,23.996447,24.28958,0.0,0.0016057652,-1.0,0.100538604,0.993584,1.0006114,nan,6,4.048263,4.048263,4.048263,4.048263,4.048263,4.048263,0.0,0.0,0.0,0.0,0.0,0.0,0.0,0.0,0.0,0.0,0.0,0.0,0.0,0.0,0,0,0,0,0,0,0,0,0,0,0,1,0,0,1,0,0
585528878,23.988245,24.226206,0.0,0.0010806341,-1.0,0.100538604,0.9817069,1.0017452,nan,6,4.037701,4.037701,4.037701,4.037701,4.037701,4.037701,0.0,0.0,0.0,0.0,0.0,0.0,0.0,0.0,0.0,0.0,0.0,0.0,0.0,0.0,0,0,0,0,0,0,0,0,0,0,0,1,0,0,1,0,0
585728876,23.898928,24.164646,0.0,0.0007949075,-1.0,0.10054878,0.9694446,1.0029186,nan,6,4.027441,4.027441,4.027441,4.027441,4.027441,4.027441,0.0,0.0,0.0,0.0,0.0,0.0,0.0,0.0,0.0,0.0,0.0,0.0,0.0,0.0,0,0,0,0,0,0,0,0,0,0,0,1,0,0,1,0,0
585938877,23.66834,24.104813,0.0,0.0005244608,-1.0,0.10054878,0.9563945,1.0041702,nan,6,4.017469,4.017469,4.017469,4.017469,4.017469,4.017469,0.0,0.0,0.0,0.0,0.0,0.0,0.0,0.0,0.0,0.0,0.0,0.0,0.0,0.0,0,0,0,0,0,0,0,0,0,0,0,1,0,0,1,0,0
586529053,23.692947,23.982372,0.0,0.00016304328,-1.0,0.10054878,0.93010837,1.0067009,nan,6,3.997062,3.997062,3.997062,3.997062,3.997062,3.997062,0.0,0.0,0.0,0.0,0.0,0.0,0.0,0.0,0.0,0.0,0.0,0.0,0.0,0.0,0,0,0,0,0,0,0,0,0,0,0,1,0,0,1,0,0
586728910,23.822369,23.943642,0.0,0.000109723485,-1.0,0.10054878,0.9198249,1.0076945,nan,6,3.990607,3.990607,3.990607,3.990607,3.990607,3.990607,0.0,0.0,0.0,0.0,0.0,0.0,0.0,0.0,0.0,0.0,0.0,0.0,0.0,0.0,0,0,0,0,0,0,0,0,0,0,0,1,0,0,1,0,0
586928899,23.717556,23.907682,0.0,7.3840776e-05,-1.0,0.10054878,0.9099029,1.008655,nan,6,3.9846137,3.9846137,3.9846137,3.9846137,3.9846137,3.9846137,0.0,0.0,0.0,0.0,0.0,0.0,0.0,0.0,0.0,0.0,0.0,0.0,0.0,0.0,0,0,0,0,0,0,0,0,0,0,0,1,0,0,1,0,0
587128878,23.677454,23.879467,0.0,4.969273e-05,-1.0,0.10054878,0.9029706,1.009327,nan,6,3.979911,3.979911,3.979911,3.979911,3.979911,3.979911,0.0,0.0,0.0,0.0,0.0,0.0,0.0,0.0,0.0,0.0,0.0,0.0,0.0,0.0,0,0,0,0,0,0,0,0,0,0,0,1,0,0,1,0,0
587338890,23.646467,23.845768,0.0,3.2786065e-05,-1.0,0.10054878,0.89430743,1.0101683,nan,6,3.9742947,3.9742947,3.9742947,3.9742947,3.9742947,3.9742947,0.0,0.0,0.0,0.0,0.0,0.0,0.0,0.0,0.0,0.0,0.0,0.0,0.0,0.0,0,0,0,0,0,0,0,0,0,0,0,1,0,0,1,0,0
587538877,23.677454,23.817795,0.0,2.2064083e-05,-1.0,0.10054878,0.8862279,1.0109541,nan,6,3.9696324,3.9696324,3.9696324,3.9696324,3.9696324,3.9696324,0.0,0.0,0.0,0.0,0.0,0.0,0.0,0.0,0.0,0.0,0.0,0.0,0.0,0.0,0,0,0,0,0,0,0,0,0,0,0,1,0,0,1,0,0
587738879,23.857914,23.807865,0.0,1.4848498e-05,-1.0,0.10054878,0.8849614,1.0110774,nan,6,3.9679775,3.9679775,3.9679775,3.9679775,3.9679775,3.9679775,0.0,0.0,0.0,0.0,0.0,0.0,0.0,0.0,0.0,0.0,0.0,0.0,0.0,0.0,0,0,0,0,0,0,0,0,0,0,0,1,0,0,1,0,0
587929150,23.814165,23.793764,0.0,1.0192465e-05,-1.0,0.10054878,0.8814319,1.0114212,nan,6,3.9656274,3.9656274,3.9656274,3.9656274,3.9656274,3.9656274,0.0,0.0,0.0,0.0,0.0,0.0,0.0,0.0,0.0,0.0,0.0,0.0,0.0,0.0,0,0,0,0,0,0,0,0,0,0,0,1,0,0,1,0,0
588128877,23.592693,23.772243,0.0,6.859237e-06,-1.0,0.10054878,0.87418777,1.0121274,nan,6,3.9620407,3.9620407,3.9620407,3.9620407,3.9620407,3.9620407,0.0,0.0,0.0,0.0,0.0,0.0,0.0,0.0,0.0,0.0,0.0,0.0,0.0,0.0,0,0,0,0,0,0,0,0,0,0,0,1,0,0,1,0,0
588328877,23.608189,23.768017,0.0,4.61607e-06,-1.0,0.10054878,0.8734811,1.0121964,nan,6,3.9613361,3.9613361,3.9613361,3.9613361,3.9613361,3.9613361,0.0,0.0,0.0,0.0,0.0,0.0,0.0,0.0,0.0,0.0,0.0,0.0,0.0,0.0,0,0,0,0,0,0,0,0,0,0,0,1,0,0,1,0,0
588528877,23.663782,23.752169,0.0,3.1064837e-06,-1.0,0.10054878,0.8677476,1.0127561,nan,6,3.9586947,3.9586947,3.9586947,3.9586947,3.9586947,3.9586947,0.0,0.0,0.0,0.0,0.0,0.0,0.0,0.0,0.0,0.0,0.0,0.0,0.0,0.0,0,0,0,0,0,0,0,0,0,0,0,1,0,0,1,0,0
588738878,23.737608,23.743168,0.0,2.049583e-06,-1.0,0.10054878,0.86464626,1.0130591,nan,6,3.9571946,3.9571946,3.9571946,3.9571946,3.9571946,3.9571946,0.0,0.0,0.0,0.0,0.0,0.0,0.0,0.0,0.0,0.0,0.0,0.0,0.0,0.0,0,0,0,0,0,0,0,0,0,0,0,1,0,0,1,0,0
588938906,23.620035,23.726852,0.0,1.3793104e-06,-1.0,0.10054878,0.8583892,1.0136712,nan,6,3.9544754,3.9544754,3.9544754,3.9544754,3.9544754,3.9544754,0.0,0.0,0.0,0.0,0.0,0.0,0.0,0.0,0.0,0.0,0.0,0.0,0.0,0.0,0,0,0,0,0,0,0,0,0,0,0,1,0,0,1,0,0
589128878,23.70662,23.72426,0.0,9.468014e-07,-1.0,0.10054878,0.85773593,1.013735,nan,6,3.9540434,3.9540434,3.9540434,3.9540434,3.9540434,3.9540434,0.0,0.0,0.0,0.0,0.0,0.0,0.0,0.0,0.0,0.0,0.0,0.0,0.0,0.0,0,0,0,0,0,0,0,0,0,0,0,1,0,0,1,0,0
589328929,23.608189,23.721342,0.0,0.0015191894,-1.0,0.10077303,0.8565801,1.0138482,nan,6,3.953557,3.953557,3.953557,3.953557,3.953557,3.953557,0.0,0.0,0.0,0.0,0.0,0.0,0.0,0.0,0.0,0.0,0.0,0.0,0.0,0.0,0,0,0,0,0,0,0,0,0,0,0,1,0,0,1,0,0
589528899,23.667429,23.714886,0.0,0.0010223709,-1.0,0.10077303,0.8536113,1.0141389,nan,6,3.952481,3.952481,3.952481,3.952481,3.952481,3.952481,0.0,0.0,0.0,0.0,0.0,0.0,0.0,0.0,0.0,0.0,0.0,0.0,0.0,0.0,0,0,0,0,0,0,0,0,0,0,0,1,0,0,1,0,0
589728877,23.800493,23.705276,0.0,0.00068802625,-1.0,0.10077303,0.8495582,1.0145361,nan,6,3.9508793,3.9508793,3.9508793,3.9508793,3.9508793,3.9508793,0.0,0.0,0.0,0.0,0.0,0.0,0.0,0.0,0.0,0.0,0.0,0.0,0.0,0.0,0,0,0,0,0,0,0,0,0,0,0,1,0,0,1,0,0
589928878,23.64829,23.702158,0.0,0.0004630219,-1.0,0.10077303,0.84817153,1.014672,nan,6,3.9503596,3.9503596,3.9503596,3.9503596,3.9503596,3.9503596,0.0,0.0,0.0,0.0,0.0,0.0,0.0,0.0,0.0,0.0,0.0,0.0,0.0,0.0,0,0,0,0,0,0,0,0,0,0,0,1,0,0,1,0,0
590138880,23.59725,23.693388,0.0,0.0020650006,-1.0,0.10106303,0.8445037,1.0150318,nan,6,3.948898,3.948898,3.948898,3.948898,3.948898,3.948898,0.0,0.0,0.0,0.0,0.0,0.0,0.0,0.0,0.0,0.0,0.0,0.0,0.0,0.0,0,0,0,0,0,0,0,0,0,0,0,1,0,0,1,0,0
590339386,23.844244,23.690899,0.0,0.0013896865,-1.0,0.10106303,0.8432744,1.0151525,nan,6,3.9484832,3.9484832,3.9484832,3.9484832,3.9484832,3.9484832,0.0,0.0,0.0,0.0,0.0,0.0,0.0,0.0,0.0,0.0,0.0,0.0,0.0,0.0,0,0,0,0,0,0,0,0,0,0,0,1,0,0,1,0,0
590539488,23.589048,23.686312,0.0,0.0070605082,-1.0,0.10195982,0.8414815,1.0153284,nan,6,3.9477186,3.9477186,3.9477186,3.9477186,3.9477186,3.9477186,0.0,0.0,0.0,0.0,0.0,0.0,0.0,0.0,0.0,0.0,0.0,0.0,0.0,0.0,0,0,0,0,0,0,0,0,0,0,0,1,0,0,1,0,0
590728879,23.661963,23.678284,0.0,0.00484655,-1.0,0.10195982,0.8386405,1.0156074,nan,6,3.9463806,3.9463806,3.9463806,3.9463806,3.9463806,3.9463806,0.0,0.0,0.0,0.0,0.0,0.0,0.0,0.0,0.0,0.0,0.0,0.0,0.0,0.0,0,0,0,0,0,0,0,0,0,0,0,1,0,0,1,0,0
590928880,23.616392,23.675648,0.0,0.003261589,-1.0,0.10195982,0.8376811,1.0157017,nan,6,3.9459412,3.9459412,3.9459412,3.9459412,3.9459412,3.9459412,0.0,0.0,0.0,0.0,0.0,0.0,0.0,0.0,0.0,0.0,0.0,0.0,0.0,0.0,0,0,0,0,0,0,0,0,0,0,0,1,0,0,1,0,0
591128877,23.62277,23.649231,0.0,0.0021949562,-1.0,0.10195982,0.82905036,1.0165504,nan,6,3.9415386,3.9415386,3.9415386,3.9415386,3.9415386,3.9415386,0.0,0.0,0.0,0.0,0.0,0.0,0.0,0.0,0.0,0.0,0.0,0.0,0.0,0.0,0,0,0,0,0,0,0,0,0,0,0,1,0,0,1,0,0
591328878,23.722115,23.65447,0.0,0.0014771426,-1.0,0.10195982,0.83035594,1.0164219,nan,6,3.9424117,3.9424117,3.9424117,3.9424117,3.9424117,3.9424117,0.0,0.0,0.0,0.0,0.0,0.0,0.0,0.0,0.0,0.0,0.0,0.0,0.0,0.0,0,0,0,0,0,0,0,0,0,0,0,1,0,0,1,0,0
591528877,23.616392,23.657103,0.0,0.0009940746,-1.0,0.10195982,0.8307784,1.0163803,nan,6,3.9428504,3.9428504,3.9428504,3.9428504,3.9428504,3.9428504,0.0,0.0,0.0,0.0,0.0,0.0,0.0,0.0,0.0,0.0,0.0,0.0,0.0,0.0,0,0,0,0,0,0,0,0,0,0,0,1,0,0,1,0,0
591738878,23.6492,23.65472,0.0,0.0006558665,-1.0,0.10195982,0.82914954,1.0165406,nan,6,3.9424534,3.9424534,3.9424534,3.9424534,3.9424534,3.9424534,0.0,0.0,0.0,0.0,0.0,0.0,0.0,0.0,0.0,0.0,0.0,0.0,0.0,0.0,0,0,0,0,0,0,0,0,0,0,0,1,0,0,1,0,0
591928949,23.66652,23.65311,0.0,0.00045020704,-1.0,0.10195982,0.82799274,1.0166545,nan,6,3.9421852,3.9421852,3.9421852,3.9421852,3.9421852,3.9421852,0.0,0.0,0.0,0.0,0.0,0.0,0.0,0.0,0.0,0.0,0.0,0.0,0.0,0.0,0,0,0,0,0,0,0,0,0,0,0,1,0,0,1,0,0
592128900,23.571732,23.647404,0.0,0.00039134483,-1.0,0.10197511,0.82568294,1.016882,nan,6,3.9412339,3.9412339,3.9412339,3.9412339,3.9412339,3.9412339,0.0,0.0,0.0,0.0,0.0,0.0,0.0,0.0,0.0,0.0,0.0,0.0,0.0,0.0,0,0,0,0,0,0,0,0,0,0,0,1,0,0,1,0,0
592328892,23.540743,23.645744,0.0,0.00026336385,-1.0,0.10197511,0.8248599,1.0169629,nan,6,3.9409573,3.9409573,3.9409573,3.9409573,3.9409573,3.9409573,0.0,0.0,0.0,0.0,0.0,0.0,0.0,0.0,0.0,0.0,0.0,0.0,0.0,0.0,0,0,0,0,0,0,0,0,0,0,0,1,0,0,1,0,0
592528877,23.644644,23.643404,0.0,0.0001772363,-1.0,0.10197511,0.8235782,1.0170891,nan,6,3.9405673,3.9405673,3.9405673,3.9405673,3.9405673,3.9405673,0.0,0.0,0.0,0.0,0.0,0.0,0.0,0.0,0.0,0.0,0.0,0.0,0.0,0.0,0,0,0,0,0,0,0,0,0,0,0,1,0,0,1,0,0
592728898,23.556236,23.640644,0.0,0.00011927497,-1.0,0.10197511,0.82216483,1.0172285,nan,6,3.9401073,3.9401073,3.9401073,3.9401073,3.9401073,3.9401073,0.0,0.0,0.0,0.0,0.0,0.0,0.0,0.0,0.0,0.0,0.0,0.0,0.0,0.0,0,0,0,0,0,0,0,0,0,0,0,1,0,0,1,0,0
592938878,23.605453,23.63636,0.0,7.869474e-05,-1.0,0.10197511,0.8203996,1.0174025,nan,6,3.9393933,3.9393933,3.9393933,3.9393933,3.9393933,3.9393933,0.0,0.0,0.0,0.0,0.0,0.0,0.0,0.0,0.0,0.0,0.0,0.0,0.0,0.0,0,0,0,0,0,0,0,0,0,0,0,1,0,0,1,0,0
593139279,23.671076,23.639349,0.0,5.2959305e-05,-1.0,0.10197511,0.8216632,1.017278,nan,6,3.9398916,3.9398916,3.9398916,3.9398916,3.9398916,3.9398916,0.0,0.0,0.0,0.0,0.0,0.0,0.0,0.0,0.0,0.0,0.0,0.0,0.0,0.0,0,0,0,0,0,0,0,0,0,0,0,1,0,0,1,0,0
593328877,23.540743,23.633791,0.0,3.6352896e-05,-1.0,0.10197511,0.8194993,1.0174912,nan,6,3.938965,3.938965,3.938965,3.938965,3.938965,3.938965,0.0,0.0,0.0,0.0,0.0,0.0,0.0,0.0,0.0,0.0,0.0,0.0,0.0,0.0,0,0,0,0,0,0,0,0,0,0,0,1,0,0,1,0,0
593528899,23.728495,23.630558,0.0,2.4464462e-05,-1.0,0.10197511,0.8182319,1.0176162,nan,6,3.9384263,3.9384263,3.9384263,3.9384263,3.9384263,3.9384263,0.0,0.0,0.0,0.0,0.0,0.0,0.0,0.0,0.0,0.0,0.0,0.0,0.0,0.0,0,0,0,0,0,0,0,0,0,0,0,1,0,0,1,0,0
593729376,23.66014,23.626768,0.0,1.6463884e-05,-1.0,0.10197511,0.81669456,1.0177679,nan,6,3.9377947,3.9377947,3.9377947,3.9377947,3.9377947,3.9377947,0.0,0.0,0.0,0.0,0.0,0.0,0.0,0.0,0.0,0.0,0.0,0.0,0.0,0.0,0,0,0,0,0,0,0,0,0,0,0,1,0,0,1,0,0
593928877,23.50611,23.614466,0.0,1.1079721e-05,-1.0,0.10197511,0.81202155,1.0182291,nan,6,3.9357443,3.9357443,3.9357443,3.9357443,3.9357443,3.9357443,0.0,0.0,0.0,0.0,0.0,0.0,0.0,0.0,0.0,0.0,0.0,0.0,0.0,0.0,0,0,0,0,0,0,0,0,0,0,0,1,0,0,1,0,0
594128877,23.489704,23.607517,0.0,7.4563345e-06,-1.0,0.10197511,0.8097728,1.0184511,nan,6,3.9345863,3.9345863,3.9345863,3.9345863,3.9345863,3.9345863,0.0,0.0,0.0,0.0,0.0,0.0,0.0,0.0,0.0,0.0,0.0,0.0,0.0,0.0,0,0,0,0,0,0,0,0,0,0,0,1,0,0,1,0,0
594328877,23.517958,23.60439,0.0,0.008978283,-1.0,0.10329768,0.8089383,1.0185336,nan,6,3.9340649,3.9340649,3.9340649,3.9340649,3.9340649,3.9340649,0.0,0.0,0.0,0.0,0.0,0.0,0.0,0.0,0.0,0.0,0.0,0.0,0.0,0.0,0,0,0,0,0,0,0,0,0,0,0,1,0,0,1,0,0
594539058,23.48606,23.594448,0.0,0.0059236553,-1.0,0.10329768,0.8055137,1.018872,nan,6,3.932408,3.932408,3.932408,3.932408,3.932408,3.932408,0.0,0.0,0.0,0.0,0.0,0.0,0.0,0.0,0.0,0.0,0.0,0.0,0.0,0.0,0,0,0,0,0,0,0,0,0,0,0,1,0,0,1,0,0
594729518,23.600897,23.583742,0.0,0.0040661795,-1.0,0.10329768,0.8019088,1.0192286,nan,6,3.9306238,3.9306238,3.9306238,3.9306238,3.9306238,3.9306238,0.0,0.0,0.0,0.0,0.0,0.0,0.0,0.0,0.0,0.0,0.0,0.0,0.0,0.0,0,0,0,0,0,0,0,0,0,0,0,1,0,0,1,0,0
594928877,23.552593,23.581257,0.0,0.0027364218,-1.0,0.10329768,0.8010953,1.019309,nan,6,3.9302094,3.9302094,3.9302094,3.9302094,3.9302094,3.9302094,0.0,0.0,0.0,0.0,0.0,0.0,0.0,0.0,0.0,0.0,0.0,0.0,0.0,0.0,0,0,0,0,0,0,0,0,0,0,0,1,0,0,1,0,0
595128877,23.536186,23.577026,0.0,0.005954604,-1.0,0.103953876,0.79953414,1.0194635,nan,6,3.9295044,3.9295044,3.9295044,3.9295044,3.9295044,3.9295044,0.0,0.0,0.0,0.0,0.0,0.0,0.0,0.0,0.0,0.0,0.0,0.0,0.0,0.0,0,0,0,0,0,0,0,0,0,0,0,1,0,0,1,0,0
595328920,23.565351,23.565767,0.0,0.0040072775,-1.0,0.103953876,0.7954162,1.0198714,nan,6,3.9276278,3.9276278,3.9276278,3.9276278,3.9276278,3.9276278,0.0,0.0,0.0,0.0,0.0,0.0,0.0,0.0,0.0,0.0,0.0,0.0,0.0,0.0,0,0,0,0,0,0,0,0,0,0,0,1,0,0,1,0,0
595528877,23.534365,23.562399,0.0,0.0026967828,-1.0,0.103953876,0.7943614,1.0199758,nan,6,3.9270666,3.9270666,3.9270666,3.9270666,3.9270666,3.9270666,0.0,0.0,0.0,0.0,0.0,0.0,0.0,0.0,0.0,0.0,0.0,0.0,0.0,0.0,0,0,0,0,0,0,0,0,0,0,0,1,0,0,1,0,0
595739229,23.581757,23.553099,0.0,0.0017792721,-1.0,0.103953876,0.7906564,1.0203431,nan,6,3.9255164,3.9255164,3.9255164,3.9255164,3.9255164,3.9255164,0.0,0.0,0.0,0.0,0.0,0.0,0.0,0.0,0.0,0.0,0.0,0.0,0.0,0.0,0,0,0,0,0,0,0,0,0,0,0,1,0,0,1,0,0
595938878,23.500643,23.546852,0.0,0.0011973991,-1.0,0.103953876,0.78836185,1.0205706,nan,6,3.9244754,3.9244754,3.9244754,3.9244754,3.9244754,3.9244754,0.0,0.0,0.0,0.0,0.0,0.0,0.0,0.0,0.0,0.0,0.0,0.0,0.0,0.0,0,0,0,0,0,0,0,0,0,0,0,1,0,0,1,0,0
596128880,23.405855,23.543434,0.0,0.0008219316,-1.0,0.103953876,0.7874654,1.0206596,nan,6,3.9239056,3.9239056,3.9239056,3.9239056,3.9239056,3.9239056,0.0,0.0,0.0,0.0,0.0,0.0,0.0,0.0,0.0,0.0,0.0,0.0,0.0,0.0,0,0,0,0,0,0,0,0,0,0,0,1,0,0,1,0,0
596328881,23.587225,23.542116,0.0,0.0005531365,-1.0,0.103953876,0.7870992,1.0206959,nan,6,3.923686,3.923686,3.923686,3.923686,3.923686,3.923686,0.0,0.0,0.0,0.0,0.0,0.0,0.0,0.0,0.0,0.0,0.0,0.0,0.0,0.0,0,0,0,0,0,0,0,0,0,0,0,1,0,0,1,0,0
596528941,23.594517,23.53963,0.0,0.00037224506,-1.0,0.103953876,0.78632957,1.0207723,nan,6,3.923272,3.923272,3.923272,3.923272,3.923272,3.923272,0.0,0.0,0.0,0.0,0.0,0.0,0.0,0.0,0.0,0.0,0.0,0.0,0.0,0.0,0,0,0,0,0,0,0,0,0,0,0,1,0,0,1,0,0
596729208,23.521605,23.53608,0.0,0.00025051032,-1.0,0.103953876,0.78514796,1.0208895,nan,6,3.92268,3.92268,3.92268,3.92268,3.92268,3.92268,0.0,0.0,0.0,0.0,0.0,0.0,0.0,0.0,0.0,0.0,0.0,0.0,0.0,0.0,0,0,0,0,0,0,0,0,0,0,0,1,0,0,1,0,0
596928876,23.338411,23.531464,0.0,0.00016858628,-1.0,0.103953876,0.783233,1.0210797,nan,6,3.9219105,3.9219105,3.9219105,3.9219105,3.9219105,3.9219105,0.0,0.0,0.0,0.0,0.0,0.0,0.0,0.0,0.0,0.0,0.0,0.0,0.0,0.0,0,0,0,0,0,0,0,0,0,0,0,1,0,0,1,0,0
597138878,23.153395,23.48597,0.0,0.00011122917,-1.0,0.103953876,0.76858264,1.0225364,nan,6,3.9143283,3.9143283,3.9143283,3.9143283,3.9143283,3.9143283,0.0,0.0,0.0,0.0,0.0,0.0,0.0,0.0,0.0,0.0,0.0,0.0,0.0,0.0,0,0,0,0,0,0,0,0,0,0,0,1,0,0,1,0,0
597338877,23.147926,23.428963,0.0,7.4854055e-05,-1.0,0.103953876,0.75141364,1.024249,nan,6,3.904827,3.904827,3.904827,3.904827,3.904827,3.904827,0.0,0.0,0.0,0.0,0.0,0.0,0.0,0.0,0.0,0.0,0.0,0.0,0.0,0.0,0,0,0,0,0,0,0,0,0,0,0,1,0,0,1,0,0
597528876,23.042204,23.363625,0.0,5.138212e-05,-1.0,0.103953876,0.7318986,1.0262026,nan,6,3.8939373,3.8939373,3.8939373,3.8939373,3.8939373,3.8939373,0.0,0.0,0.0,0.0,0.0,0.0,0.0,0.0,0.0,0.0,0.0,0.0,0.0,0.0,0,0,0,0,0,0,0,0,0,0,0,1,0,0,1,0,0
597728893,23.139723,23.296703,0.0,0.0026501995,-1.0,0.10447273,0.71328765,1.0280725,nan,6,3.882784,3.882784,3.882784,3.882784,3.882784,3.882784,0.0,0.0,0.0,0.0,0.0,0.0,0.0,0.0,0.0,0.0,0.0,0.0,0.0,0.0,0,0,0,0,0,0,0,0,0,0,0,1,0,0,1,0,0
597928881,22.943771,23.276594,0.0,0.0017835081,-1.0,0.10447273,0.7073844,1.0286671,nan,6,3.8794324,3.8794324,3.8794324,3.8794324,3.8794324,3.8794324,0.0,0.0,0.0,0.0,0.0,0.0,0.0,0.0,0.0,0.0,0.0,0.0,0.0,0.0,0,0,0,0,0,0,0,0,0,0,0,1,0,0,1,0,0
598128971,23.315626,23.274252,0.0,0.00120025,-1.0,0.10447273,0.70621425,1.028785,nan,6,3.879042,3.879042,3.879042,3.879042,3.879042,3.879042,0.0,0.0,0.0,0.0,0.0,0.0,0.0,0.0,0.0,0.0,0.0,0.0,0.0,0.0,0,0,0,0,0,0,0,0,0,0,0,1,0,0,1,0,0
598329275,23.39674,23.278046,0.0,0.00080773386,-1.0,0.10447273,0.7059615,1.0288104,nan,6,3.8796742,3.8796742,3.8796742,3.8796742,3.8796742,3.8796742,0.0,0.0,0.0,0.0,0.0,0.0,0.0,0.0,0.0,0.0,0.0,0.0,0.0,0.0,0,0,0,0,0,0,0,0,0,0,0,1,0,0,1,0,0
598538954,23.264587,23.286777,0.0,0.00053292327,-1.0,0.10447273,0.70767814,1.0286374,nan,6,3.8811295,3.8811295,3.8811295,3.8811295,3.8811295,3.8811295,0.0,0.0,0.0,0.0,0.0,0.0,0.0,0.0,0.0,0.0,0.0,0.0,0.0,0.0,0,0,0,0,0,0,0,0,0,0,0,1,0,0,1,0,0
598739354,23.278257,23.286642,0.0,0.0015744367,-1.0,0.10468561,0.70796233,1.0286088,nan,6,3.881107,3.881107,3.881107,3.881107,3.881107,3.881107,0.0,0.0,0.0,0.0,0.0,0.0,0.0,0.0,0.0,0.0,0.0,0.0,0.0,0.0,0,0,0,0,0,0,0,0,0,0,0,1,0,0,1,0,0
598928877,23.226307,23.281616,0.0,0.0010807419,-1.0,0.10468561,0.7060426,1.0288023,nan,6,3.8802693,3.8802693,3.8802693,3.8802693,3.8802693,3.8802693,0.0,0.0,0.0,0.0,0.0,0.0,0.0,0.0,0.0,0.0,0.0,0.0,0.0,0.0,0,0,0,0,0,0,0,0,0,0,0,1,0,0,1,0,0
599128878,23.155218,23.275192,0.0,0.004302338,-1.0,0.105366014,0.7030671,1.0291023,nan,6,3.8791988,3.8791988,3.8791988,3.8791988,3.8791988,3.8791988,0.0,0.0,0.0,0.0,0.0,0.0,0.0,0.0,0.0,0.0,0.0,0.0,0.0,0.0,0,0,0,0,0,0,0,0,0,0,0,1,0,0,1,0,0
599328877,23.364841,23.27935,0.0,0.00289535,-1.0,0.105366014,0.704305,1.0289775,nan,6,3.8798916,3.8798916,3.8798916,3.8798916,3.8798916,3.8798916,0.0,0.0,0.0,0.0,0.0,0.0,0.0,0.0,0.0,0.0,0.0,0.0,0.0,0.0,0,0,0,0,0,0,0,0,0,0,0,1,0,0,1,0,0
599528879,23.185293,23.282078,0.0,0.001948488,-1.0,0.105366014,0.7049878,1.0289086,nan,6,3.8803463,3.8803463,3.8803463,3.8803463,3.8803463,3.8803463,0.0,0.0,0.0,0.0,0.0,0.0,0.0,0.0,0.0,0.0,0.0,0.0,0.0,0.0,0,0,0,0,0,0,0,0,0,0,0,1,0,0,1,0,0
599728877,23.280993,23.284588,0.0,0.0013112766,-1.0,0.105366014,0.7057155,1.0288353,nan,6,3.8807647,3.8807647,3.8807647,3.8807647,3.8807647,3.8807647,0.0,0.0,0.0,0.0,0.0,0.0,0.0,0.0,0.0,0.0,0.0,0.0,0.0,0.0,0,0,0,0,0,0,0,0,0,0,0,1,0,0,1,0,0
599938878,23.323828,23.283304,0.0,0.0008651486,-1.0,0.105366014,0.70492965,1.0289145,nan,6,3.8805506,3.8805506,3.8805506,3.8805506,3.8805506,3.8805506,0.0,0.0,0.0,0.0,0.0,0.0,0.0,0.0,0.0,0.0,0.0,0.0,0.0,0.0,0,0,0,0,0,0,0,0,0,0,0,1,0,0,1,0,0
600138892,23.366665,23.285452,0.0,0.00058222027,-1.0,0.105366014,0.7054723,1.0288599,nan,6,3.8809087,3.8809087,3.8809087,3.8809087,3.8809087,3.8809087,0.0,0.0,0.0,0.0,0.0,0.0,0.0,0.0,0.0,0.0,0.0,0.0,0.0,0.0,0,0,0,0,0,0,0,0,0,0,0,1,0,0,1,0,0
600328881,23.311981,23.284805,0.0,0.0003996539,-1.0,0.105366014,0.7048858,1.028919,nan,6,3.880801,3.880801,3.880801,3.880801,3.880801,3.880801,0.0,0.0,0.0,0.0,0.0,0.0,0.0,0.0,0.0,0.0,0.0,0.0,0.0,0.0,0,0,0,0,0,0,0,0,0,0,0,1,0,0,1,0,0
600538883,23.2737,23.279125,0.0,0.0012551756,-1.0,0.10553383,0.7024358,1.029166,nan,6,3.8798542,3.8798542,3.8798542,3.8798542,3.8798542,3.8798542,0.0,0.0,0.0,0.0,0.0,0.0,0.0,0.0,0.0,0.0,0.0,0.0,0.0,0.0,0,0,0,0,0,0,0,0,0,0,0,1,0,0,1,0,0
600729398,23.282814,23.280779,0.0,0.0008615911,-1.0,0.10553383,0.70299464,1.0291096,nan,6,3.8801298,3.8801298,3.8801298,3.8801298,3.8801298,3.8801298,0.0,0.0,0.0,0.0,0.0,0.0,0.0,0.0,0.0,0.0,0.0,0.0,0.0,0.0,0,0,0,0,0,0,0,0,0,0,0,1,0,0,1,0,0
600929290,23.426817,23.281643,0.0,0.0005798262,-1.0,0.10553383,0.7031787,1.0290911,nan,6,3.8802738,3.8802738,3.8802738,3.8802738,3.8802738,3.8802738,0.0,0.0,0.0,0.0,0.0,0.0,0.0,0.0,0.0,0.0,0.0,0.0,0.0,0.0,0,0,0,0,0,0,0,0,0,0,0,1,0,0,1,0,0
601128880,23.257296,23.280636,0.0,0.00083432125,-1.0,0.10560838,0.70255977,1.0291535,nan,6,3.880106,3.880106,3.880106,3.880106,3.880106,3.880106,0.0,0.0,0.0,0.0,0.0,0.0,0.0,0.0,0.0,0.0,0.0,0.0,0.0,0.0,0,0,0,0,0,0,0,0,0,0,0,1,0,0,1,0,0
601338878,23.277348,23.277292,0.0,0.0017813451,-1.0,0.10585294,0.70101196,1.0293096,nan,6,3.8795488,3.8795488,3.8795488,3.8795488,3.8795488,3.8795488,0.0,0.0,0.0,0.0,0.0,0.0,0.0,0.0,0.0,0.0,0.0,0.0,0.0,0.0,0,0,0,0,0,0,0,0,0,0,0,1,0,0,1,0,0
601538876,23.174358,23.273151,0.0,0.0011987943,-1.0,0.10585294,0.6994336,1.0294689,nan,6,3.8788586,3.8788586,3.8788586,3.8788586,3.8788586,3.8788586,0.0,0.0,0.0,0.0,0.0,0.0,0.0,0.0,0.0,0.0,0.0,0.0,0.0,0.0,0,0,0,0,0,0,0,0,0,0,0,1,0,0,1,0,0
601728876,23.160688,23.268888,0.0,0.00082288944,-1.0,0.10585294,0.69783336,1.0296305,nan,6,3.878148,3.878148,3.878148,3.878148,3.878148,3.878148,0.0,0.0,0.0,0.0,0.0,0.0,0.0,0.0,0.0,0.0,0.0,0.0,0.0,0.0,0,0,0,0,0,0,0,0,0,0,0,1,0,0,1,0,0
601928876,23.115118,23.258404,0.0,0.0005537811,-1.0,0.10585294,0.69368774,1.0300492,nan,6,3.8764007,3.8764007,3.8764007,3.8764007,3.8764007,3.8764007,0.0,0.0,0.0,0.0,0.0,0.0,0.0,0.0,0.0,0.0,0.0,0.0,0.0,0.0,0,0,0,0,0,0,0,0,0,0,0,1,0,0,1,0,0
602128881,23.294662,23.2496,0.0,0.00037267886,-1.0,0.10585294,0.6904424,1.0303773,nan,6,3.8749332,3.8749332,3.8749332,3.8749332,3.8749332,3.8749332,0.0,0.0,0.0,0.0,0.0,0.0,0.0,0.0,0.0,0.0,0.0,0.0,0.0,0.0,0,0,0,0,0,0,0,0,0,0,0,1,0,0,1,0,0
602328878,23.254562,23.244345,0.0,0.00025080223,-1.0,0.10585294,0.68866664,1.0305568,nan,6,3.8740575,3.8740575,3.8740575,3.8740575,3.8740575,3.8740575,0.0,0.0,0.0,0.0,0.0,0.0,0.0,0.0,0.0,0.0,0.0,0.0,0.0,0.0,0,0,0,0,0,0,0,0,0,0,0,1,0,0,1,0,0
602528877,23.013039,23.233381,0.0,0.00016878273,-1.0,0.10585294,0.684769,1.0309513,nan,6,3.8722303,3.8722303,3.8722303,3.8722303,3.8722303,3.8722303,0.0,0.0,0.0,0.0,0.0,0.0,0.0,0.0,0.0,0.0,0.0,0.0,0.0,0.0,0,0,0,0,0,0,0,0,0,0,0,1,0,0,1,0,0
602739334,23.167067,23.223425,0.0,0.000111358764,-1.0,0.10585294,0.68152267,1.0312799,nan,6,3.870571,3.870571,3.870571,3.870571,3.870571,3.870571,0.0,0.0,0.0,0.0,0.0,0.0,0.0,0.0,0.0,0.0,0.0,0.0,0.0,0.0,0,0,0,0,0,0,0,0,0,0,0,1,0,0,1,0,0
602938877,23.163422,23.2179,0.0,7.494126e-05,-1.0,0.10585294,0.6806157,1.0313718,nan,6,3.86965,3.86965,3.86965,3.86965,3.86965,3.86965,0.0,0.0,0.0,0.0,0.0,0.0,0.0,0.0,0.0,0.0,0.0,0.0,0.0,0.0,0,0,0,0,0,0,0,0,0,0,0,1,0,0,1,0,0
603128878,23.157042,23.201387,0.0,5.1441988e-05,-1.0,0.10585294,0.67553645,1.0318867,nan,6,3.8668978,3.8668978,3.8668978,3.8668978,3.8668978,3.8668978,0.0,0.0,0.0,0.0,0.0,0.0,0.0,0.0,0.0,0.0,0.0,0.0,0.0,0.0,0,0,0,0,0,0,0,0,0,0,0,1,0,0,1,0,0
603328979,23.150661,23.186428,0.0,3.4618985e-05,-1.0,0.10585294,0.6707929,1.032368,nan,6,3.8644047,3.8644047,3.8644047,3.8644047,3.8644047,3.8644047,0.0,0.0,0.0,0.0,0.0,0.0,0.0,0.0,0.0,0.0,0.0,0.0,0.0,0.0,0,0,0,0,0,0,0,0,0,0,0,1,0,0,1,0,0
603529366,23.09689,23.169292,0.0,2.3297582e-05,-1.0,0.10585294,0.6649106,1.0329653,nan,6,3.8615487,3.8615487,3.8615487,3.8615487,3.8615487,3.8615487,0.0,0.0,0.0,0.0,0.0,0.0,0.0,0.0,0.0,0.0,0.0,0.0,0.0,0.0,0,0,0,0,0,0,0,0,0,0,0,1,0,0,1,0,0
603728876,23.147926,23.155077,0.0,1.5678603e-05,-1.0,0.10585294,0.6600564,1.0334588,nan,6,3.8591795,3.8591795,3.8591795,3.8591795,3.8591795,3.8591795,0.0,0.0,0.0,0.0,0.0,0.0,0.0,0.0,0.0,0.0,0.0,0.0,0.0,0.0,0,0,0,0,0,0,0,0,0,0,0,1,0,0,1,0,0
603928876,23.095976,23.144327,0.0,1.0551251e-05,-1.0,0.10585294,0.6567567,1.0337945,nan,6,3.8573878,3.8573878,3.8573878,3.8573878,3.8573878,3.8573878,0.0,0.0,0.0,0.0,0.0,0.0,0.0,0.0,0.0,0.0,0.0,0.0,0.0,0.0,0,0,0,0,0,0,0,0,0,0,0,1,0,0,1,0,0
604138878,23.108736,23.12108,0.0,6.9614593e-06,-1.0,0.10585294,0.64849025,1.0346367,nan,6,3.8535135,3.8535135,3.8535135,3.8535135,3.8535135,3.8535135,0.0,0.0,0.0,0.0,0.0,0.0,0.0,0.0,0.0,0.0,0.0,0.0,0.0,0.0,0,0,0,0,0,0,0,0,0,0,0,1,0,0,1,0,0
604338878,23.101446,23.10746,0.0,4.6848622e-06,-1.0,0.10585294,0.64400417,1.0350943,nan,6,3.8512433,3.8512433,3.8512433,3.8512433,3.8512433,3.8512433,0.0,0.0,0.0,0.0,0.0,0.0,0.0,0.0,0.0,0.0,0.0,0.0,0.0,0.0,0,0,0,0,0,0,0,0,0,0,0,1,0,0,1,0,0
604538881,22.992077,23.096111,0.0,3.1527782e-06,-1.0,0.10585294,0.640652,1.0354364,nan,6,3.849352,3.849352,3.849352,3.849352,3.849352,3.849352,0.0,0.0,0.0,0.0,0.0,0.0,0.0,0.0,0.0,0.0,0.0,0.0,0.0,0.0,0,0,0,0,0,0,0,0,0,0,0,1,0,0,1,0,0
604729218,23.070457,23.087624,0.0,2.164164e-06,-1.0,0.10585294,0.63803416,1.0357038,nan,6,3.8479373,3.8479373,3.8479373,3.8479373,3.8479373,3.8479373,0.0,0.0,0.0,0.0,0.0,0.0,0.0,0.0,0.0,0.0,0.0,0.0,0.0,0.0,0,0,0,0,0,0,0,0,0,0,0,1,0,0,1,0,0
604928878,23.000278,23.080751,0.0,1.4564204e-06,-1.0,0.10585294,0.63558704,1.0359539,nan,6,3.846792,3.846792,3.846792,3.846792,3.846792,3.846792,0.0,0.0,0.0,0.0,0.0,0.0,0.0,0.0,0.0,0.0,0.0,0.0,0.0,0.0,0,0,0,0,0,0,0,0,0,0,0,1,0,0,1,0,0
605128878,23.127876,23.067144,0.0,9.801292e-07,-1.0,0.10585294,0.6299489,1.0365304,nan,6,3.8445241,3.8445241,3.8445241,3.8445241,3.8445241,3.8445241,0.0,0.0,0.0,0.0,0.0,0.0,0.0,0.0,0.0,0.0,0.0,0.0,0.0,0.0,0,0,0,0,0,0,0,0,0,0,0,1,0,0,1,0,0
605328878,23.056786,23.063269,0.0,6.595989e-07,-1.0,0.10585294,0.6279643,1.0367335,nan,6,3.843878,3.843878,3.843878,3.843878,3.843878,3.843878,0.0,0.0,0.0,0.0,0.0,0.0,0.0,0.0,0.0,0.0,0.0,0.0,0.0,0.0,0,0,0,0,0,0,0,0,0,0,0,1,0,0,1,0,0
605538877,23.127876,23.065926,0.0,4.351874e-07,-1.0,0.10585294,0.6283172,1.0366974,nan,6,3.844321,3.844321,3.844321,3.844321,3.844321,3.844321,0.0,0.0,0.0,0.0,0.0,0.0,0.0,0.0,0.0,0.0,0.0,0.0,0.0,0.0,0,0,0,0,0,0,0,0,0,0,0,1,0,0,1,0,0
605738880,23.160688,23.067131,0.0,2.9286866e-07,-1.0,0.10585294,0.6282657,1.0367026,nan,6,3.8445218,3.8445218,3.8445218,3.8445218,3.8445218,3.8445218,0.0,0.0,0.0,0.0,0.0,0.0,0.0,0.0,0.0,0.0,0.0,0.0,0.0,0.0,0,0,0,0,0,0,0,0,0,0,0,1,0,0,1,0,0
605938968,23.10418,23.067242,0.0,1.9709225e-07,-1.0,0.10585294,0.6283067,1.0366985,nan,6,3.8445404,3.8445404,3.8445404,3.8445404,3.8445404,3.8445404,0.0,0.0,0.0,0.0,0.0,0.0,0.0,0.0,0.0,0.0,0.0,0.0,0.0,0.0,0,0,0,0,0,0,0,0,0,0,0,1,0,0,1,0,0
606129387,23.186207,23.06535,0.0,1.3529021e-07,-1.0,0.10585294,0.6277545,1.036755,nan,6,3.844225,3.844225,3.844225,3.844225,3.844225,3.844225,0.0,0.0,0.0,0.0,0.0,0.0,0.0,0.0,0.0,0.0,0.0,0.0,0.0,0.0,0,0,0,0,0,0,0,0,0,0,0,1,0,0,1,0,0
606328903,22.969292,23.058096,0.0,0.00060913607,-1.0,0.105944514,0.62521774,1.0370147,nan,6,3.843016,3.843016,3.843016,3.843016,3.843016,3.843016,0.0,0.0,0.0,0.0,0.0,0.0,0.0,0.0,0.0,0.0,0.0,0.0,0.0,0.0,0,0,0,0,0,0,0,0,0,0,0,1,0,0,1,0,0
606528878,23.062254,23.046738,0.0,0.00040993112,-1.0,0.105944514,0.6206973,1.0374779,nan,6,3.8411229,3.8411229,3.8411229,3.8411229,3.8411229,3.8411229,0.0,0.0,0.0,0.0,0.0,0.0,0.0,0.0,0.0,0.0,0.0,0.0,0.0,0.0,0,0,0,0,0,0,0,0,0,0,0,1,0,0,1,0,0
606729210,23.008482,23.046019,0.0,0.0002758719,-1.0,0.105944514,0.6204341,1.0375049,nan,6,3.8410032,3.8410032,3.8410032,3.8410032,3.8410032,3.8410032,0.0,0.0,0.0,0.0,0.0,0.0,0.0,0.0,0.0,0.0,0.0,0.0,0.0,0.0,0,0,0,0,0,0,0,0,0,0,0,1,0,0,1,0,0
606938878,23.07228,23.03913,0.0,0.00018201361,-1.0,0.105944514,0.6174682,1.037809,nan,6,3.839855,3.839855,3.839855,3.839855,3.839855,3.839855,0.0,0.0,0.0,0.0,0.0,0.0,0.0,0.0,0.0,0.0,0.0,0.0,0.0,0.0,0,0,0,0,0,0,0,0,0,0,0,1,0,0,1,0,0
607138878,23.06499,23.038427,0.0,0.00012248995,-1.0,0.105944514,0.6168912,1.0378683,nan,6,3.839738,3.839738,3.839738,3.839738,3.839738,3.839738,0.0,0.0,0.0,0.0,0.0,0.0,0.0,0.0,0.0,0.0,0.0,0.0,0.0,0.0,0,0,0,0,0,0,0,0,0,0,0,1,0,0,1,0,0
607328877,23.06681,23.042664,0.0,8.4080864e-05,-1.0,0.105944514,0.6184562,1.0377077,nan,6,3.8404438,3.8404438,3.8404438,3.8404438,3.8404438,3.8404438,0.0,0.0,0.0,0.0,0.0,0.0,0.0,0.0,0.0,0.0,0.0,0.0,0.0,0.0,0,0,0,0,0,0,0,0,0,0,0,1,0,0,1,0,0
607528877,22.927366,23.032366,0.0,5.6584016e-05,-1.0,0.105944514,0.6140407,1.0381607,nan,6,3.8387277,3.8387277,3.8387277,3.8387277,3.8387277,3.8387277,0.0,0.0,0.0,0.0,0.0,0.0,0.0,0.0,0.0,0.0,0.0,0.0,0.0,0.0,0,0,0,0,0,0,0,0,0,0,0,1,0,0,1,0,0
607728878,22.911871,23.037418,0.0,3.8079423e-05,-1.0,0.105944514,0.61578494,1.0379817,nan,6,3.8395698,3.8395698,3.8395698,3.8395698,3.8395698,3.8395698,0.0,0.0,0.0,0.0,0.0,0.0,0.0,0.0,0.0,0.0,0.0,0.0,0.0,0.0,0,0,0,0,0,0,0,0,0,0,0,1,0,0,1,0,0
607928877,23.039469,23.03605,0.0,2.5626363e-05,-1.0,0.105944514,0.6149476,1.0380676,nan,6,3.8393419,3.8393419,3.8393419,3.8393419,3.8393419,3.8393419,0.0,0.0,0.0,0.0,0.0,0.0,0.0,0.0,0.0,0.0,0.0,0.0,0.0,0.0,0,0,0,0,0,0,0,0,0,0,0,1,0,0,1,0,0
608128877,22.862658,23.038101,0.0,1.724581e-05,-1.0,0.105944514,0.6155465,1.0380062,nan,6,3.8396835,3.8396835,3.8396835,3.8396835,3.8396835,3.8396835,0.0,0.0,0.0,0.0,0.0,0.0,0.0,0.0,0.0,0.0,0.0,0.0,0.0,0.0,0,0,0,0,0,0,0,0,0,0,0,1,0,0,1,0,0
608338883,23.024887,23.032146,0.0,0.0010182564,-1.0,0.10613272,0.6128438,1.0382836,nan,6,3.838691,3.838691,3.838691,3.838691,3.838691,3.838691,0.0,0.0,0.0,0.0,0.0,0.0,0.0,0.0,0.0,0.0,0.0,0.0,0.0,0.0,0,0,0,0,0,0,0,0,0,0,0,1,0,0,1,0,0
608539087,23.174358,23.028217,0.0,0.0006852574,-1.0,0.10613272,0.61092025,1.0384811,nan,6,3.8380363,3.8380363,3.8380363,3.8380363,3.8380363,3.8380363,0.0,0.0,0.0,0.0,0.0,0.0,0.0,0.0,0.0,0.0,0.0,0.0,0.0,0.0,0,0,0,0,0,0,0,0,0,0,0,1,0,0,1,0,0
608729497,23.162508,23.03004,0.0,0.0017243103,-1.0,0.10637622,0.61138755,1.0384332,nan,6,3.83834,3.83834,3.83834,3.83834,3.83834,3.83834,0.0,0.0,0.0,0.0,0.0,0.0,0.0,0.0,0.0,0.0,0.0,0.0,0.0,0.0,0,0,0,0,0,0,0,0,0,0,0,1,0,0,1,0,0
608928908,23.060432,23.027468,0.0,0.00728917,-1.0,0.10757908,0.61001235,1.0385743,nan,6,3.8379114,3.8379114,3.8379114,3.8379114,3.8379114,3.8379114,0.0,0.0,0.0,0.0,0.0,0.0,0.0,0.0,0.0,0.0,0.0,0.0,0.0,0.0,0,0,0,0,0,0,0,0,0,0,0,1,0,0,1,0,0
609128878,23.011215,23.026766,0.0,0.004905402,-1.0,0.10757908,0.60950214,1.0386268,nan,6,3.8377943,3.8377943,3.8377943,3.8377943,3.8377943,3.8377943,0.0,0.0,0.0,0.0,0.0,0.0,0.0,0.0,0.0,0.0,0.0,0.0,0.0,0.0,0,0,0,0,0,0,0,0,0,0,0,1,0,0,1,0,0
609328877,23.067724,23.020521,0.0,0.0033011956,-1.0,0.10757908,0.60671455,1.0389134,nan,6,3.8367536,3.8367536,3.8367536,3.8367536,3.8367536,3.8367536,0.0,0.0,0.0,0.0,0.0,0.0,0.0,0.0,0.0,0.0,0.0,0.0,0.0,0.0,0,0,0,0,0,0,0,0,0,0,0,1,0,0,1,0,0
609528876,22.96838,23.014786,0.0,0.00222161,-1.0,0.10757908,0.60423976,1.0391678,nan,6,3.8357975,3.8357975,3.8357975,3.8357975,3.8357975,3.8357975,0.0,0.0,0.0,0.0,0.0,0.0,0.0,0.0,0.0,0.0,0.0,0.0,0.0,0.0,0,0,0,0,0,0,0,0,0,0,0,1,0,0,1,0,0
609738877,23.001192,23.001528,0.0,0.0014657646,-1.0,0.10757908,0.59903747,1.0397031,nan,6,3.833588,3.833588,3.833588,3.833588,3.833588,3.833588,0.0,0.0,0.0,0.0,0.0,0.0,0.0,0.0,0.0,0.0,0.0,0.0,0.0,0.0,0,0,0,0,0,0,0,0,0,0,0,1,0,0,1,0,0
609938877,22.9301,22.996199,0.0,0.0009864175,-1.0,0.10757908,0.59745437,1.0398661,nan,6,3.8326998,3.8326998,3.8326998,3.8326998,3.8326998,3.8326998,0.0,0.0,0.0,0.0,0.0,0.0,0.0,0.0,0.0,0.0,0.0,0.0,0.0,0.0,0,0,0,0,0,0,0,0,0,0,0,1,0,0,1,0,0
610128877,22.977493,22.985586,0.0,0.0006771075,-1.0,0.10757908,0.59380466,1.040242,nan,6,3.830931,3.830931,3.830931,3.830931,3.830931,3.830931,0.0,0.0,0.0,0.0,0.0,0.0,0.0,0.0,0.0,0.0,0.0,0.0,0.0,0.0,0,0,0,0,0,0,0,0,0,0,0,1,0,0,1,0,0
610328888,23.035824,22.979853,0.0,0.0004556739,-1.0,0.10757908,0.5921863,1.0404088,nan,6,3.8299754,3.8299754,3.8299754,3.8299754,3.8299754,3.8299754,0.0,0.0,0.0,0.0,0.0,0.0,0.0,0.0,0.0,0.0,0.0,0.0,0.0,0.0,0,0,0,0,0,0,0,0,0,0,0,1,0,0,1,0,0
610528879,23.063166,22.976631,0.0,0.00030665548,-1.0,0.10757908,0.5911277,1.040518,nan,6,3.8294384,3.8294384,3.8294384,3.8294384,3.8294384,3.8294384,0.0,0.0,0.0,0.0,0.0,0.0,0.0,0.0,0.0,0.0,0.0,0.0,0.0,0.0,0,0,0,0,0,0,0,0,0,0,0,1,0,0,1,0,0
610729223,22.964735,22.976631,0.0,0.00020637036,-1.0,0.10757908,0.59154254,1.0404752,nan,6,3.8294384,3.8294384,3.8294384,3.8294384,3.8294384,3.8294384,0.0,0.0,0.0,0.0,0.0,0.0,0.0,0.0,0.0,0.0,0.0,0.0,0.0,0.0,0,0,0,0,0,0,0,0,0,0,0,1,0,0,1,0,0
610928904,23.046762,22.96738,0.0,0.00013888134,-1.0,0.10757908,0.5879968,1.0408409,nan,6,3.8278968,3.8278968,3.8278968,3.8278968,3.8278968,3.8278968,0.0,0.0,0.0,0.0,0.0,0.0,0.0,0.0,0.0,0.0,0.0,0.0,0.0,0.0,0,0,0,0,0,0,0,0,0,0,0,1,0,0,1,0,0
611138974,22.962912,22.968739,0.0,0.0005635026,-1.0,0.10766556,0.58845645,1.0407935,nan,6,3.828123,3.828123,3.828123,3.828123,3.828123,3.828123,0.0,0.0,0.0,0.0,0.0,0.0,0.0,0.0,0.0,0.0,0.0,0.0,0.0,0.0,0,0,0,0,0,0,0,0,0,0,0,1,0,0,1,0,0
611339369,23.102356,22.972769,0.0,0.00037922108,-1.0,0.10766556,0.5895837,1.0406772,nan,6,3.8287947,3.8287947,3.8287947,3.8287947,3.8287947,3.8287947,0.0,0.0,0.0,0.0,0.0,0.0,0.0,0.0,0.0,0.0,0.0,0.0,0.0,0.0,0,0,0,0,0,0,0,0,0,0,0,1,0,0,1,0,0
611528901,22.921898,22.974941,0.0,0.00026030903,-1.0,0.10766556,0.58936244,1.0407001,nan,6,3.8291569,3.8291569,3.8291569,3.8291569,3.8291569,3.8291569,0.0,0.0,0.0,0.0,0.0,0.0,0.0,0.0,0.0,0.0,0.0,0.0,0.0,0.0,0,0,0,0,0,0,0,0,0,0,0,1,0,0,1,0,0
611728876,22.786098,22.975721,0.0,0.006582005,-1.0,0.10866916,0.58878547,1.0407596,nan,6,3.8292868,3.8292868,3.8292868,3.8292868,3.8292868,3.8292868,0.0,0.0,0.0,0.0,0.0,0.0,0.0,0.0,0.0,0.0,0.0,0.0,0.0,0.0,0,0,0,0,0,0,0,0,0,0,0,1,0,0,1,0,0
611928876,22.999369,22.978693,0.0,0.0044295006,-1.0,0.10866916,0.58980876,1.040654,nan,6,3.8297822,3.8297822,3.8297822,3.8297822,3.8297822,3.8297822,0.0,0.0,0.0,0.0,0.0,0.0,0.0,0.0,0.0,0.0,0.0,0.0,0.0,0.0,0,0,0,0,0,0,0,0,0,0,0,1,0,0,1,0,0
612128877,23.194408,22.990189,0.0,0.0029809265,-1.0,0.10866916,0.5942233,1.0401989,nan,6,3.8316982,3.8316982,3.8316982,3.8316982,3.8316982,3.8316982,0.0,0.0,0.0,0.0,0.0,0.0,0.0,0.0,0.0,0.0,0.0,0.0,0.0,0.0,0,0,0,0,0,0,0,0,0,0,0,1,0,0,1,0,0
612328879,22.997545,22.992676,0.0,0.0020060784,-1.0,0.10866916,0.59445983,1.0401746,nan,6,3.8321126,3.8321126,3.8321126,3.8321126,3.8321126,3.8321126,0.0,0.0,0.0,0.0,0.0,0.0,0.0,0.0,0.0,0.0,0.0,0.0,0.0,0.0,0,0,0,0,0,0,0,0,0,0,0,1,0,0,1,0,0
612528878,23.050406,23.000105,0.0,0.0013500331,-1.0,0.10866916,0.5967563,1.0399379,nan,6,3.833351,3.833351,3.833351,3.833351,3.833351,3.833351,0.0,0.0,0.0,0.0,0.0,0.0,0.0,0.0,0.0,0.0,0.0,0.0,0.0,0.0,0,0,0,0,0,0,0,0,0,0,0,1,0,0,1,0,0
612739259,23.144281,23.00897,0.0,0.00089071936,-1.0,0.10866916,0.5996497,1.03964,nan,6,3.8348284,3.8348284,3.8348284,3.8348284,3.8348284,3.8348284,0.0,0.0,0.0,0.0,0.0,0.0,0.0,0.0,0.0,0.0,0.0,0.0,0.0,0.0,0,0,0,0,0,0,0,0,0,0,0,1,0,0,1,0,0
612928881,22.835314,23.014317,0.0,0.000611417,-1.0,0.10866916,0.6010173,1.0394993,nan,6,3.8357193,3.8357193,3.8357193,3.8357193,3.8357193,3.8357193,0.0,0.0,0.0,0.0,0.0,0.0,0.0,0.0,0.0,0.0,0.0,0.0,0.0,0.0,0,0,0,0,0,0,0,0,0,0,0,1,0,0,1,0,0
613128878,23.032177,23.01969,0.0,0.0004114661,-1.0,0.10866916,0.6023944,1.0393575,nan,6,3.8366148,3.8366148,3.8366148,3.8366148,3.8366148,3.8366148,0.0,0.0,0.0,0.0,0.0,0.0,0.0,0.0,0.0,0.0,0.0,0.0,0.0,0.0,0,0,0,0,0,0,0,0,0,0,0,1,0,0,1,0,0
613328878,23.058609,23.023142,0.0,0.0002769049,-1.0,0.10866916,0.60383445,1.0392095,nan,6,3.8371904,3.8371904,3.8371904,3.8371904,3.8371904,3.8371904,0.0,0.0,0.0,0.0,0.0,0.0,0.0,0.0,0.0,0.0,0.0,0.0,0.0,0.0,0,0,0,0,0,0,0,0,0,0,0,1,0,0,1,0,0
613528881,22.840782,23.019922,0.0,0.00018634912,-1.0,0.10866916,0.60265,1.0393312,nan,6,3.8366537,3.8366537,3.8366537,3.8366537,3.8366537,3.8366537,0.0,0.0,0.0,0.0,0.0,0.0,0.0,0.0,0.0,0.0,0.0,0.0,0.0,0.0,0,0,0,0,0,0,0,0,0,0,0,1,0,0,1,0,0
613729134,23.014862,23.02438,0.0,0.0001254076,-1.0,0.10866916,0.60446674,1.0391444,nan,6,3.8373966,3.8373966,3.8373966,3.8373966,3.8373966,3.8373966,0.0,0.0,0.0,0.0,0.0,0.0,0.0,0.0,0.0,0.0,0.0,0.0,0.0,0.0,0,0,0,0,0,0,0,0,0,0,0,1,0,0,1,0,0
613938877,23.044939,23.029501,0.0,8.274091e-05,-1.0,0.10866916,0.60658866,1.0389261,nan,6,3.8382502,3.8382502,3.8382502,3.8382502,3.8382502,3.8382502,0.0,0.0,0.0,0.0,0.0,0.0,0.0,0.0,0.0,0.0,0.0,0.0,0.0,0.0,0,0,0,0,0,0,0,0,0,0,0,1,0,0,1,0,0
614138878,23.015774,23.02697,0.0,5.5682263e-05,-1.0,0.10866916,0.60563976,1.0390238,nan,6,3.8378284,3.8378284,3.8378284,3.8378284,3.8378284,3.8378284,0.0,0.0,0.0,0.0,0.0,0.0,0.0,0.0,0.0,0.0,0.0,0.0,0.0,0.0,0,0,0,0,0,0,0,0,0,0,0,1,0,0,1,0,0
614328876,22.943771,23.018887,0.0,3.822202e-05,-1.0,0.10866916,0.60251933,1.0393447,nan,6,3.836481,3.836481,3.836481,3.836481,3.836481,3.836481,0.0,0.0,0.0,0.0,0.0,0.0,0.0,0.0,0.0,0.0,0.0,0.0,0.0,0.0,0,0,0,0,0,0,0,0,0,0,0,1,0,0,1,0,0
614528878,22.976583,23.017347,0.0,2.5722324e-05,-1.0,0.10866916,0.6021388,1.0393839,nan,6,3.8362246,3.8362246,3.8362246,3.8362246,3.8362246,3.8362246,0.0,0.0,0.0,0.0,0.0,0.0,0.0,0.0,0.0,0.0,0.0,0.0,0.0,0.0,0,0,0,0,0,0,0,0,0,0,0,1,0,0,1,0,0
614729058,23.032177,23.013666,0.0,1.7310385e-05,-1.0,0.10866916,0.6007455,1.0395273,nan,6,3.835611,3.835611,3.835611,3.835611,3.835611,3.835611,0.0,0.0,0.0,0.0,0.0,0.0,0.0,0.0,0.0,0.0,0.0,0.0,0.0,0.0,0,0,0,0,0,0,0,0,0,0,0,1,0,0,1,0,0
614928878,23.010305,23.01317,0.0,1.1649395e-05,-1.0,0.10866916,0.60052615,1.0395498,nan,6,3.8355284,3.8355284,3.8355284,3.8355284,3.8355284,3.8355284,0.0,0.0,0.0,0.0,0.0,0.0,0.0,0.0,0.0,0.0,0.0,0.0,0.0,0.0,0,0,0,0,0,0,0,0,0,0,0,1,0,0,1,0,0
615128878,22.989342,23.015394,0.0,7.83971e-06,-1.0,0.10866916,0.60136634,1.0394633,nan,6,3.835899,3.835899,3.835899,3.835899,3.835899,3.835899,0.0,0.0,0.0,0.0,0.0,0.0,0.0,0.0,0.0,0.0,0.0,0.0,0.0,0.0,0,0,0,0,0,0,0,0,0,0,0,1,0,0,1,0,0
615338890,23.023064,23.01154,0.0,5.172451e-06,-1.0,0.10866916,0.5996211,1.0396429,nan,6,3.8352566,3.8352566,3.8352566,3.8352566,3.8352566,3.8352566,0.0,0.0,0.0,0.0,0.0,0.0,0.0,0.0,0.0,0.0,0.0,0.0,0.0,0.0,0,0,0,0,0,0,0,0,0,0,0,1,0,0,1,0,0
615538903,23.071367,23.006287,0.0,3.4809107e-06,-1.0,0.10866916,0.5974639,1.0398651,nan,6,3.834381,3.834381,3.834381,3.834381,3.834381,3.834381,0.0,0.0,0.0,0.0,0.0,0.0,0.0,0.0,0.0,0.0,0.0,0.0,0.0,0.0,0,0,0,0,0,0,0,0,0,0,0,1,0,0,1,0,0
615728877,23.094152,23.00469,0.0,2.389404e-06,-1.0,0.10866916,0.5969117,1.039922,nan,6,3.834115,3.834115,3.834115,3.834115,3.834115,3.834115,0.0,0.0,0.0,0.0,0.0,0.0,0.0,0.0,0.0,0.0,0.0,0.0,0.0,0.0,0,0,0,0,0,0,0,0,0,0,0,1,0,0,1,0,0
615928877,23.000278,23.0081,0.0,1.6080006e-06,-1.0,0.10866916,0.59796935,1.039813,nan,6,3.8346834,3.8346834,3.8346834,3.8346834,3.8346834,3.8346834,0.0,0.0,0.0,0.0,0.0,0.0,0.0,0.0,0.0,0.0,0.0,0.0,0.0,0.0,0,0,0,0,0,0,0,0,0,0,0,1,0,0,1,0,0
616128880,23.013039,23.011292,0.0,0.0006394971,-1.0,0.108786464,0.5983146,1.0397774,nan,6,3.8352153,3.8352153,3.8352153,3.8352153,3.8352153,3.8352153,0.0,0.0,0.0,0.0,0.0,0.0,0.0,0.0,0.0,0.0,0.0,0.0,0.0,0.0,0,0,0,0,0,0,0,0,0,0,0,1,0,0,1,0,0
616329152,22.920986,23.01489,0.0,0.00043036326,-1.0,0.108786464,0.59875804,1.0397317,nan,6,3.8358152,3.8358152,3.8358152,3.8358152,3.8358152,3.8358152,0.0,0.0,0.0,0.0,0.0,0.0,0.0,0.0,0.0,0.0,0.0,0.0,0.0,0.0,0,0,0,0,0,0,0,0,0,0,0,1,0,0,1,0,0
616528885,23.044025,23.025095,0.0,0.00028962214,-1.0,0.108786464,0.6021703,1.0393807,nan,6,3.8375158,3.8375158,3.8375158,3.8375158,3.8375158,3.8375158,0.0,0.0,0.0,0.0,0.0,0.0,0.0,0.0,0.0,0.0,0.0,0.0,0.0,0.0,0,0,0,0,0,0,0,0,0,0,0,1,0,0,1,0,0
616739053,23.075014,23.033154,0.0,0.0001910857,-1.0,0.108786464,0.6046851,1.0391219,nan,6,3.8388588,3.8388588,3.8388588,3.8388588,3.8388588,3.8388588,0.0,0.0,0.0,0.0,0.0,0.0,0.0,0.0,0.0,0.0,0.0,0.0,0.0,0.0,0,0,0,0,0,0,0,0,0,0,0,1,0,0,1,0,0
616938901,23.024887,23.030682,0.0,0.00012859517,-1.0,0.108786464,0.6035417,1.0392395,nan,6,3.8384469,3.8384469,3.8384469,3.8384469,3.8384469,3.8384469,0.0,0.0,0.0,0.0,0.0,0.0,0.0,0.0,0.0,0.0,0.0,0.0,0.0,0.0,0,0,0,0,0,0,0,0,0,0,0,1,0,0,1,0,0
617128878,22.977493,23.027576,0.0,8.827169e-05,-1.0,0.108786464,0.60244304,1.0393525,nan,6,3.8379295,3.8379295,3.8379295,3.8379295,3.8379295,3.8379295,0.0,0.0,0.0,0.0,0.0,0.0,0.0,0.0,0.0,0.0,0.0,0.0,0.0,0.0,0,0,0,0,0,0,0,0,0,0,0,1,0,0,1,0,0
617328877,23.019419,23.02496,0.0,5.9404327e-05,-1.0,0.108786464,0.6014131,1.0394585,nan,6,3.8374932,3.8374932,3.8374932,3.8374932,3.8374932,3.8374932,0.0,0.0,0.0,0.0,0.0,0.0,0.0,0.0,0.0,0.0,0.0,0.0,0.0,0.0,0,0,0,0,0,0,0,0,0,0,0,1,0,0,1,0,0
617528892,22.96838,23.02024,0.0,3.9977418e-05,-1.0,0.108786464,0.5995887,1.0396463,nan,6,3.8367069,3.8367069,3.8367069,3.8367069,3.8367069,3.8367069,0.0,0.0,0.0,0.0,0.0,0.0,0.0,0.0,0.0,0.0,0.0,0.0,0.0,0.0,0,0,0,0,0,0,0,0,0,0,0,1,0,0,1,0,0
617728909,22.963821,23.015043,0.0,2.6903648e-05,-1.0,0.108786464,0.5981124,1.0397984,nan,6,3.8358405,3.8358405,3.8358405,3.8358405,3.8358405,3.8358405,0.0,0.0,0.0,0.0,0.0,0.0,0.0,0.0,0.0,0.0,0.0,0.0,0.0,0.0,0,0,0,0,0,0,0,0,0,0,0,1,0,0,1,0,0
617928877,23.081394,23.014137,0.0,1.8105384e-05,-1.0,0.108786464,0.59801894,1.0398079,nan,6,3.8356895,3.8356895,3.8356895,3.8356895,3.8356895,3.8356895,0.0,0.0,0.0,0.0,0.0,0.0,0.0,0.0,0.0,0.0,0.0,0.0,0.0,0.0,0,0,0,0,0,0,0,0,0,0,0,1,0,0,1,0,0
618138877,22.955622,23.008163,0.0,1.1945492e-05,-1.0,0.108786464,0.59515315,1.0401031,nan,6,3.834694,3.834694,3.834694,3.834694,3.834694,3.834694,0.0,0.0,0.0,0.0,0.0,0.0,0.0,0.0,0.0,0.0,0.0,0.0,0.0,0.0,0,0,0,0,0,0,0,0,0,0,0,1,0,0,1,0,0
618338883,23.060432,23.009441,0.0,8.0389755e-06,-1.0,0.108786464,0.59542304,1.0400753,nan,6,3.8349068,3.8349068,3.8349068,3.8349068,3.8349068,3.8349068,0.0,0.0,0.0,0.0,0.0,0.0,0.0,0.0,0.0,0.0,0.0,0.0,0.0,0.0,0,0,0,0,0,0,0,0,0,0,0,1,0,0,1,0,0
618529007,22.854454,22.999737,0.0,5.5182e-06,-1.0,0.108786464,0.59212047,1.0404156,nan,6,3.8332894,3.8332894,3.8332894,3.8332894,3.8332894,3.8332894,0.0,0.0,0.0,0.0,0.0,0.0,0.0,0.0,0.0,0.0,0.0,0.0,0.0,0.0,0,0,0,0,0,0,0,0,0,0,0,1,0,0,1,0,0
618739271,22.962,22.98903,0.0,6.255305e-05,-1.0,0.10879671,0.58903533,1.0407338,nan,6,3.831505,3.831505,3.831505,3.831505,3.831505,3.831505,0.0,0.0,0.0,0.0,0.0,0.0,0.0,0.0,0.0,0.0,0.0,0.0,0.0,0.0,0,0,0,0,0,0,0,0,0,0,0,1,0,0,1,0,0
618929616,23.001192,22.986465,0.0036625,0.00011475207,-1.0,0.108806945,0.58911735,1.0407252,nan,6,3.8310776,3.8310776,3.8310776,3.8310776,3.8310776,3.8310776,0.0,0.0,0.0,0.0,0.0,0.0,0.0,0.0,0.0,0.0,0.0,0.0,0.0,0.0,0,0,0,0,0,0,0,0,0,0,0,1,0,0,1,0,0
619128878,22.912785,22.980167,0.0,7.7224846e-05,-1.0,0.108806945,0.5872739,1.0409156,nan,6,3.8300278,3.8300278,3.8300278,3.8300278,3.8300278,3.8300278,0.0,0.0,0.0,0.0,0.0,0.0,0.0,0.0,0.0,0.0,0.0,0.0,0.0,0.0,0,0,0,0,0,0,0,0,0,0,0,1,0,0,1,0,0
619328877,23.147926,22.989437,0.0,5.1970117e-05,-1.0,0.108806945,0.5893796,1.0406983,nan,6,3.8315728,3.8315728,3.8315728,3.8315728,3.8315728,3.8315728,0.0,0.0,0.0,0.0,0.0,0.0,0.0,0.0,0.0,0.0,0.0,0.0,0.0,0.0,0,0,0,0,0,0,0,0,0,0,0,1,0,0,1,0,0
619538877,23.2737,23.038017,0.0,3.4288627e-05,-1.0,0.108806945,0.6032155,1.0392731,nan,6,3.8396695,3.8396695,3.8396695,3.8396695,3.8396695,3.8396695,0.0,0.0,0.0,0.0,0.0,0.0,0.0,0.0,0.0,0.0,0.0,0.0,0.0,0.0,0,0,0,0,0,0,0,0,0,0,0,1,0,0,1,0,0
619738877,23.186207,23.057425,0.0,2.3075265e-05,-1.0,0.108806945,0.6082309,1.0387574,nan,6,3.842904,3.842904,3.842904,3.842904,3.842904,3.842904,0.0,0.0,0.0,0.0,0.0,0.0,0.0,0.0,0.0,0.0,0.0,0.0,0.0,0.0,0,0,0,0,0,0,0,0,0,0,0,1,0,0,1,0,0
619938877,23.045849,23.073355,0.0,1.552899e-05,-1.0,0.108806945,0.612017,1.0383686,nan,6,3.8455591,3.8455591,3.8455591,3.8455591,3.8455591,3.8455591,0.0,0.0,0.0,0.0,0.0,0.0,0.0,0.0,0.0,0.0,0.0,0.0,0.0,0.0,0,0,0,0,0,0,0,0,0,0,0,1,0,0,1,0,0
620128878,23.261852,23.088705,0.0,1.0659577e-05,-1.0,0.108806945,0.61565715,1.0379949,nan,6,3.8481176,3.8481176,3.8481176,3.8481176,3.8481176,3.8481176,0.0,0.0,0.0,0.0,0.0,0.0,0.0,0.0,0.0,0.0,0.0,0.0,0.0,0.0,0,0,0,0,0,0,0,0,0,0,0,1,0,0,1,0,0
620328904,23.229044,23.11004,0.0,7.17359e-06,-1.0,0.108806945,0.6218179,1.037363,nan,6,3.8516734,3.8516734,3.8516734,3.8516734,3.8516734,3.8516734,0.0,0.0,0.0,0.0,0.0,0.0,0.0,0.0,0.0,0.0,0.0,0.0,0.0,0.0,0,0,0,0,0,0,0,0,0,0,0,1,0,0,1,0,0
620528900,23.191673,23.117245,0.0,4.82762e-06,-1.0,0.108806945,0.6227029,1.0372725,nan,6,3.852874,3.852874,3.852874,3.852874,3.852874,3.852874,0.0,0.0,0.0,0.0,0.0,0.0,0.0,0.0,0.0,0.0,0.0,0.0,0.0,0.0,0,0,0,0,0,0,0,0,0,0,0,1,0,0,1,0,0
620728879,23.140636,23.134287,0.0,3.24885e-06,-1.0,0.108806945,0.6278966,1.0367404,nan,6,3.8557146,3.8557146,3.8557146,3.8557146,3.8557146,3.8557146,0.0,0.0,0.0,0.0,0.0,0.0,0.0,0.0,0.0,0.0,0.0,0.0,0.0,0.0,0,0,0,0,0,0,0,0,0,0,0,1,0,0,1,0,0
620938878,23.311981,23.1451,0.0,2.1435128e-06,-1.0,0.108806945,0.63083965,1.0364393,nan,6,3.8575165,3.8575165,3.8575165,3.8575165,3.8575165,3.8575165,0.0,0.0,0.0,0.0,0.0,0.0,0.0,0.0,0.0,0.0,0.0,0.0,0.0,0.0,0,0,0,0,0,0,0,0,0,0,0,1,0,0,1,0,0
621138880,23.170712,23.154743,0.0,1.4425227e-06,-1.0,0.108806945,0.6331008,1.0362079,nan,6,3.859124,3.859124,3.859124,3.859124,3.859124,3.859124,0.0,0.0,0.0,0.0,0.0,0.0,0.0,0.0,0.0,0.0,0.0,0.0,0.0,0.0,0,0,0,0,0,0,0,0,0,0,0,1,0,0,1,0,0
621328891,23.169802,23.166119,0.0,9.901922e-07,-1.0,0.108806945,0.6363128,1.0358796,nan,6,3.8610198,3.8610198,3.8610198,3.8610198,3.8610198,3.8610198,0.0,0.0,0.0,0.0,0.0,0.0,0.0,0.0,0.0,0.0,0.0,0.0,0.0,0.0,0,0,0,0,0,0,0,0,0,0,0,1,0,0,1,0,0
621529263,23.100533,23.168425,0.0,6.66371e-07,-1.0,0.108806945,0.63627464,1.0358835,nan,6,3.8614042,3.8614042,3.8614042,3.8614042,3.8614042,3.8614042,0.0,0.0,0.0,0.0,0.0,0.0,0.0,0.0,0.0,0.0,0.0,0.0,0.0,0.0,0,0,0,0,0,0,0,0,0,0,0,1,0,0,1,0,0
621728877,23.089596,23.167246,0.0,4.4844873e-07,-1.0,0.108806945,0.63583213,1.0359287,nan,6,3.8612077,3.8612077,3.8612077,3.8612077,3.8612077,3.8612077,0.0,0.0,0.0,0.0,0.0,0.0,0.0,0.0,0.0,0.0,0.0,0.0,0.0,0.0,0,0,0,0,0,0,0,0,0,0,0,1,0,0,1,0,0
621928876,23.293753,23.169529,0.0,3.0179316e-07,-1.0,0.108806945,0.6371034,1.0357989,nan,6,3.8615882,3.8615882,3.8615882,3.8615882,3.8615882,3.8615882,0.0,0.0,0.0,0.0,0.0,0.0,0.0,0.0,0.0,0.0,0.0,0.0,0.0,0.0,0,0,0,0,0,0,0,0,0,0,0,1,0,0,1,0,0
622128877,23.116938,23.167274,0.0,2.0309814e-07,-1.0,0.108806945,0.6367343,1.0358366,nan,6,3.8612125,3.8612125,3.8612125,3.8612125,3.8612125,3.8612125,0.0,0.0,0.0,0.0,0.0,0.0,0.0,0.0,0.0,0.0,0.0,0.0,0.0,0.0,0,0,0,0,0,0,0,0,0,0,0,1,0,0,1,0,0
622338886,23.141546,23.167948,0.0,1.3399924e-07,-1.0,0.108806945,0.6374772,1.0357606,nan,6,3.8613245,3.8613245,3.8613245,3.8613245,3.8613245,3.8613245,0.0,0.0,0.0,0.0,0.0,0.0,0.0,0.0,0.0,0.0,0.0,0.0,0.0,0.0,0,0,0,0,0,0,0,0,0,0,0,1,0,0,1,0,0
622538881,23.191673,23.165146,0.0,9.017766e-08,-1.0,0.108806945,0.6362975,1.0358813,nan,6,3.8608577,3.8608577,3.8608577,3.8608577,3.8608577,3.8608577,0.0,0.0,0.0,0.0,0.0,0.0,0.0,0.0,0.0,0.0,0.0,0.0,0.0,0.0,0,0,0,0,0,0,0,0,0,0,0,1,0,0,1,0,0
622739059,23.186207,23.164701,0.0,6.068697e-08,-1.0,0.108806945,0.63593704,1.035918,nan,6,3.8607836,3.8607836,3.8607836,3.8607836,3.8607836,3.8607836,0.0,0.0,0.0,0.0,0.0,0.0,0.0,0.0,0.0,0.0,0.0,0.0,0.0,0.0,0,0,0,0,0,0,0,0,0,0,0,1,0,0,1,0,0
622928967,23.244535,23.166857,0.0,4.1657405e-08,-1.0,0.108806945,0.6364606,1.0358646,nan,6,3.8611429,3.8611429,3.8611429,3.8611429,3.8611429,3.8611429,0.0,0.0,0.0,0.0,0.0,0.0,0.0,0.0,0.0,0.0,0.0,0.0,0.0,0.0,0,0,0,0,0,0,0,0,0,0,0,1,0,0,1,0,0
623128921,23.18894,23.170437,0.0,2.8034243e-08,-1.0,0.108806945,0.6374677,1.0357616,nan,6,3.8617394,3.8617394,3.8617394,3.8617394,3.8617394,3.8617394,0.0,0.0,0.0,0.0,0.0,0.0,0.0,0.0,0.0,0.0,0.0,0.0,0.0,0.0,0,0,0,0,0,0,0,0,0,0,0,1,0,0,1,0,0
623328877,23.229954,23.177809,0.0,1.8866242e-08,-1.0,0.108806945,0.63983375,1.0355198,nan,6,3.8629682,3.8629682,3.8629682,3.8629682,3.8629682,3.8629682,0.0,0.0,0.0,0.0,0.0,0.0,0.0,0.0,0.0,0.0,0.0,0.0,0.0,0.0,0,0,0,0,0,0,0,0,0,0,0,1,0,0,1,0,0
623528878,23.244535,23.176111,0.0,1.269644e-08,-1.0,0.108806945,0.63850623,1.0356555,nan,6,3.8626852,3.8626852,3.8626852,3.8626852,3.8626852,3.8626852,0.0,0.0,0.0,0.0,0.0,0.0,0.0,0.0,0.0,0.0,0.0,0.0,0.0,0.0,0,0,0,0,0,0,0,0,0,0,0,1,0,0,1,0,0
623738877,23.194408,23.178864,0.0,8.376805e-09,-1.0,0.108806945,0.6388801,1.0356174,nan,6,3.863144,3.863144,3.863144,3.863144,3.863144,3.863144,0.0,0.0,0.0,0.0,0.0,0.0,0.0,0.0,0.0,0.0,0.0,0.0,0.0,0.0,0,0,0,0,0,0,0,0,0,0,0,1,0,0,1,0,0
623938879,23.165245,23.179115,0.0,5.63735e-09,-1.0,0.108806945,0.63852435,1.0356537,nan,6,3.863186,3.863186,3.863186,3.863186,3.863186,3.863186,0.0,0.0,0.0,0.0,0.0,0.0,0.0,0.0,0.0,0.0,0.0,0.0,0.0,0.0,0,0,0,0,0,0,0,0,0,0,0,1,0,0,1,0,0
624139169,23.17618,23.183687,0.0,3.7937755e-09,-1.0,0.108806945,0.64008933,1.0354939,nan,6,3.8639479,3.8639479,3.8639479,3.8639479,3.8639479,3.8639479,0.0,0.0,0.0,0.0,0.0,0.0,0.0,0.0,0.0,0.0,0.0,0.0,0.0,0.0,0,0,0,0,0,0,0,0,0,0,0,1,0,0,1,0,0
624328877,23.455072,23.186626,0.0,2.604164e-09,-1.0,0.108806945,0.63984615,1.0355186,nan,6,3.8644378,3.8644378,3.8644378,3.8644378,3.8644378,3.8644378,0.0,0.0,0.0,0.0,0.0,0.0,0.0,0.0,0.0,0.0,0.0,0.0,0.0,0.0,0,0,0,0,0,0,0,0,0,0,0,1,0,0,1,0,0
624528877,23.17618,23.192451,0.0,1.7525276e-09,-1.0,0.108806945,0.6404651,1.0354555,nan,6,3.8654087,3.8654087,3.8654087,3.8654087,3.8654087,3.8654087,0.0,0.0,0.0,0.0,0.0,0.0,0.0,0.0,0.0,0.0,0.0,0.0,0.0,0.0,0,0,0,0,0,0,0,0,0,0,0,1,0,0,1,0,0
624728977,23.22084,23.190914,0.0,1.1794008e-09,-1.0,0.108806945,0.6405681,1.0354449,nan,6,3.8651524,3.8651524,3.8651524,3.8651524,3.8651524,3.8651524,0.0,0.0,0.0,0.0,0.0,0.0,0.0,0.0,0.0,0.0,0.0,0.0,0.0,0.0,0,0,0,0,0,0,0,0,0,0,0,1,0,0,1,0,0
624928878,23.254562,23.188482,0.0,7.937029e-10,-1.0,0.108806945,0.6400235,1.0355005,nan,6,3.864747,3.864747,3.864747,3.864747,3.864747,3.864747,0.0,0.0,0.0,0.0,0.0,0.0,0.0,0.0,0.0,0.0,0.0,0.0,0.0,0.0,0,0,0,0,0,0,0,0,0,0,0,1,0,0,1,0,0
625138877,22.995722,23.17526,0.0,5.2366594e-10,-1.0,0.108806945,0.63521796,1.0359915,nan,6,3.8625433,3.8625433,3.8625433,3.8625433,3.8625433,3.8625433,0.0,0.0,0.0,0.0,0.0,0.0,0.0,0.0,0.0,0.0,0.0,0.0,0.0,0.0,0,0,0,0,0,0,0,0,0,0,0,1,0,0,1,0,0
625338876,23.186207,23.1503,0.0,3.5241218e-10,-1.0,0.108806945,0.62562114,1.0369735,nan,6,3.8583832,3.8583832,3.8583832,3.8583832,3.8583832,3.8583832,0.0,0.0,0.0,0.0,0.0,0.0,0.0,0.0,0.0,0.0,0.0,0.0,0.0,0.0,0,0,0,0,0,0,0,0,0,0,0,1,0,0,1,0,0
625528954,23.056786,23.124496,0.0,0.0004486635,-1.0,0.10887309,0.6153129,1.0380301,nan,6,3.8540828,3.8540828,3.8540828,3.8540828,3.8540828,3.8540828,0.0,0.0,0.0,0.0,0.0,0.0,0.0,0.0,0.0,0.0,0.0,0.0,0.0,0.0,0,0,0,0,0,0,0,0,0,0,0,1,0,0,1,0,0
625728878,22.965645,23.091036,0.0,0.00030193763,-1.0,0.10887309,0.6018327,1.0394154,nan,6,3.848506,3.848506,3.848506,3.848506,3.848506,3.848506,0.0,0.0,0.0,0.0,0.0,0.0,0.0,0.0,0.0,0.0,0.0,0.0,0.0,0.0,0,0,0,0,0,0,0,0,0,0,0,1,0,0,1,0,0
625928877,23.137903,23.051447,0.0,0.00261807,-1.0,0.10931564,0.5858863,1.0410588,nan,6,3.8419077,3.8419077,3.8419077,3.8419077,3.8419077,3.8419077,0.0,0.0,0.0,0.0,0.0,0.0,0.0,0.0,0.0,0.0,0.0,0.0,0.0,0.0,0,0,0,0,0,0,0,0,0,0,0,1,0,0,1,0,0
626128877,22.733236,22.983759,0.0,0.0032546436,-1.0,0.10954452,0.55836326,1.0439074,nan,6,3.8306265,3.8306265,3.8306265,3.8306265,3.8306265,3.8306265,0.0,0.0,0.0,0.0,0.0,0.0,0.0,0.0,0.0,0.0,0.0,0.0,0.0,0.0,0,0,0,0,0,0,0,0,0,0,0,1,0,0,1,0,0
626328880,21.760765,22.883812,0.0,0.02269289,-1.0,0.11278499,0.517299,1.0481868,nan,6,3.8139687,3.8139687,3.8139687,3.8139687,3.8139687,3.8139687,0.0,0.0,0.0,0.0,0.0,0.0,0.0,0.0,0.0,0.0,0.0,0.0,0.0,0.0,0,0,0,0,0,0,0,0,0,0,0,1,0,0,1,0,0
626538983,21.562078,22.802282,0.0,0.09200258,-1.0,0.12634367,0.4839719,1.0516856,nan,6,3.8003805,3.8003805,3.8003805,3.8003805,3.8003805,3.8003805,0.0,0.0,0.0,0.0,0.0,0.0,0.0,0.0,0.0,0.0,0.0,0.0,0.0,0.0,0,0,0,0,0,0,0,0,0,0,0,1,0,0,1,0,0
626739315,20.98151,22.624105,0.0,0.11365189,-1.0,0.13545355,0.41041118,1.0594919,nan,6,3.7706842,3.7706842,3.7706842,3.7706842,3.7706842,3.7706842,0.0,0.0,0.0,0.0,0.0,0.0,0.0,0.0,0.0,0.0,0.0,0.0,0.0,0.0,0,0,0,0,0,0,0,0,0,0,0,1,0,0,1,0,0
626938893,21.645927,22.441282,0.0,0.07726418,-1.0,0.13559115,0.3348449,1.0676324,nan,6,3.7402136,3.7402136,3.7402136,3.7402136,3.7402136,3.7402136,0.0,0.0,0.0,0.0,0.0,0.0,0.0,0.0,0.0,0.0,0.0,0.0,0.0,0.0,0,0,0,0,0,0,0,0,0,0,0,1,0,0,1,0,0
627128879,20.547682,22.221878,0.0,0.07329362,-1.0,0.1389542,0.24428399,1.0775548,nan,6,3.7036464,3.7036464,3.7036464,3.7036464,3.7036464,3.7036464,0.0,0.0,0.0,0.0,0.0,0.0,0.0,0.0,0.0,0.0,0.0,0.0,0.0,0.0,0,0,0,0,0,0,0,0,0,0,0,1,0,0,1,0,1
627328877,19.982609,21.975662,0.0,0.07144606,-1.0,0.14277402,0.14171822,1.0890175,nan,6,3.6626103,3.6626103,3.6626103,3.6626103,3.6626103,3.6626103,0.0,0.0,0.0,0.0,0.0,0.0,0.0,0.0,0.0,0.0,0.0,0.0,0.0,0.0,0,0,0,0,0,0,0,0,0,0,0,1,0,0,1,0,2
627528899,19.618046,21.79549,0.0,0.052824806,-1.0,0.1435015,0.067717865,1.0974404,nan,6,3.6325817,3.6325817,3.6325817,3.6325817,3.6325817,3.6325817,0.0,0.0,0.0,0.0,0.0,0.0,0.0,0.0,0.0,0.0,0.0,0.0,0.0,0.0,0,0,0,0,0,0,0,0,0,0,0,1,0,0,1,0,3
627728878,22.178188,21.671196,0.55120623,0.047398046,-1.0,0.14523123,0.01408608,1.1036267,nan,6,3.611866,3.611866,3.611866,3.611866,3.611866,3.611866,0.0,0.0,0.0,0.0,0.0,0.0,0.0,0.0,0.0,0.0,0.0,0.0,0.0,0.0,0,0,0,0,0,0,0,0,0,0,0,1,0,0,1,0,3
627938876,21.057158,21.55337,0.0,0.03766451,-1.0,0.14629436,0.0,1.1052631,nan,6,3.5922282,3.5922282,3.5922282,3.5922282,3.5922282,3.5922282,0.0,0.0,0.0,0.0,0.0,0.0,0.0,0.0,0.0,0.0,0.0,0.0,0.0,0.0,0,0,0,0,0,0,0,0,0,0,0,1,0,0,1,0,3
628138893,19.84225,21.407724,0.0,0.027674682,-1.0,0.14666614,0.0,1.1052631,nan,6,3.567954,3.567954,3.567954,3.567954,3.567954,3.567954,0.0,0.0,0.0,0.0,0.0,0.0,0.0,0.0,0.0,0.0,0.0,0.0,0.0,0.0,0,0,0,0,0,0,0,0,0,0,0,1,0,0,1,0,3
628339257,22.574652,21.370275,0.0,0.028557558,-1.0,0.14811683,0.0,1.1052631,nan,6,3.5617125,3.5617125,3.5617125,3.5617125,3.5617125,3.5617125,0.0,0.0,0.0,0.0,0.0,0.0,0.0,0.0,0.0,0.0,0.0,0.0,0.0,0.0,0,0,0,0,0,0,0,0,0,0,0,1,0,0,1,0,3
628529901,20.748192,21.382261,0.0,0.030531464,-1.0,0.14993134,0.0,1.1052631,nan,6,3.5637102,3.5637102,3.5637102,3.5637102,3.5637102,3.5637102,0.0,0.0,0.0,0.0,0.0,0.0,0.0,0.0,0.0,0.0,0.0,0.0,0.0,0.0,0,0,0,0,0,0,0,0,0,0,0,1,0,0,1,0,3
628728878,20.341703,21.37772,0.0,0.039827283,-1.0,0.15317991,0.0,1.1052631,nan,6,3.5629532,3.5629532,3.5629532,3.5629532,3.5629532,3.5629532,0.0,0.0,0.0,0.0,0.0,0.0,0.0,0.0,0.0,0.0,0.0,0.0,0.0,0.0,0,0,0,0,0,0,0,0,0,0,0,1,0,0,1,0,3
628928880,21.305061,21.472471,0.0,0.04058132,-1.0,0.15558551,0.0,1.1052631,nan,6,3.5787451,3.5787451,3.5787451,3.5787451,3.5787451,3.5787451,0.0,0.0,0.0,0.0,0.0,0.0,0.0,0.0,0.0,0.0,0.0,0.0,0.0,0.0,0,0,0,0,0,0,0,0,0,0,0,1,0,0,1,0,3
629129215,22.227406,21.449112,0.0,0.039008,-1.0,0.1574411,0.0,1.1052631,nan,6,3.574852,3.574852,3.574852,3.574852,3.574852,3.574852,0.0,0.0,0.0,0.0,0.0,0.0,0.0,0.0,0.0,0.0,0.0,0.0,0.0,0.0,0,0,0,0,0,0,0,0,0,0,0,1,0,0,1,0,3
629339698,20.826572,21.427872,0.0,0.025736542,-1.0,0.1574411,0.0,1.1052631,nan,6,3.571312,3.571312,3.571312,3.571312,3.571312,3.571312,0.0,0.0,0.0,0.0,0.0,0.0,0.0,0.0,0.0,0.0,0.0,0.0,0.0,0.0,0,0,0,0,0,0,0,0,0,0,0,1,0,0,1,0,3
629538886,22.643007,21.572609,0.0,0.08266941,-1.0,0.1676631,0.0,1.1052631,nan,6,3.595435,3.595435,3.595435,3.595435,3.595435,3.595435,0.0,0.0,0.0,0.0,0.0,0.0,0.0,0.0,0.0,0.0,0.0,0.0,0.0,0.0,0,0,0,0,0,0,0,0,0,0,0,1,0,0,1,0,3
629728877,20.626974,21.53152,0.0,0.07496628,-1.0,0.17051063,0.0,1.1052631,nan,6,3.5885868,3.5885868,3.5885868,3.5885868,3.5885868,3.5885868,0.0,0.0,0.0,0.0,0.0,0.0,0.0,0.0,0.0,0.0,0.0,0.0,0.0,0.0,0,0,0,0,0,0,0,0,0,0,0,1,0,0,1,0,3
