timestamp,timestamp_sample,baro_device_id,baro_alt_meter,baro_temp_celcius,baro_pressure_pa,rho
579892136,579872054,3997730,34.6091,41.29,100910.0,1.153405
579942258,579924683,3997730,34.714794,41.29,100908.74,1.1533905
580002415,579979827,3997730,34.71215,41.29,100908.75,1.1533906
580052548,580032452,3997730,34.630238,41.29,100909.75,1.1530323
580102658,580085082,3997730,34.648735,41.29,100909.5,1.1530296
580162803,580140219,3997730,34.630238,41.3,100909.75,1.1534021
580212922,580192843,3997730,34.669876,41.3,100909.25,1.1533964
580263045,580245470,3997730,34.566826,41.3,100910.5,1.1534107
580323229,580300636,3997730,34.524548,41.3,100911.0,1.1534164
580373359,580353281,3997730,34.503407,41.3,100911.24,1.1530495
580423483,580405907,3997730,34.630238,41.3,100909.75,1.1530323
580483610,580461032,3997730,34.73329,41.3,100908.5,1.1533879
580533728,580513650,3997730,34.461132,41.3,100911.74,1.1534249
580583843,580566271,3997730,34.71215,41.3,100908.75,1.153021
580643975,580621396,3997730,34.691013,41.3,100909.0,1.1530238
580694086,580674011,3997730,34.566826,41.3,100910.5,1.153041
580744196,580726627,3997730,34.630238,41.3,100909.74,1.1530322
580804324,580781746,3997730,34.48227,41.309998,100911.49,1.153422
580854461,580834372,3997730,34.672516,41.309998,100909.24,1.1533962
580904596,580887009,3997730,34.48227,41.309998,100911.5,1.1530523
580964773,580942192,3997730,34.75443,41.309998,100908.25,1.1530153
581014885,580994810,3997730,34.73329,41.309998,100908.5,1.1530181
581065019,581047427,3997730,34.691013,41.309998,100909.0,1.1533935
581125145,581102546,3997730,34.75443,41.32,100908.25,1.1533849
581175274,581155202,3997730,34.691013,41.309998,100909.0,1.1530238
581225389,581207817,3997730,34.648735,41.32,100909.5,1.1530296
581285570,581262990,3997730,34.691013,41.32,100909.0,1.1533935
581335679,581315606,3997730,34.83634,41.32,100907.25,1.1533735
581385784,581368217,3997730,34.587963,41.32,100910.24,1.1534078
581445909,581423332,3997730,34.587963,41.329998,100910.25,1.1534078
581496018,581475943,3997730,34.648735,41.329998,100909.5,1.1530296
581546124,581528555,3997730,34.75443,41.329998,100908.25,1.1530153
581606254,581583673,3997730,34.503407,41.329998,100911.26,1.1534193
581656368,581636290,3997730,34.902397,41.329998,100906.49,1.1533649
581706485,581688910,3997730,34.669876,41.34,100909.25,1.1533964
581766630,581744042,3997730,34.796707,41.34,100907.74,1.1533792
581816741,581796666,3997730,34.566826,41.34,100910.49,1.1530409
581866850,581849279,3997730,34.545685,41.34,100910.76,1.1530439
581926976,581904398,3997730,34.669876,41.34,100909.25,1.1533964
581977087,581957011,3997730,34.669876,41.35,100909.25,1.1533964
582027303,582009629,3997730,34.648735,41.35,100909.5,1.1533992
582087461,582064812,3997730,34.672516,41.35,100909.24,1.1530266
582137619,582117503,3997730,34.817844,41.35,100907.49,1.1530066
582187709,582170134,3997730,34.817844,41.35,100907.5,1.1533765
582247916,582225297,3997730,34.73329,41.36,100908.5,1.1533879
582298040,582277959,3997730,34.775566,41.36,100908.0,1.1530124
582348163,582330591,3997730,34.672516,41.36,100909.24,1.1530266
582408313,582385729,3997730,34.524548,41.37,100911.0,1.1530466
582458444,582438358,3997730,34.75443,41.37,100908.24,1.1530151
582508619,582491005,3997730,34.71215,41.37,100908.75,1.153021
582568832,582546132,3997730,34.672516,41.37,100909.24,1.1530266
582618896,582598794,3997730,34.648735,41.37,100909.5,1.1530296
582669008,582651438,3997730,34.796707,41.379997,100907.75,1.1530095
582729138,582706560,3997730,34.75443,41.379997,100908.24,1.1530151
582779261,582759173,3997730,34.75443,41.379997,100908.25,1.1530153
582829356,582811787,3997730,34.691013,41.379997,100909.0,1.1530238
582889508,582866922,3997730,34.503407,41.379997,100911.24,1.1530495
582939633,582919553,3997730,34.75443,41.39,100908.24,1.1530151
582989757,582972183,3997730,34.630238,41.39,100909.75,1.1530323
583049907,583027320,3997730,34.48227,41.39,100911.5,1.1530523
583100035,583079951,3997730,34.524548,41.399998,100911.0,1.1530466
583150206,583132598,3997730,34.796707,41.399998,100907.75,1.1530095
583210343,583187760,3997730,34.315804,41.41,100913.5,1.1530752
583260466,583240382,3997730,34.775566,41.41,100907.99,1.1530123
583310574,583293006,3997730,34.545685,41.399998,100910.74,1.1530437
583370706,583348125,3997730,34.524548,41.41,100911.0,1.1530466
583420830,583400748,3997730,34.587963,41.41,100910.24,1.153038
583470954,583453378,3997730,34.71215,41.42,100908.75,1.153021
583531117,583508525,3997730,34.648735,41.42,100909.5,1.1530296
583581232,583561153,3997730,34.648735,41.42,100909.5,1.1530296
583631352,583613777,3997730,34.524548,41.42,100911.0,1.1530466
583691505,583668917,3997730,34.524548,41.42,100911.01,1.1530467
583741620,583721543,3997730,34.23389,41.43,100914.5,1.1530865
583791749,583774174,3997730,34.442635,41.43,100912.0,1.153058
583851896,583829310,3997730,34.566826,41.43,100910.5,1.153041
583902019,583881940,3997730,33.96173,41.44,100917.75,1.1531237
583952145,583934571,3997730,34.73329,41.43,100908.5,1.1530181
584012316,583989737,3997730,34.442635,41.44,100912.0,1.153058
584062432,584042356,3997730,34.6091,41.44,100910.0,1.1530353
584112542,584094973,3997730,34.75443,41.45,100908.24,1.1530151
584172693,584150106,3997730,33.710712,41.45,100920.74,1.153158
584222820,584202741,3997730,34.524548,41.45,100911.0,1.1530466
584272940,584255366,3997730,34.83634,41.45,100907.25,1.1530038
584333092,584310504,3997730,34.400356,41.45,100912.5,1.1530638
584383219,584363137,3997730,34.35808,41.45,100912.99,1.1530694
584433347,584415769,3997730,34.524548,41.46,100911.0,1.1530466
584493489,584470903,3997730,34.294666,41.46,100913.74,1.153078
584543615,584523534,3997730,34.170475,41.46,100915.25,1.1530952
584593739,584576166,3997730,34.191616,41.469997,100914.99,1.1530923
584653903,584631319,3997730,34.35808,41.469997,100913.0,1.1530695
584704012,584683938,3997730,34.273525,41.469997,100914.0,1.1530809
584754137,584736564,3997730,33.771484,41.469997,100920.0,1.1531495
584814291,584791713,3997730,33.62616,41.469997,100921.75,1.1531695
584864409,584844331,3997730,33.79527,41.48,100919.74,1.1531466
584914548,584896980,3997730,34.170475,41.48,100915.25,1.1530952
584974688,584952101,3997730,33.96173,41.48,100917.75,1.1531237
585024812,585004736,3997730,33.85604,41.489998,100918.99,1.1531379
585074932,585057360,3997730,33.668434,41.489998,100921.25,1.1531638
585135085,585112498,3997730,33.816406,41.489998,100919.49,1.1531436
585185217,585165134,3997730,33.438553,41.489998,100924.0,1.1531953
585235332,585217760,3997730,33.50197,41.489998,100923.24,1.1531866
585295482,585272895,3997730,33.042206,41.5,100928.75,1.1532495
585345608,585325527,3997730,32.39484,41.5,100936.5,1.153338
585395771,585378191,3997730,33.084484,41.5,100928.25,1.1532438
585455902,585433324,3997730,32.64586,41.51,100933.5,1.1533037
585506011,585485938,3997730,32.688133,41.5,100932.99,1.1532979
585556135,585538560,3997730,33.084484,41.51,100928.25,1.1532438
585616277,585593693,3997730,33.166397,41.51,100927.25,1.1532323
585666473,585646347,3997730,32.87574,41.51,100930.74,1.1532723
585716576,585699006,3997730,32.854603,41.52,100931.0,1.1532753
585776755,585754139,3997730,32.854603,41.52,100931.0,1.1532753
585826865,585806791,3997730,33.084484,41.52,100928.25,1.1532438
585876974,585859403,3997730,33.774128,41.52,100919.99,1.1531494
585937099,585914521,3997730,33.02107,41.53,100929.0,1.1532522
586418138,586395560,3997730,34.022507,41.54,100917.0,1.1531153
586468386,586448216,3997730,33.79527,41.55,100919.74,1.1531466
586518547,586500966,3997730,34.23389,41.559998,100914.49,1.1530865
586578680,586556097,3997730,33.647297,41.559998,100921.5,1.1531667
586678941,586661364,3997730,34.35808,41.559998,100913.0,1.1530695
586739073,586716493,3997730,35.35952,41.559998,100901.0,1.1529324
586789197,586769114,3997730,34.963173,41.57,100905.75,1.1529866
586839329,586821748,3997730,35.25647,41.57,100902.25,1.1529466
586899470,586876886,3997730,34.775566,41.57,100907.99,1.1530123
586949594,586929515,3997730,35.047726,41.57,100904.75,1.1529753
586999730,586982151,3997730,35.50485,41.579998,100899.25,1.1529124
587059868,587037284,3997730,34.48227,41.579998,100911.49,1.1530522
587109990,587089910,3997730,35.25647,41.579998,100902.25,1.1529466
587160118,587142541,3997730,35.296104,41.579998,100901.75,1.152941
587220279,587197681,3997730,35.63168,41.59,100897.75,1.1528953
587270391,587250309,3997730,35.652817,41.59,100897.5,1.1528924
587320550,587302980,3997730,35.652817,41.59,100897.5,1.1528924
587380679,587358101,3997730,35.35952,41.6,100901.0,1.1529324
587430789,587410714,3997730,35.98575,41.6,100893.5,1.1528467
587480912,587463338,3997730,35.63168,41.6,100897.75,1.1528953
587541061,587518475,3997730,35.924976,41.6,100894.25,1.1528553
587591189,587571108,3997730,35.755867,41.6,100896.25,1.1528782
587641310,587623736,3997730,35.673954,41.61,100897.25,1.1528896
587701480,587678878,3997730,36.257908,41.61,100890.25,1.1528096
587751592,587731516,3997730,35.98839,41.61,100893.49,1.1528466
587801709,587784138,3997730,35.967255,41.61,100893.75,1.1528496
587861857,587839272,3997730,35.967255,41.62,100893.74,1.1528494
587911984,587891904,3997730,36.13372,41.62,100891.75,1.1528267
587962119,587944538,3997730,36.00689,41.62,100893.25,1.1528438
588022258,587999672,3997730,36.028027,41.629997,100893.0,1.152841
588072382,588052302,3997730,36.070305,41.629997,100892.5,1.1528354
588122529,588104950,3997730,36.551205,41.629997,100886.75,1.1527696
588182674,588160089,3997730,36.194492,41.629997,100891.0,1.1528181
588232781,588212709,3997730,36.405876,41.64,100888.49,1.1527895
588282906,588265332,3997730,36.530067,41.64,100887.0,1.1527724
588343054,588320469,3997730,36.070305,41.64,100892.5,1.1528354
588393183,588373100,3997730,36.593483,41.64,100886.24,1.1527637
588443303,588425730,3997730,36.844505,41.64,100883.24,1.1527295
588503453,588480868,3997730,37.280487,41.649998,100878.0,1.1526697
588553588,588533509,3997730,36.48779,41.66,100887.5,1.1527781
588603702,588586130,3997730,36.50893,41.66,100887.25,1.1527753
588663851,588641265,3997730,36.427017,41.66,100888.24,1.1527866
588713981,588693899,3997730,37.053246,41.66,100880.75,1.152701
588764100,588746527,3997730,36.48779,41.67,100887.5,1.1527781
588824249,588801663,3997730,36.696533,41.67,100884.99,1.1527495
588874374,588854296,3997730,36.530067,41.67,100887.0,1.1527724
588924541,588906958,3997730,37.88822,41.67,100870.75,1.1525867
588984706,588962101,3997730,36.844505,41.67,100883.25,1.1527296
589034821,589014745,3997730,37.531506,41.67,100874.99,1.1526352
589084945,589067366,3997730,36.92642,41.68,100882.25,1.1527182
589145095,589122497,3997730,37.679478,41.68,100873.25,1.1526153
589195194,589175119,3997730,37.071743,41.68,100880.5,1.1526982
589245342,589227744,3997730,37.42846,41.68,100876.25,1.1526496
589305533,589282941,3997730,36.905277,41.69,100882.49,1.1527209
589355655,589335573,3997730,37.470734,41.69,100875.75,1.1526439
589405772,589388199,3997730,37.65834,41.69,100873.5,1.1526182
589465906,589443325,3997730,37.053246,41.69,100880.75,1.152701
589516023,589495945,3997730,37.845943,41.7,100871.25,1.1525924
589566135,589548564,3997730,37.88822,41.7,100870.74,1.1525866
589626299,589603696,3997730,37.280487,41.7,100878.0,1.1523004
589676413,589656338,3997730,37.616062,41.7,100873.99,1.1522546
589726558,589708986,3997730,36.968693,41.7,100881.75,1.1527125
589786691,589764111,3997730,38.178875,41.71,100867.26,1.1525469
589836818,589816735,3997730,38.054688,41.71,100868.75,1.1525639
589886933,589869362,3997730,37.88822,41.71,100870.74,1.1525866
589947065,589924485,3997730,37.616062,41.719997,100874.0,1.1526239
589997186,589977102,3997730,37.90936,41.71,100870.49,1.1525838
590047299,590029732,3997730,38.13924,41.719997,100867.75,1.1525525
590107436,590084853,3997730,38.783966,41.719997,100860.0,1.1524639
590157583,590137482,3997730,38.096962,41.719997,100868.25,1.1525582
590207744,590190159,3997730,37.845943,41.719997,100871.25,1.1525924
590267875,590245296,3997730,38.326847,41.719997,100865.5,1.1525267
590317989,590297914,3997730,38.429897,41.73,100864.25,1.1525124
590368102,590350531,3997730,38.326847,41.73,100865.5,1.1525267
590428230,590405651,3997730,37.97013,41.73,100869.75,1.1525754
590478336,590458263,3997730,38.096962,41.73,100868.25,1.1525582
590528445,590510877,3997730,39.26487,41.73,100854.25,1.1523982
590588571,590565993,3997730,38.577866,41.739998,100862.49,1.1524924
590638681,590618607,3997730,38.599003,41.739998,100862.25,1.1524897
590688796,590671224,3997730,38.36912,41.739998,100865.0,1.152521
590748965,590726375,3997730,38.49331,41.739998,100863.5,1.152504
590799082,590779006,3997730,38.4114,41.739998,100864.49,1.1525153
590849198,590831625,3997730,38.47217,41.75,100863.74,1.1525066
590909332,590886751,3997730,38.34534,41.75,100865.25,1.1521547
590959599,590939427,3997730,38.63864,41.75,100861.75,1.1521147
591009723,590992119,3997730,39.349422,41.75,100853.25,1.1523868
591069847,591047259,3997730,38.63864,41.75,100861.75,1.1524839
591119977,591099882,3997730,38.72319,41.75,100860.75,1.1524725
591170109,591152521,3997730,38.95307,41.76,100857.99,1.152441
591230228,591207646,3997730,38.76547,41.76,100860.25,1.1524668
591280365,591260276,3997730,38.931934,41.76,100858.25,1.1524439
591330515,591312916,3997730,39.558167,41.76,100850.74,1.1523582
591390642,591368064,3997730,39.328285,41.77,100853.5,1.1523896
591440825,591420696,3997730,39.3917,41.77,100852.75,1.1523811
591490998,591473329,3997730,39.476254,41.77,100851.75,1.1523697
591551032,591528453,3997730,38.99535,41.77,100857.49,1.1520661
591601154,591581074,3997730,39.22523,41.77,100854.74,1.1520346
591651279,591633704,3997730,39.22523,41.77,100854.75,1.152404
591711462,591688850,3997730,39.349422,41.77,100853.25,1.1523868
591761575,591741498,3997730,39.642723,41.78,100849.75,1.1523467
591811682,591794112,3997730,39.28865,41.78,100853.99,1.1523952
591871826,591849240,3997730,39.140682,41.78,100855.75,1.1524154
591921950,591901870,3997730,39.558167,41.78,100850.75,1.1523582
591972078,591954502,3997730,39.621582,41.78,100850.0,1.1523497
592032264,592009655,3997730,39.53703,41.79,100851.0,1.152361
592082380,592062301,3997730,39.80919,41.79,100847.75,1.152324
592132490,592114921,3997730,39.642723,41.79,100849.75,1.1519777
592192622,592170040,3997730,39.851463,41.79,100847.25,1.151949
592242755,592222671,3997730,39.936016,41.79,100846.25,1.1523068
592292872,592275298,3997730,40.435417,41.79,100840.25,1.1522382
592353021,592330434,3997730,40.29009,41.8,100842.0,1.1518891
592403148,592383067,3997730,40.165897,41.8,100843.49,1.1519061
592453270,592435698,3997730,40.74985,41.8,100836.5,1.1521953
592513420,592490834,3997730,40.62566,41.8,100837.99,1.1522124
592563557,592543477,3997730,40.29009,41.809998,100842.0,1.1522583
592613677,592596099,3997730,40.163258,41.8,100843.5,1.1522754
592673837,592651259,3997730,40.102486,41.809998,100844.25,1.152284
592723943,592703872,3997730,40.435417,41.809998,100840.25,1.1522382
592774069,592756494,3997730,40.31123,41.809998,100841.75,1.1522554
592834226,592811634,3997730,40.24781,41.809998,100842.5,1.152264
592884341,592864263,3997730,40.456554,41.809998,100840.0,1.1522354
592934478,592916894,3997730,40.834408,41.82,100835.5,1.152184
592994615,592972031,3997730,41.04315,41.809998,100832.99,1.1521554
593044739,593024660,3997730,40.876686,41.82,100834.99,1.1518091
593094865,593077290,3997730,40.62566,41.82,100837.99,1.1518433
593155025,593132428,3997730,40.646805,41.82,100837.74,1.1522096
593205144,593185072,3997730,41.1462,41.82,100831.75,1.1521411
593255263,593237690,3997730,41.460636,41.82,100828.0,1.1517292
593315413,593292826,3997730,41.188477,41.82,100831.25,1.1517663
593365547,593345475,3997730,41.1462,41.82,100831.75,1.1521411
593415706,593398100,3997730,40.81327,41.829998,100835.75,1.1521868
593475837,593453257,3997730,41.106567,41.829998,100832.25,1.1517777
593525946,593505872,3997730,41.251892,41.829998,100830.49,1.1517576
593576066,593558497,3997730,41.6271,41.829998,100825.99,1.1517063
593636226,593613625,3997730,40.979736,41.829998,100833.75,1.152164
593686336,593666256,3997730,41.291527,41.829998,100830.01,1.1521212
593736461,593718889,3997730,42.255974,41.84,100818.49,1.1519897
593796608,593774022,3997730,41.89926,41.84,100822.75,1.1516693
593846732,593826653,3997730,41.418358,41.84,100828.5,1.151735
593896858,593879284,3997730,41.312664,41.84,100829.75,1.1517493
593957006,593934421,3997730,41.753933,41.85,100824.5,1.1520582
594007132,593987053,3997730,41.71166,41.85,100825.0,1.152064
594057256,594039683,3997730,42.108006,41.85,100820.25,1.1516407
594117410,594094821,3997730,41.89926,41.85,100822.75,1.1516693
594167529,594147451,3997730,41.835846,41.85,100823.5,1.1520468
594217656,594200083,3997730,41.793568,41.85,100824.0,1.1520525
594277815,594255234,3997730,42.337887,41.85,100817.49,1.1519783
594327927,594307851,3997730,42.234837,41.86,100818.74,1.1519924
594378057,594360480,3997730,41.878124,41.86,100823.0,1.151672
594438235,594415625,3997730,42.255974,41.86,100818.49,1.1516206
594488359,594468281,3997730,42.42244,41.86,100816.5,1.1519668
594538485,594520908,3997730,42.610046,41.86,100814.24,1.1519411
594598618,594576037,3997730,42.380165,41.86,100817.0,1.1516035
594648735,594628654,3997730,42.2137,41.87,100818.99,1.1516263
594698918,594681312,3997730,42.670822,41.86,100813.5,1.1519326
594759051,594736471,3997730,42.06837,41.87,100820.74,1.1520153
594809177,594789092,3997730,42.65232,41.87,100813.74,1.1519355
594859293,594841725,3997730,42.734234,41.87,100812.75,1.151924
594919418,594896840,3997730,42.504353,41.87,100815.5,1.1519554
594969525,594949452,3997730,42.6946,41.87,100813.24,1.1515605
595019632,595002064,3997730,43.257412,41.87,100806.5,1.1514837
595079787,595057211,3997730,42.25333,41.879997,100818.5,1.1519898
595129893,595109820,3997730,42.6946,41.879997,100813.24,1.1519296
595179999,595162431,3997730,43.090946,41.879997,100808.5,1.1515064
595240126,595217549,3997730,42.776512,41.879997,100812.24,1.1515491
595290268,595270187,3997730,42.776512,41.89,100812.24,1.1515491
595340375,595322807,3997730,43.02753,41.879997,100809.25,1.151515
595400513,595377930,3997730,43.048668,41.89,100809.0,1.1515121
595450710,595430550,3997730,42.903343,41.89,100810.74,1.151532
595500846,595483246,3997730,43.29969,41.89,100806.0,1.1518469
595560992,595538392,3997730,42.631184,41.89,100813.99,1.1519382
595611167,595591067,3997730,43.34197,41.89,100805.49,1.1514721
595661278,595643708,3997730,43.15436,41.89,100807.74,1.1514978
595721407,595698828,3997730,43.466156,41.89,100804.0,1.151455
595771573,595751479,3997730,43.653763,41.899998,100801.74,1.1514293
595821693,595804120,3997730,43.257412,41.89,100806.5,1.1514837
595881824,595859244,3997730,43.674896,41.899998,100801.5,1.1514264
595931935,595911861,3997730,43.402744,41.899998,100804.75,1.1514636
595982047,595964476,3997730,43.592987,41.899998,100802.49,1.1514379
596042220,596019639,3997730,43.57185,41.91,100802.75,1.1514407
596092328,596072256,3997730,43.592987,41.899998,100802.5,1.1518068
596142474,596124875,3997730,43.883644,41.899998,100799.0,1.1517669
596202605,596180027,3997730,43.381603,41.91,100805.0,1.1514665
596252717,596232640,3997730,43.865147,41.91,100799.24,1.1514007
596302843,596285269,3997730,43.80173,41.91,100800.0,1.1517783
596362988,596340405,3997730,44.28263,41.91,100794.25,1.1517127
596413115,596393033,3997730,43.78059,41.92,100800.24,1.1514121
596463260,596445680,3997730,43.904785,41.91,100798.76,1.1513951
596523425,596500812,3997730,44.05275,41.92,100797.0,1.151375
596573512,596553434,3997730,43.947056,41.92,100798.25,1.1513894
596623636,596606063,3997730,44.364548,41.92,100793.25,1.1513323
596683786,596661201,3997730,44.261494,41.92,100794.49,1.1513464
596733974,596713880,3997730,44.367188,41.92,100793.24,1.1513321
596784087,596766517,3997730,43.883644,41.92,100799.0,1.151398
596844223,596821642,3997730,44.470238,41.92,100792.0,1.151318
596894348,596874260,3997730,44.176937,41.93,100795.49,1.1517268
596944489,596926904,3997730,44.42796,41.92,100792.5,1.1516926
597004621,596982041,3997730,44.301132,41.93,100794.0,1.1513408
597054749,597034666,3997730,44.28263,41.93,100794.25,1.1513437
597104888,597087311,3997730,44.86659,41.93,100787.25,1.1512637
597165020,597142440,3997730,44.65784,41.93,100789.75,1.1512922
597215131,597195057,3997730,44.38568,41.94,100792.99,1.1513293
597265263,597247676,3997730,44.70012,41.93,100789.25,1.1512865
597325381,597302800,3997730,44.763535,41.94,100788.5,1.151278
597375530,597355446,3997730,44.805813,41.93,100787.99,1.1512722
597425638,597408070,3997730,45.011913,41.94,100785.51,1.1512438
597485778,597463196,3997730,44.59443,41.94,100790.5,1.1513009
597535905,597515824,3997730,44.97228,41.94,100786.0,1.1516184
597586031,597568455,3997730,44.908867,41.94,100786.75,1.151627
597646200,597623599,3997730,45.410904,41.95,100780.74,1.1511893
597696307,597676235,3997730,45.45054,41.94,100780.25,1.1511837
597746429,597728854,3997730,45.495457,41.94,100779.75,1.151178
597806578,597783994,3997730,45.807255,41.95,100775.99,1.1511351
597856728,597836637,3997730,46.267017,41.95,100770.49,1.1510723
597906835,597889268,3997730,46.309296,41.95,100769.99,1.1510665
597966977,597944389,3997730,46.10055,41.95,100772.5,1.1510952
598017103,597997022,3997730,46.309296,41.95,100769.99,1.1510665
598067228,598049652,3997730,46.22474,41.95,100771.0,1.1510781
598127376,598104789,3997730,46.560314,41.96,100767.0,1.1510324
598177504,598157421,3997730,46.267017,41.96,100770.49,1.1510723
598227630,598210058,3997730,46.811337,41.96,100764.0,1.1509981
598287775,598265187,3997730,46.980442,41.96,100761.99,1.1509752
598337899,598317818,3997730,47.207684,41.96,100759.25,1.1509439
598388031,598370452,3997730,46.99894,41.96,100761.74,1.1509724
598448170,598425585,3997730,47.207684,41.969997,100759.25,1.1509439
598498299,598478217,3997730,47.37679,41.969997,100757.25,1.150921
598548462,598530858,3997730,47.688583,41.96,100753.5,1.1508782
598608611,598586027,3997730,47.60667,41.969997,100754.5,1.1508896
598658723,598638648,3997730,48.08757,41.969997,100748.75,1.150824
598708833,598691264,3997730,48.15099,41.969997,100748.0,1.1508154
598769020,598746429,3997730,48.10871,41.969997,100748.5,1.1508211
598819135,598799060,3997730,48.734943,41.969997,100741.0,1.1507354
598869250,598851679,3997730,48.25404,41.969997,100746.75,1.1508011
598929381,598906802,3997730,48.671528,41.969997,100741.74,1.1507438
598979506,598959424,3997730,48.840633,41.98,100739.75,1.1507211
599029732,599012091,3997730,49.007103,41.98,100737.76,1.1506983
599089879,599067300,3997730,49.215847,41.98,100735.25,1.1506697
599140007,599119919,3997730,48.77722,41.98,100740.49,1.1507295
599190123,599172548,3997730,49.696747,41.98,100729.49,1.150604
599250267,599227681,3997730,49.717888,41.98,100729.26,1.1506013
599300411,599280316,3997730,49.67561,41.98,100729.75,1.1506069
599350567,599332991,3997730,49.863213,41.98,100727.5,1.1505811
599410730,599388134,3997730,50.135372,41.989998,100724.25,1.150544
599460837,599440764,3997730,49.696747,41.989998,100729.5,1.1506041
599510945,599493376,3997730,50.49208,41.989998,100719.99,1.1504954
599571070,599548492,3997730,50.21993,41.989998,100723.25,1.1509013
599621296,599601112,3997730,50.637413,41.989998,100718.25,1.1504756
599671425,599653835,3997730,50.70083,41.989998,100717.5,1.1504669
599731584,599708995,3997730,50.65855,42.0,100718.0,1.1504726
599781741,599761637,3997730,51.348198,41.989998,100709.75,1.1503783
599831842,599814265,3997730,50.99412,41.989998,100714.0,1.150427
599891979,599869390,3997730,51.369335,42.0,100709.5,1.1503756
599942082,599922008,3997730,51.747185,42.0,100705.0,1.1503241
599992209,599974627,3997730,51.85024,42.0,100703.75,1.1503099
600052343,600029763,3997730,51.475025,42.0,100708.24,1.1503612
600102464,600082382,3997730,52.31264,42.0,100698.24,1.150247
600152582,600135009,3997730,51.829098,42.0,100704.0,1.1503128
600212728,600190137,3997730,51.8106,42.01,100704.25,1.1503156
600262873,600242788,3997730,52.66671,42.0,100693.99,1.1501985
600312989,600295417,3997730,52.373417,42.01,100697.5,1.1502385
600373123,600350542,3997730,53.065704,42.0,100689.24,1.1505128
600423236,600403160,3997730,52.917736,42.01,100691.0,1.1505328
600473348,600455778,3997730,52.875458,42.0,100691.5,1.15017
600533507,600510914,3997730,53.504326,42.01,100684.0,1.1504529
600583617,600563543,3997730,53.16875,42.01,100687.99,1.1504985
600633740,600616164,3997730,53.73421,42.01,100681.25,1.1500529
600693870,600671291,3997730,53.818764,42.01,100680.25,1.1500415
600743985,600723911,3997730,53.71307,42.01,100681.5,1.1500558
600794101,600776528,3997730,54.027508,42.02,100677.75,1.1500129
600854238,600831650,3997730,54.21511,42.02,100675.5,1.1499872
600904348,600884272,3997730,54.550686,42.02,100671.5,1.1499416
600954470,600936891,3997730,54.48727,42.02,100672.25,1.14995
601014646,600992063,3997730,54.402714,42.02,100673.25,1.1499616
601064795,601044722,3997730,55.073868,42.02,100665.25,1.1502386
601114903,601097335,3997730,54.569183,42.02,100671.25,1.1503072
601175045,601152452,3997730,55.176914,42.03,100664.0,1.1502243
601225162,601205085,3997730,55.282608,42.03,100662.75,1.15021
601275276,601257704,3997730,55.491352,42.02,100660.25,1.1501815
601335463,601312845,3997730,55.826927,42.03,100656.25,1.1501358
601385589,601365506,3997730,55.597046,42.02,100659.0,1.1497988
601435697,601418129,3997730,56.180996,42.03,100652.0,1.1497188
601495826,601473248,3997730,56.35011,42.03,100650.0,1.1500643
601545957,601525866,3997730,55.84807,42.03,100656.0,1.1497645
601596068,601578497,3997730,56.474297,42.03,100648.5,1.1496788
601656199,601633620,3997730,56.640762,42.03,100646.5,1.1500243
601706314,601686238,3997730,56.622265,42.03,100646.75,1.1500273
601756434,601738863,3997730,56.894424,42.04,100643.49,1.1496216
601816564,601793985,3997730,56.894424,42.04,100643.49,1.1496216
601866681,601846600,3997730,56.85215,42.03,100643.99,1.1499957
601916802,601899227,3997730,57.502155,42.04,100636.24,1.1499072
601976949,601954363,3997730,57.668625,42.04,100634.25,1.1498843
602027074,602006995,3997730,57.813953,42.04,100632.49,1.1498643
602077201,602059626,3997730,57.7109,42.04,100633.75,1.1495103
602137349,602114765,3997730,57.85623,42.05,100632.0,1.1494902
602187477,602167394,3997730,57.813953,42.05,100632.49,1.149496
602237597,602220025,3997730,58.25258,42.05,100627.25,1.149436
602297758,602275164,3997730,58.796894,42.05,100620.75,1.1497301
602347873,602327799,3997730,58.086113,42.05,100629.25,1.1498274
602397997,602380422,3997730,58.75726,42.05,100621.25,1.1493676
602458172,602435575,3997730,58.841812,42.05,100620.24,1.1497244
602508281,602488207,3997730,59.111332,42.05,100617.0,1.1496873
602558394,602540822,3997730,58.92373,42.05,100619.24,1.1497129
602618603,602596015,3997730,59.15361,42.05,100616.5,1.1496816
602668764,602648658,3997730,59.80362,42.05,100608.75,1.149593
602718900,602701305,3997730,59.552597,42.059998,100611.75,1.1496273
602779037,602756453,3997730,59.446903,42.059998,100612.99,1.1496415
602829155,602809076,3997730,60.157692,42.059998,100604.5,1.1495445
602879273,602861698,3997730,59.970085,42.059998,100606.74,1.1495701
602939413,602916828,3997730,59.948944,42.059998,100607.0,1.149573
602989558,602969479,3997730,59.991222,42.059998,100606.5,1.1495674
603039687,603022103,3997730,60.598957,42.059998,100599.24,1.1494844
603099827,603077242,3997730,60.57782,42.059998,100599.49,1.1494873
603149949,603129867,3997730,60.662373,42.059998,100598.5,1.1494759
603200066,603182494,3997730,60.662373,42.059998,100598.5,1.1494759
603260253,603237645,3997730,60.723145,42.059998,100597.75,1.1494673
603310372,603290292,3997730,61.22783,42.07,100591.75,1.1493988
603360537,603342951,3997730,61.45771,42.059998,100588.99,1.1493673
603420677,603398091,3997730,61.645317,42.07,100586.74,1.1493416
603470819,603450717,3997730,61.539623,42.07,100588.0,1.149356
603520948,603503379,3997730,62.002026,42.07,100582.5,1.1492931
603581077,603558497,3997730,61.666454,42.07,100586.5,1.1493387
603631192,603611115,3997730,61.95975,42.07,100582.99,1.1492987
603681313,603663738,3997730,62.900417,42.07,100571.75,1.1491703
603741464,603718872,3997730,62.797367,42.07,100573.0,1.1491846
603791583,603771504,3997730,63.15408,42.079998,100568.75,1.149136
603841732,603824143,3997730,62.461792,42.079998,100577.0,1.1492302
603901899,603879320,3997730,62.776226,42.079998,100573.25,1.1491874
603952006,603931933,3997730,62.691677,42.079998,100574.25,1.1491988
604002114,603984546,3997730,63.1118,42.079998,100569.24,1.1491417
604062241,604039662,3997730,63.571564,42.079998,100563.74,1.1490787
604112348,604092275,3997730,63.341682,42.079998,100566.5,1.1491103
604162584,604144925,3997730,63.571564,42.079998,100563.74,1.1490787
604222758,604200157,3997730,64.07625,42.079998,100557.74,1.1490102
604272869,604252794,3997730,64.366905,42.09,100554.25,1.1489704
604322978,604305409,3997730,64.05511,42.09,100557.99,1.149013
604383135,604360549,3997730,64.49374,42.079998,100552.75,1.1489531
604433245,604413172,3997730,64.78703,42.09,100549.25,1.1489131
604483353,604465786,3997730,64.366905,42.09,100554.25,1.1489704
604543481,604520903,3997730,64.78703,42.09,100549.24,1.148913
604593592,604573517,3997730,65.016914,42.1,100546.5,1.1488818
604643709,604626135,3997730,64.911224,42.09,100547.75,1.1488961
604703849,604681267,3997730,65.47668,42.09,100540.99,1.1488187
604753959,604733885,3997730,65.18603,42.09,100544.49,1.1488588
604804072,604786502,3997730,65.39477,42.09,100542.0,1.1488303
604864206,604841623,3997730,65.43704,42.1,100541.5,1.1488246
604914317,604894243,3997730,65.98136,42.1,100535.0,1.1487503
604964429,604946859,3997730,65.74884,42.1,100537.75,1.1487818
605024573,605001992,3997730,66.16897,42.1,100532.75,1.1487247
605074686,605054610,3997730,66.67365,42.1,100526.74,1.148656
605124797,605107228,3997730,66.64987,42.1,100526.99,1.1486588
605184931,605162348,3997730,66.546814,42.1,100528.25,1.1486732
605235055,605214978,3997730,66.60759,42.1,100527.5,1.1486646
605285194,605267606,3997730,67.42671,42.1,100517.75,1.1485533
605345330,605322749,3997730,67.57204,42.11,100515.99,1.1485331
605395485,605375390,3997730,67.133415,42.1,100521.25,1.1485932
605445595,605428026,3997730,67.342155,42.11,100518.75,1.1485647
605505725,605483145,3997730,67.15455,42.11,100521.0,1.1485904
605555853,605535771,3997730,68.15863,42.11,100509.0,1.1484532
605605976,605588403,3997730,68.37002,42.11,100506.49,1.1484246
605666140,605643539,3997730,68.17977,42.11,100508.75,1.1484504
605716250,605696169,3997730,67.992165,42.11,100511.0,1.1484761
605766375,605748802,3997730,68.348885,42.11,100506.75,1.1484275
605826524,605803944,3997730,68.787506,42.12,100501.5,1.1483675
605876648,605856570,3997730,68.872055,42.12,100500.49,1.1483561
605926774,605909201,3997730,68.80865,42.11,100501.25,1.1483647
605986926,605964338,3997730,68.72409,42.11,100502.25,1.1483762
606037056,606016971,3997730,69.16535,42.12,100497.0,1.1483161
606087172,606069600,3997730,69.52207,42.12,100492.75,1.1482675
606147323,606124737,3997730,69.52207,42.12,100492.75,1.1482675
606197449,606177368,3997730,69.77309,42.12,100489.75,1.1482333
606247629,606230046,3997730,69.981834,42.12,100487.24,1.1482047
606307810,606285225,3997730,69.89728,42.12,100488.24,1.1482161
606357927,606337850,3997730,70.12716,42.12,100485.5,1.1481848
606408055,606390472,3997730,70.211716,42.12,100484.5,1.1485416
606468192,606445609,3997730,70.52615,42.12,100480.75,1.1484987
606518309,606498230,3997730,70.58957,42.12,100479.99,1.1481218
606568422,606550851,3997730,70.46274,42.12,100481.5,1.148139
606628570,606605983,3997730,71.13389,42.12,100473.5,1.1484157
606678683,606658608,3997730,70.84059,42.129997,100476.99,1.1484557
606728792,606711224,3997730,71.49059,42.129997,100469.25,1.147999
606788975,606766373,3997730,71.36641,42.129997,100470.74,1.1480161
606839089,606819014,3997730,71.30299,42.129997,100471.5,1.1483929
606889200,606871630,3997730,72.204025,42.129997,100460.75,1.14827
606949327,606926750,3997730,71.638565,42.129997,100467.5,1.1483471
606999463,606979369,3997730,71.84731,42.129997,100465.0,1.1483186
607049572,607032004,3997730,72.22517,42.129997,100460.5,1.1482671
607109717,607087131,3997730,72.26479,42.129997,100460.0,1.1482614
607159849,607139766,3997730,71.9715,42.129997,100463.5,1.1483015
607209965,607192392,3997730,72.51846,42.129997,100457.0,1.1482272
607270116,607247529,3997730,72.539604,42.129997,100456.74,1.1482242
607320256,607300168,3997730,72.412766,42.14,100458.25,1.1482415
607370369,607352798,3997730,73.41949,42.129997,100446.25,1.1481043
607430514,607407928,3997730,73.23189,42.129997,100448.5,1.14813
607480639,607460560,3997730,73.543686,42.129997,100444.74,1.148087
607530776,607513192,3997730,73.60709,42.14,100444.0,1.1480786
607590914,607568327,3997730,73.90039,42.14,100440.5,1.1480386
607641039,607620959,3997730,74.34166,42.14,100435.25,1.1479787
607691163,607673591,3997730,74.21483,42.14,100436.76,1.1479958
607751312,607728731,3997730,74.23597,42.14,100436.5,1.1479928
607801487,607781382,3997730,74.3628,42.14,100435.0,1.1479757
607851599,607834029,3997730,74.55041,42.14,100432.75,1.1479499
607911772,607889166,3997730,74.80142,42.14,100429.75,1.1479157
607961887,607941810,3997730,74.34166,42.14,100435.25,1.1479787
608011999,607994429,3997730,75.1185,42.14,100426.0,1.1478728
608072131,608049551,3997730,74.90711,42.149998,100428.5,1.1479014
608122243,608102170,3997730,75.09737,42.14,100426.24,1.1478755
608172362,608154787,3997730,75.5994,42.14,100420.24,1.147807
608232554,608209955,3997730,75.49371,42.149998,100421.5,1.1478214
608282691,608262590,3997730,75.32725,42.149998,100423.5,1.1478442
608332804,608315233,3997730,76.27055,42.149998,100412.24,1.1477156
608392930,608370351,3997730,76.08295,42.149998,100414.5,1.1477413
608443036,608422963,3997730,76.54271,42.149998,100409.0,1.1476786
608493147,608475577,3997730,76.20714,42.149998,100412.99,1.1477242
608553274,608530695,3997730,76.68804,42.149998,100407.25,1.1476586
608603392,608583319,3997730,76.730316,42.149998,100406.75,1.1476529
608653548,608635977,3997730,76.7541,42.149998,100406.49,1.1476499
608713675,608691097,3997730,76.79373,42.149998,100406.0,1.1476442
608763781,608743709,3997730,77.34069,42.149998,100399.5,1.1475699
608813889,608796320,3997730,76.89943,42.16,100404.75,1.1476299
608874023,608851441,3997730,77.42261,42.149998,100398.5,1.1475585
608924141,608904063,3997730,77.67626,42.149998,100395.49,1.1475241
608974253,608956681,3997730,77.77932,42.149998,100394.24,1.1475098
609034386,609011800,3997730,78.05148,42.16,100391.0,1.1474727
609084681,609064527,3997730,78.11489,42.149998,100390.24,1.1474642
609134783,609117205,3997730,78.19945,42.149998,100389.24,1.1474526
609194906,609172327,3997730,79.01857,42.16,100379.5,1.1473414
609245040,609224957,3997730,78.387054,42.16,100387.0,1.1474271
609295161,609277586,3997730,78.78604,42.16,100382.25,1.1473727
609355310,609332721,3997730,79.52061,42.16,100373.5,1.1472728
609405476,609385360,3997730,78.74377,42.16,100382.75,1.1473784
609455592,609438019,3997730,79.12161,42.16,100378.25,1.147695
609515761,609493151,3997730,79.457184,42.16,100374.25,1.1476492
609565873,609545797,3997730,79.10048,42.16,100378.5,1.1476978
609615991,609598419,3997730,79.54174,42.16,100373.24,1.1476377
609676121,609653542,3997730,80.00416,42.16,100367.74,1.1475749
609726231,609706157,3997730,79.70821,42.17,100371.25,1.147615
609776364,609758784,3997730,79.60516,42.16,100372.5,1.1476293
609836506,609813920,3997730,80.23404,42.17,100365.0,1.1475435
609886628,609866549,3997730,80.1072,42.16,100366.5,1.1475606
609936753,609919180,3997730,79.98301,42.17,100367.99,1.1475776
609996904,609974319,3997730,80.59075,42.17,100360.74,1.1474948
610047034,610026949,3997730,80.79949,42.17,100358.24,1.1474662
610097153,610079581,3997730,80.52733,42.17,100361.5,1.1475034
610157329,610134734,3997730,81.050514,42.17,100355.25,1.147432
610207426,610187350,3997730,81.01088,42.17,100355.75,1.1474377
610257551,610239977,3997730,81.21962,42.17,100353.25,1.1474092
610317701,610295116,3997730,81.76393,42.17,100346.75,1.1473348
610367830,610347753,3997730,82.14179,42.17,100342.25,1.1472833
610417952,610400379,3997730,81.70316,42.17,100347.5,1.1473434
610478131,610455541,3997730,82.43509,42.17,100338.75,1.1472434
610528254,610508167,3997730,82.059875,42.17,100343.24,1.1472946
610578353,610560781,3997730,82.28976,42.17,100340.5,1.1472633
610638527,610615939,3997730,82.64382,42.17,100336.26,1.1472148
610688636,610668563,3997730,82.91863,42.17,100333.0,1.1471776
610738809,610721235,3997730,82.604195,42.17,100336.74,1.1472204
610799032,610776419,3997730,83.0666,42.18,100331.24,1.1471575
610849156,610829074,3997730,83.39953,42.18,100327.25,1.1471119
610899273,610881700,3997730,83.52636,42.17,100325.75,1.1470947
610959430,610936828,3997730,83.81966,42.17,100322.25,1.1470547
611009540,610989459,3997730,84.21865,42.18,100317.49,1.1470002
611059657,611042084,3997730,83.98877,42.17,100320.24,1.1470317
611119828,611097245,3997730,84.408905,42.18,100315.25,1.1469746
611169953,611149871,3997730,84.53573,42.18,100313.74,1.1469574
611220073,611202500,3997730,84.57536,42.18,100313.25,1.1469518
611280211,611257628,3997730,84.72333,42.18,100311.49,1.1469318
611330331,611310252,3997730,85.037766,42.18,100307.74,1.1468889
611380491,611362896,3997730,84.38776,42.18,100315.5,1.1469775
611440641,611418053,3997730,84.932076,42.18,100309.0,1.1469032
611490757,611470679,3997730,85.22802,42.18,100305.49,1.1468631
611540874,611523301,3997730,85.22802,42.18,100305.49,1.1468631
611601015,611578430,3997730,85.66664,42.18,100300.25,1.1468031
611651135,611631055,3997730,85.33107,42.18,100304.25,1.1468489
611701253,611683679,3997730,85.89916,42.18,100297.5,1.1467718
611761392,611738809,3997730,85.835754,42.19,100298.25,1.1467803
611811535,611791450,3997730,86.19247,42.19,100293.99,1.1467316
611861659,611844087,3997730,86.67336,42.19,100288.25,1.1466659
611921794,611899215,3997730,86.44348,42.18,100291.0,1.1466974
611971903,611951830,3997730,86.69714,42.19,100288.0,1.1466631
612022026,612004444,3997730,87.0935,42.19,100283.25,1.1466087
612082155,612059577,3997730,86.76056,42.19,100287.24,1.1466545
612132272,612112196,3997730,87.2626,42.19,100281.25,1.146586
612182403,612164816,3997730,86.75792,42.19,100287.25,1.1466545
612242539,612219949,3997730,87.513626,42.19,100278.25,1.1465515
612292652,612272577,3997730,87.32602,42.19,100280.5,1.1465772
612342761,612325193,3997730,87.619316,42.19,100276.99,1.1465372
612402941,612380333,3997730,87.954895,42.19,100273.0,1.1464915
612453054,612432978,3997730,87.74615,42.19,100275.5,1.1465201
612503167,612485597,3997730,88.060585,42.19,100271.75,1.1464773
612563296,612540718,3997730,88.12399,42.19,100271.0,1.1464686
612613412,612593335,3997730,88.58641,42.19,100265.5,1.1464058
612663536,612645963,3997730,88.75287,42.19,100263.5,1.1463829
612723688,612701101,3997730,89.04617,42.19,100260.0,1.1463429
612773843,612753740,3997730,88.710594,42.19,100264.0,1.1463886
612824025,612806437,3997730,89.29983,42.19,100256.99,1.1463085
612884162,612861582,3997730,89.13073,42.2,100259.0,1.1463314
612934277,612914200,3997730,89.55085,42.2,100254.0,1.1462743
612984384,612966816,3997730,89.173004,42.19,100258.5,1.1463257
613044523,613021943,3997730,89.29983,42.19,100256.99,1.1463085
613094629,613074557,3997730,90.158585,42.2,100246.75,1.1461914
613144736,613127168,3997730,89.88642,42.2,100249.99,1.1462284
613204860,613182284,3997730,90.24314,42.2,100245.74,1.1461799
613254965,613234894,3997730,90.20086,42.2,100246.25,1.1461858
613305074,613287505,3997730,90.64213,42.2,100241.0,1.1461257
613365225,613342629,3997730,90.285416,42.2,100245.25,1.1461743
613415335,613395260,3997730,90.59985,42.2,100241.5,1.1461314
613465603,613447926,3997730,91.271,42.2,100233.5,1.14604
613525786,613503171,3997730,90.91693,42.2,100237.74,1.1460885
613575894,613555820,3997730,91.29478,42.2,100233.24,1.146037
613626000,613608432,3997730,91.167946,42.2,100234.74,1.1464219
613686149,613663553,3997730,91.44012,42.2,100231.51,1.146385
613736258,613716178,3997730,91.81796,42.2,100226.99,1.1459655
613786427,613768850,3997730,91.712265,42.2,100228.25,1.1459799
613846570,613823987,3997730,91.58808,42.2,100229.75,1.1463648
613896699,613876609,3997730,91.965935,42.2,100225.25,1.1463133
613946805,613929230,3997730,92.84847,42.2,100214.75,1.1458255
614006939,613984358,3997730,92.57366,42.2,100218.0,1.1458627
614057056,614036979,3997730,92.25923,42.2,100221.75,1.1462733
614107231,614089630,3997730,92.5948,42.2,100217.75,1.1462275
614167371,614144786,3997730,93.20518,42.2,100210.5,1.1461446
614217537,614197444,3997730,92.827324,42.21,100215.0,1.146196
614267653,614250081,3997730,93.43506,42.21,100207.75,1.1461132
614327795,614305211,3997730,93.35051,42.21,100208.75,1.1461246
614377913,614357834,3997730,93.47733,42.21,100207.25,1.1461074
614428035,614410460,3997730,93.87633,42.21,100202.5,1.1460531
614488186,614465597,3997730,94.35987,42.21,100196.75,1.1459873
614538322,614518227,3997730,93.4562,42.21,100207.5,1.1461103
614588424,614570851,3997730,94.3176,42.21,100197.25,1.1459931
614648580,614625996,3997730,94.61089,42.21,100193.75,1.145953
614698733,614678638,3997730,94.46556,42.21,100195.49,1.145973
614748898,614731290,3997730,94.78,42.21,100191.75,1.1459302
614809037,614786453,3997730,94.92533,42.21,100190.0,1.1459101
614859154,614839076,3997730,94.92533,42.21,100190.0,1.1459101
614909270,614891698,3997730,94.94647,42.21,100189.75,1.1459073
614969408,614946825,3997730,95.55684,42.21,100182.5,1.1458243
615019559,614999482,3997730,95.22127,42.21,100186.49,1.1458701
615069681,615052106,3997730,95.80787,42.21,100179.49,1.14579
615129820,615107236,3997730,95.976974,42.21,100177.5,1.1457671
615179938,615159860,3997730,95.70482,42.21,100180.75,1.1458043
615230060,615212484,3997730,95.80787,42.21,100179.49,1.14579
615290229,615267624,3997730,96.33368,42.21,100173.24,1.1457185
615340346,615320268,3997730,96.62962,42.21,100169.74,1.1456784
615390480,615372900,3997730,96.418236,42.21,100172.25,1.1457071
615450622,615428036,3997730,96.983696,42.21,100165.5,1.14563
615500741,615480662,3997730,96.90179,42.219997,100166.5,1.1456413
615550861,615533286,3997730,97.65749,42.21,100157.49,1.1455383
615610998,615588415,3997730,97.42761,42.219997,100160.24,1.1455698
615661117,615641039,3997730,96.859505,42.219997,100167.0,1.145647
615711236,615693662,3997730,97.57294,42.21,100158.5,1.1455499
615771389,615748792,3997730,97.86623,42.219997,100155.01,1.1455098
615821510,615801431,3997730,97.61521,42.219997,100157.99,1.145544
615871670,615854067,3997730,98.289,42.219997,100150.0,1.1454526
615931818,615909232,3997730,98.34978,42.219997,100149.25,1.145444
615981945,615961862,3997730,98.45547,42.219997,100148.0,1.1454297
616032071,616014493,3997730,98.73028,42.219997,100144.75,1.1453925
616092208,616069626,3997730,98.5823,42.219997,100146.5,1.1454126
616142341,616122249,3997730,99.002426,42.219997,100141.5,1.1453555
616192484,616174893,3997730,99.02357,42.219997,100141.25,1.1453526
616252610,616230031,3997730,99.10812,42.219997,100140.25,1.1453412
616302717,616282644,3997730,99.56789,42.219997,100134.75,1.1452782
616352839,616335267,3997730,99.67358,42.219997,100133.5,1.1452639
616412968,616390388,3997730,99.86382,42.219997,100131.25,1.1452383
616463080,616443005,3997730,99.884964,42.219997,100131.0,1.1452353
616513194,616495623,3997730,99.80041,42.219997,100131.99,1.1452466
616573328,616550750,3997730,99.86382,42.219997,100131.25,1.1452383
616623462,616603371,3997730,100.558754,42.219997,100123.0,1.1451439
616673574,616656004,3997730,100.57725,42.219997,100122.75,1.1455084
616733721,616711129,3997730,100.34737,42.219997,100125.5,1.1455399
616783836,616763759,3997730,100.894325,42.219997,100118.99,1.1454655
616833951,616816381,3997730,100.74636,42.219997,100120.74,1.1454854
616894080,616871502,3997730,100.87319,42.219997,100119.25,1.145101
616944192,616924117,3997730,101.335594,42.23,100113.74,1.1450379
616994319,616976745,3997730,101.229904,42.23,100115.0,1.1450523
617054508,617031903,3997730,101.62889,42.219997,100110.25,1.1449981
617104633,617084548,3997730,101.54698,42.219997,100111.24,1.1453768
617154772,617137195,3997730,101.77686,42.219997,100108.5,1.1453453
617214946,617192335,3997730,102.00675,42.219997,100105.75,1.1453139
617265054,617244981,3997730,101.96447,42.23,100106.25,1.1453196
617315196,617297619,3997730,102.51407,42.219997,100099.74,1.1452452
617375329,617352745,3997730,102.44802,42.219997,100100.5,1.1452539
617425486,617405389,3997730,102.53256,42.23,100099.5,1.1452425
617475594,617458027,3997730,102.68054,42.23,100097.75,1.1452224
617535725,617513145,3997730,102.72282,42.23,100097.25,1.1452167
617585834,617565760,3997730,103.4151,42.219997,100089.0,1.1451223
617635940,617618372,3997730,103.01611,42.23,100093.75,1.1451766
617696069,617673490,3997730,103.39396,42.23,100089.25,1.1451252
617746176,617726103,3997730,102.99498,42.23,100094.0,1.1451795
617796286,617778716,3997730,103.77446,42.23,100084.75,1.1450737
617856462,617833847,3997730,103.4151,42.23,100089.0,1.1451223
617906570,617886497,3997730,104.487885,42.219997,100076.25,1.1449764
617956778,617939111,3997730,104.46674,42.23,100076.5,1.1449792
618016948,617994355,3997730,104.21573,42.23,100079.5,1.1450136
618067091,618046988,3997730,104.11003,42.23,100080.75,1.1450279
618117185,618099616,3997730,104.63586,42.23,100074.5,1.1449565
618177308,618154729,3997730,104.61472,42.23,100074.75,1.1449592
618227430,618207339,3997730,104.67813,42.23,100074.0,1.1449506
618277559,618259987,3997730,104.63586,42.23,100074.5,1.1449565
618337680,618315098,3997730,104.509026,42.23,100076.0,1.1449736
618387790,618367711,3997730,105.24358,42.23,100067.25,1.1448734
618437923,618420340,3997730,105.53953,42.23,100063.75,1.1448334
618498091,618475509,3997730,105.79054,42.23,100060.76,1.1447991
618548261,618528150,3997730,105.76941,42.23,100061.0,1.144802
618598371,618580793,3997730,106.04421,42.23,100057.75,1.1447648
618658545,618635968,3997730,105.9808,42.23,100058.5,1.1447732
618708654,618688581,3997730,106.633446,42.23,100050.75,1.1446847
618758768,618741197,3997730,105.8751,42.239998,100059.75,1.1447877
618818964,618796370,3997730,106.65459,42.23,100050.49,1.1446817
618869081,618849004,3997730,106.75764,42.23,100049.25,1.1446675
618919199,618901625,3997730,106.76028,42.23,100049.24,1.1446674
618979355,618956764,3997730,107.13813,42.23,100044.75,1.144616
619029473,619009392,3997730,107.45257,42.23,100040.99,1.144573
619079594,619062016,3997730,107.26496,42.239998,100043.25,1.1445988
619139776,619117160,3997730,107.79079,42.23,100037.0,1.1445273
619189889,619169811,3997730,107.68509,42.23,100038.24,1.1445415
619240005,619222434,3997730,107.60054,42.239998,100039.24,1.144553
619300144,619277561,3997730,107.5794,42.239998,100039.5,1.1445559
619350273,619330189,3997730,108.18978,42.239998,100032.25,1.144473
619400391,619382817,3997730,108.0418,42.239998,100034.0,1.144493
619460588,619438002,3997730,108.210915,42.239998,100032.0,1.1444702
619510771,619490653,3997730,108.39851,42.239998,100029.75,1.1444443
619560885,619543313,3997730,108.37738,42.239998,100029.99,1.1444472
619621026,619598442,3997730,108.69446,42.23,100026.25,1.1444044
619671145,619651066,3997730,108.63104,42.23,100027.0,1.1444129
619721278,619703698,3997730,109.49243,42.239998,100016.75,1.1442957
619781420,619758835,3997730,108.65218,42.239998,100026.75,1.1444101
619831556,619811479,3997730,109.57699,42.239998,100015.75,1.1442842
619881674,619864101,3997730,109.220276,42.239998,100019.99,1.1443328
619941812,619919228,3997730,109.38939,42.239998,100017.99,1.1443099
619991933,619971853,3997730,109.64041,42.239998,100015.0,1.1442757
620042052,620024478,3997730,109.32597,42.239998,100018.75,1.1443186
620102191,620079606,3997730,110.229645,42.23,100007.99,1.1441956
620152311,620132232,3997730,110.01826,42.239998,100010.5,1.1442242
620202473,620184877,3997730,110.25078,42.239998,100007.74,1.14456
620262612,620240029,3997730,109.788376,42.239998,100013.24,1.1446229
620312734,620292656,3997730,110.335335,42.239998,100006.75,1.1441813
620362852,620345279,3997730,110.459526,42.239998,100005.25,1.1441641
620422995,620400409,3997730,110.6075,42.239998,100003.5,1.144144
620473149,620453053,3997730,110.54408,42.239998,100004.25,1.1441526
620523269,620505695,3997730,110.25078,42.239998,100007.74,1.1441926
620583409,620560824,3997730,111.006485,42.239998,99998.75,1.1440897
620633528,620613449,3997730,110.96421,42.239998,99999.25,1.1444628
620683732,620666129,3997730,110.924576,42.239998,99999.75,1.1444685
620743874,620721289,3997730,111.28129,42.239998,99995.49,1.1440525
620793994,620773915,3997730,111.42925,42.239998,99993.74,1.1440324
620844117,620826543,3997730,111.04877,42.239998,99998.25,1.1444514
620904256,620881673,3997730,111.38698,42.239998,99994.25,1.1444056
620954374,620934295,3997730,111.23901,42.239998,99996.0,1.1444256
621004493,620986919,3997730,111.78597,42.239998,99989.49,1.1443511
621064672,621042093,3997730,111.553444,42.239998,99992.25,1.1443827
621114804,621094706,3997730,111.80711,42.239998,99989.24,1.1443483
621164890,621147322,3997730,111.72256,42.239998,99990.25,1.1443598
621225019,621202440,3997730,111.84939,42.239998,99988.75,1.1443427
621275126,621255053,3997730,111.9128,42.239998,99988.0,1.1443341
621325236,621307667,3997730,111.95508,42.239998,99987.5,1.1443284
621385365,621362785,3997730,111.93394,42.25,99987.75,1.1443311
621435496,621415413,3997730,111.9128,42.239998,99988.0,1.1443341
621485614,621468041,3997730,112.41748,42.239998,99982.0,1.1442654
621545755,621523170,3997730,112.33293,42.239998,99983.0,1.1442767
621595877,621575798,3997730,112.10305,42.239998,99985.74,1.1443082
621646035,621628431,3997730,112.06077,42.239998,99986.24,1.1443139
621706207,621683596,3997730,112.43863,42.239998,99981.75,1.1442626
621756356,621736276,3997730,113.048996,42.239998,99974.5,1.1441796
621806513,621788930,3997730,112.45976,42.25,99981.49,1.1442596
621866652,621844069,3997730,112.52317,42.239998,99980.75,1.144251
621916772,621896692,3997730,112.79534,42.25,99977.5,1.1442138
621966890,621949317,3997730,113.11242,42.25,99973.75,1.1441709
622027017,622004438,3997730,112.41748,42.25,99981.99,1.1442653
622077127,622057053,3997730,112.943306,42.239998,99975.75,1.1441939
622127236,622109667,3997730,112.943306,42.25,99975.75,1.1441939
622187363,622164783,3997730,112.98559,42.25,99975.25,1.1441882
622237596,622217432,3997730,112.87989,42.239998,99976.49,1.1442022
622287720,622270136,3997730,112.922165,42.25,99976.0,1.1441966
622347874,622325268,3997730,113.02786,42.239998,99974.75,1.1441824
622398034,622377926,3997730,113.2366,42.25,99972.25,1.1441537
622448156,622430581,3997730,113.11242,42.239998,99973.75,1.1441709
622508307,622485712,3997730,112.710785,42.25,99978.5,1.1442254
622558491,622538387,3997730,113.44799,42.25,99969.74,1.1441251
622608606,622591032,3997730,113.405716,42.25,99970.25,1.144131
622668748,622646163,3997730,113.61445,42.25,99967.75,1.1441023
622718899,622698797,3997730,112.96445,42.25,99975.5,1.1441909
622769021,622751444,3997730,113.154686,42.25,99973.25,1.1441652
622829156,622806571,3997730,113.469124,42.25,99969.49,1.1441222
622879279,622859197,3997730,113.76243,42.25,99966.0,1.1440823
622929402,622911830,3997730,113.27888,42.25,99971.75,1.144148
622989541,622966957,3997730,113.257744,42.25,99972.0,1.144151
623039709,623019627,3997730,113.61445,42.25,99967.75,1.1441023
623089842,623072262,3997730,113.86812,42.239998,99964.75,1.1440679
623149979,623127396,3997730,113.27888,42.25,99971.75,1.144148
623200097,623180019,3997730,113.44799,42.25,99969.74,1.1441251
623250214,623232641,3997730,113.405716,42.25,99970.24,1.1441308
623310354,623287769,3997730,113.63824,42.25,99967.5,1.1440994
623360509,623340415,3997730,113.595955,42.25,99967.99,1.1441051
623410625,623393053,3997730,114.05837,42.25,99962.49,1.1440421
623470777,623448183,3997730,113.511406,42.25,99968.99,1.1441164
623520897,623500819,3997730,113.8047,42.25,99965.5,1.1440766
623571017,623553442,3997730,113.825836,42.25,99965.25,1.1440736
623631157,623608572,3997730,113.91039,42.25,99964.25,1.1440622
623681273,623661195,3997730,113.825836,42.26,99965.25,1.1440736
623731393,623713818,3997730,113.76243,42.25,99966.0,1.1440823
623791557,623768975,3997730,113.78621,42.25,99965.75,1.1440793
623841678,623821598,3997730,114.267105,42.26,99960.0,1.1440135
623891794,623874225,3997730,114.079506,42.25,99962.24,1.1440393
623951919,623929342,3997730,113.63824,42.25,99967.5,1.1440994
624002029,623981954,3997730,113.8047,42.25,99965.5,1.1440766
624052148,624034577,3997730,114.05837,42.25,99962.5,1.1440421
624112334,624089725,3997730,113.825836,42.25,99965.25,1.1440736
624162461,624142374,3997730,113.8047,42.25,99965.5,1.1440766
624212581,624195003,3997730,113.70165,42.26,99966.75,1.1440909
624272707,624250129,3997730,114.31203,42.25,99959.5,1.1440078
624322817,624302743,3997730,114.079506,42.25,99962.24,1.1440393
624372930,624355359,3997730,113.78621,42.26,99965.75,1.1440793
624433053,624410476,3997730,114.037224,42.26,99962.74,1.144045
624483163,624463089,3997730,114.22747,42.25,99960.5,1.1440192
624533271,624515702,3997730,113.93153,42.26,99964.0,1.1440594
624593399,624570821,3997730,114.79557,42.26,99953.75,1.1439421
624643546,624623473,3997730,113.952675,42.25,99963.75,1.1440564
624693655,624676085,3997730,113.825836,42.26,99965.25,1.1440736
624753786,624731206,3997730,114.37545,42.26,99958.75,1.1439992
624803905,624783826,3997730,114.079506,42.26,99962.24,1.1440393
624854012,624836445,3997730,114.16406,42.25,99961.24,1.1440278
624914142,624891564,3997730,113.825836,42.26,99965.25,1.1440736
624964261,624944177,3997730,114.20634,42.26,99960.75,1.1440222
625014361,624996791,3997730,114.142914,42.25,99961.5,1.1440307
625074527,625051938,3997730,114.29089,42.26,99959.75,1.1440108
625124636,625104562,3997730,114.29089,42.25,99959.75,1.1440108
625174758,625157186,3997730,113.78621,42.26,99965.75,1.1440793
625234890,625212310,3997730,114.037224,42.26,99962.75,1.1440451
625285002,625264927,3997730,114.079506,42.25,99962.25,1.1444068
625335112,625317544,3997730,114.24861,42.26,99960.24,1.1443838
625395242,625372663,3997730,114.037224,42.26,99962.74,1.144045
625445368,625425286,3997730,114.37545,42.26,99958.75,1.1439992
625495495,625477920,3997730,114.31203,42.26,99959.5,1.1440078
625555661,625533074,3997730,113.93418,42.26,99963.99,1.1440593
625605772,625585697,3997730,114.142914,42.26,99961.5,1.1443982
625655891,625638317,3997730,114.24597,42.26,99960.25,1.1443839
625716049,625693457,3997730,113.86812,42.26,99964.75,1.1444354
625766207,625746097,3997730,114.29089,42.26,99959.75,1.1443782
625816326,625798752,3997730,114.161415,42.26,99961.26,1.1443955
625876483,625853888,3997730,114.45735,42.26,99957.75,1.1443552
625926607,625906526,3997730,114.185196,42.26,99961.0,1.1443925
625976721,625959150,3997730,114.47849,42.25,99957.5,1.1443524
626036850,626014272,3997730,114.31203,42.26,99959.5,1.1443753
626086976,626066887,3997730,114.24597,42.26,99960.25,1.1443839
626137089,626119519,3997730,114.732155,42.26,99954.49,1.144318
626197239,626174652,3997730,114.35166,42.26,99959.0,1.1443696
626247364,626227284,3997730,114.48114,42.26,99957.49,1.1443523
626297559,626279956,3997730,114.43622,42.26,99958.0,1.1443582
626357730,626335146,3997730,114.49963,42.26,99957.25,1.1443495
626407850,626387772,3997730,114.33317,42.26,99959.25,1.1443725
626457965,626440395,3997730,114.48114,42.26,99957.49,1.1443523
626518096,626495518,3997730,114.71102,42.26,99954.75,1.144321
626568205,626548130,3997730,114.45735,42.26,99957.75,1.1443552
626618330,626600743,3997730,113.99495,42.26,99963.24,1.1444181
626678440,626655860,3997730,114.45735,42.26,99957.74,1.1443552
626728545,626708473,3997730,114.520775,42.26,99956.99,1.1443466
626778655,626761085,3997730,114.58418,42.26,99956.24,1.144338
626838790,626816213,3997730,114.89862,42.26,99952.5,1.1442951
626888937,626868844,3997730,114.60533,42.26,99955.99,1.1443352
626939043,626921475,3997730,114.83785,42.26,99953.25,1.1443038
626999173,626976595,3997730,115.06773,42.26,99950.5,1.1442723
627049280,627029207,3997730,114.56305,42.26,99956.5,1.144341
627099390,627081820,3997730,115.34254,42.26,99947.25,1.1446025
627159627,627136970,3997730,114.35166,42.26,99959.0,1.1447371
627209750,627189667,3997730,114.520775,42.26,99956.99,1.1447141
627259885,627242311,3997730,115.405945,42.26,99946.5,1.144594
627320016,627297439,3997730,115.2157,42.26,99948.75,1.1442522
627370153,627350051,3997730,114.39394,42.26,99958.5,1.1443639
627420278,627402699,3997730,114.90126,42.26,99952.49,1.1442951
627480414,627457832,3997730,114.66874,42.27,99955.24,1.1443266
627530535,627510454,3997730,113.70165,42.27,99966.75,1.1448259
627580655,627563080,3997730,114.39394,42.26,99958.5,1.1447314
627640793,627618209,3997730,114.71102,42.26,99954.75,1.1446885
627690904,627670829,3997730,115.9529,42.26,99940.0,1.1445194
627741016,627723445,3997730,114.647606,42.26,99955.5,1.1446971
627801200,627778582,3997730,114.66874,42.27,99955.25,1.1446942
627851308,627831234,3997730,115.300255,42.26,99947.75,1.1446083
627901417,627883848,3997730,114.81671,42.27,99953.5,1.1446741
627961549,627938970,3997730,114.647606,42.26,99955.49,1.144697
628011659,627991584,3997730,115.5962,42.26,99944.24,1.1445682
628061772,628044200,3997730,115.868355,42.27,99941.0,1.144531
628121924,628099326,3997730,115.69925,42.27,99943.0,1.1445539
628172033,628151959,3997730,115.51164,42.26,99945.25,1.1445796
628222148,628204577,3997730,116.47873,42.26,99933.75,1.1444479
628282278,628259698,3997730,114.71102,42.27,99954.74,1.1446884
628332389,628312315,3997730,115.405945,42.27,99946.5,1.144594
628382522,628364939,3997730,114.39394,42.26,99958.5,1.1447314
628442651,628420072,3997730,115.889496,42.27,99940.75,1.1445282
628492763,628472686,3997730,114.96468,42.27,99951.74,1.144654
628542909,628525318,3997730,115.82608,42.27,99941.5,1.1445367
628603039,628580458,3997730,116.41531,42.26,99934.5,1.1444566
628653170,628633074,3997730,116.10088,42.27,99938.25,1.1444995
628703261,628685690,3997730,115.4905,42.27,99945.49,1.1445824
628763400,628740819,3997730,115.91064,42.27,99940.49,1.1445252
628813549,628793474,3997730,115.405945,42.27,99946.5,1.144594
628863705,628846101,3997730,115.1338,42.27,99949.74,1.144631
628923844,628901258,3997730,115.02546,42.27,99951.0,1.1446456
628973960,628953878,3997730,115.405945,42.27,99946.5,1.144594
629024068,629006497,3997730,115.15229,42.27,99949.5,1.1446284
629084207,629061620,3997730,114.77443,42.27,99954.0,1.1446798
629134318,629114244,3997730,116.39417,42.27,99934.75,1.1444594
629184461,629166866,3997730,114.79557,42.27,99953.75,1.144677
629244596,629222013,3997730,115.00431,42.26,99951.25,1.1446483
629294707,629274633,3997730,114.647606,42.27,99955.49,1.144697
629344816,629327248,3997730,115.74152,42.27,99942.5,1.1445482
629404945,629382366,3997730,115.76266,42.27,99942.25,1.1445453
629455055,629434980,3997730,116.668976,42.27,99931.5,1.1444222
629505166,629487595,3997730,113.511406,42.27,99969.0,1.1448516
629565292,629542713,3997730,116.47873,42.27,99933.75,1.1444479
629615404,629595328,3997730,114.39394,42.27,99958.5,1.1447314
629665564,629647980,3997730,115.11001,42.27,99950.0,1.1446341
629725683,629703103,3997730,114.56305,42.27,99956.5,1.1447085
629775792,629755718,3997730,115.974045,42.27,99939.75,1.1445167
629825902,629808332,3997730,115.23685,42.27,99948.5,1.144617
629886031,629863452,3997730,115.23685,42.28,99948.5,1.144617
629936138,629916065,3997730,115.32139,42.27,99947.5,1.1446054
629986256,629968683,3997730,115.80494,42.27,99941.75,1.1445396
630046386,630023806,3997730,115.08887,42.27,99950.25,1.1446369
630096525,630076449,3997730,115.405945,42.27,99946.5,1.144594
630146635,630129065,3997730,115.57242,42.28,99944.5,1.1445711
630206768,630184186,3997730,115.04659,42.28,99950.75,1.1446426
630256879,630236805,3997730,115.55127,42.27,99944.75,1.1445739
630306987,630289418,3997730,115.32139,42.28,99947.5,1.1446054
630367121,630344540,3997730,114.79557,42.28,99953.75,1.144677
630417230,630397155,3997730,115.32139,42.28,99947.5,1.1446054
