timestamp,time_utc_usec,lat,lon,alt,alt_ellipsoid,s_variance_m_s,c_variance_rad,eph,epv,hdop,vdop,noise_per_ms,jamming_indicator,vel_m_s,vel_n_m_s,vel_e_m_s,vel_d_m_s,cog_rad,timestamp_time_relative,fix_type,vel_ned_valid,satellites_used
288181900,1585465760400225,372455072,1266743030,7522,25524,0.22600001,0.7507832,0.75100005,0.994,0.71,0.81,106,170,0.038000003,-0.030000001,0.023000002,0.083000004,1.4042772,0,3,1,17
288395522,1585465760600225,372455072,1266743031,7500,25502,0.223,0.7507912,0.75100005,0.994,0.71,0.81,106,170,0.041,0.011000001,0.039,0.036000002,1.4042772,0,3,1,17
288594955,1585465760800224,372455072,1266743031,7507,25509,0.193,0.75079834,0.75100005,0.994,0.71,0.81,106,170,0.042000003,-0.041,-0.009000001,0.048,1.4042772,0,3,1,17
288788562,1585465761000224,372455071,1266743030,7505,25507,0.16100001,0.7508041,0.75100005,0.994,0.71,0.81,106,170,0.028,-0.027,-0.0050000004,0.008,1.4042772,0,3,1,17
288995282,1585465761200224,372455071,1266743030,7506,25508,0.21000001,0.7508118,0.75100005,0.994,0.71,0.81,106,170,0.021000002,-0.021000002,-0.002,0.052,1.4042772,0,3,1,17
289198518,1585465761400224,372455071,1266743030,7499,25501,0.209,0.7508193,0.75100005,0.994,0.71,0.81,106,155,0.009000001,-0.009000001,-0.004,0.053000003,1.4042772,0,3,1,17
289394543,1585465761600224,372455071,1266743030,7501,25503,0.22600001,0.75082767,0.75100005,0.99500006,0.71,0.81,106,155,0.033,-0.024,0.023000002,0.049000002,1.4042772,0,3,1,17
289594516,1585465761800224,372455071,1266743029,7505,25507,0.20300001,0.750835,0.75100005,0.99500006,0.71,0.81,106,155,0.018000001,0.018000001,0.002,0.057000004,1.4042772,0,3,1,17
289799526,1585465762000224,372455071,1266743030,7497,25499,0.21700001,0.75084305,0.75100005,0.99500006,0.71,0.81,106,155,0.038000003,0.019000001,0.033,0.045,1.4042772,0,3,1,17
289999640,1585465762200224,372455071,1266743030,7495,25497,0.21400002,0.75085074,0.75100005,0.99500006,0.71,0.81,106,155,0.010000001,-0.010000001,0.001,0.05,1.4042772,0,3,1,17
290192524,1585465762400224,372455071,1266743030,7498,25499,0.16100001,0.75085664,0.75100005,0.99500006,0.71,0.81,106,139,0.031000001,-0.024,-0.020000001,0.016,1.4042772,0,3,1,17
290393650,1585465762600224,372455071,1266743029,7499,25501,0.22100002,0.7508647,0.75100005,0.99500006,0.71,0.81,106,139,0.022000002,0.002,0.022000002,0.016,1.4042772,0,3,1,17
290593645,1585465762800224,372455071,1266743029,7511,25513,0.18,0.7508713,0.75100005,0.99500006,0.71,0.81,106,139,0.009000001,-0.008,-0.004,0.011000001,1.4042772,0,3,1,17
290796185,1585465763000224,372455071,1266743028,7519,25520,0.16700001,0.75087744,0.75100005,0.99500006,0.71,0.81,106,139,0.051000003,-0.011000001,-0.05,0.015000001,1.4042772,0,3,1,17
290998523,1585465763200224,372455071,1266743027,7518,25520,0.22800002,0.7508858,0.75200003,0.99500006,0.71,0.81,106,139,0.026,0.016,-0.020000001,-0.044000003,1.4042772,0,3,1,17
291194712,1585465763400224,372455072,1266743027,7529,25531,0.18300001,0.75089246,0.75200003,0.99500006,0.71,0.81,106,157,0.030000001,0.029000001,0.006,-0.025,1.4042772,0,3,1,17
291383522,1585465763600224,372455072,1266743027,7529,25531,0.20600002,0.7508999,0.75200003,0.99500006,0.71,0.81,106,157,0.007,0.007,0.0,0.075,1.4042772,0,3,1,17
291592569,1585465763800224,372455072,1266743027,7525,25527,0.22700001,0.75090814,0.75200003,0.99500006,0.71,0.81,106,157,0.030000001,0.001,0.030000001,0.061000004,1.4042772,0,3,1,17
291804515,1585465764000224,372455072,1266743027,7520,25522,0.21200001,0.750916,0.75200003,0.99500006,0.71,0.81,106,157,0.031000001,0.012,0.029000001,0.022000002,1.4042772,0,3,1,17
291992517,1585465764200224,372455073,1266743028,7508,25510,0.162,0.7509219,0.75200003,0.99500006,0.71,0.81,106,157,0.034,0.018000001,0.028,-0.010000001,1.4042772,0,3,1,17
292194594,1585465764400224,372455072,1266743029,7511,25512,0.202,0.75092924,0.75200003,0.99500006,0.71,0.81,106,187,0.057000004,-0.056,0.010000001,0.060000002,1.4042772,0,3,1,17
292394530,1585465764600224,372455072,1266743028,7513,25515,0.164,0.7509352,0.75200003,0.99500006,0.71,0.81,106,187,0.028,0.013,-0.025,0.032,1.4042772,0,3,1,17
292594515,1585465764800224,372455072,1266743028,7507,25509,0.165,0.7509413,0.75200003,0.99500006,0.71,0.81,106,187,0.038000003,0.0050000004,-0.038000003,0.016,1.4042772,0,3,1,17
292794517,1585465765000224,372455072,1266743027,7505,25507,0.17,0.7509474,0.75200003,0.99500006,0.71,0.81,106,187,0.019000001,-0.002,-0.019000001,0.0050000004,1.4042772,0,3,1,17
292994546,1585465765200224,372455072,1266743027,7502,25504,0.187,0.7509542,0.75200003,0.99500006,0.71,0.81,106,187,0.022000002,-0.013,-0.017,0.043,1.4042772,0,3,1,17
293194523,1585465765400224,372455072,1266743026,7506,25508,0.158,0.75096,0.75200003,0.99500006,0.71,0.81,106,142,0.025,-0.025,-0.002,-0.014,1.4042772,0,3,1,17
293394626,1585465765600224,372455072,1266743027,7499,25501,0.19600001,0.75096714,0.75200003,0.99500006,0.71,0.81,106,142,0.024,0.020000001,0.012,0.028,1.4042772,0,3,1,17
293594523,1585465765800224,372455072,1266743027,7492,25494,0.171,0.7509734,0.75200003,0.99500006,0.71,0.81,106,142,0.014,0.0050000004,-0.013,0.023000002,1.4042772,0,3,1,17
293803524,1585465766000224,372455072,1266743026,7491,25493,0.178,0.7509799,0.75200003,0.99500006,0.71,0.81,106,142,0.055000003,-0.037,-0.041,-0.016,1.4042772,0,3,1,17
293984594,1585465766200224,372455071,1266743027,7490,25492,0.17600001,0.75098634,0.75200003,0.99500006,0.71,0.81,106,142,0.029000001,-0.008,0.028,-0.003,1.4042772,0,3,1,17
294203642,1585465766400224,372455071,1266743028,7489,25491,0.22200002,0.7509944,0.75200003,0.99500006,0.71,0.81,106,145,0.049000002,0.006,0.049000002,0.049000002,1.4042772,0,3,1,17
294392599,1585465766600224,372455071,1266743029,7477,25479,0.21900001,0.7510024,0.75200003,0.99500006,0.71,0.81,106,145,0.039,-0.013,0.036000002,0.029000001,1.4042772,0,3,1,17
294593651,1585465766800224,372455071,1266743029,7478,25480,0.163,0.75100833,0.75200003,0.99500006,0.71,0.81,106,145,0.018000001,-0.007,-0.017,0.006,1.4042772,0,3,1,17
294800355,1585465767000224,372455071,1266743029,7475,25477,0.2,0.75101566,0.75200003,0.99500006,0.71,0.81,106,145,0.029000001,-0.016,-0.024,-0.020000001,1.4042772,0,3,1,17
294996181,1585465767200224,372455070,1266743029,7468,25470,0.21000001,0.75102335,0.75200003,0.99500006,0.71,0.81,106,145,0.040000003,-0.003,-0.040000003,-0.020000001,1.4042772,0,3,1,17
295195516,1585465767400224,372455070,1266743028,7511,25513,0.20700002,0.75103223,0.75100005,0.99500006,0.71,0.81,106,177,0.061000004,-0.045,-0.041,-0.23700002,1.4042772,0,3,1,17
295394533,1585465767600224,372455069,1266743027,7557,25559,0.21300001,0.7510432,0.75200003,0.99500006,0.71,0.81,106,177,0.083000004,-0.061000004,-0.056,-0.289,1.4042772,0,3,1,17
295591524,1585465767800224,372455068,1266743027,7619,25621,0.20700002,0.75105315,0.75200003,0.99500006,0.71,0.81,106,177,0.032,-0.029000001,-0.014,-0.27,1.4042772,0,3,1,17
295792517,1585465768000224,372455067,1266743025,7699,25701,0.22500001,0.75106573,0.75200003,0.99600005,0.71,0.81,106,177,0.116000004,-0.034,-0.11100001,-0.328,1.4042772,0,3,1,17
295995531,1585465768200224,372455065,1266743023,7766,25768,0.20700002,0.751082,0.753,0.99600005,0.71,0.81,106,177,0.15100001,-0.13000001,-0.076000005,-0.41500002,1.4042772,0,3,1,17
296195589,1585465768400224,372455063,1266743023,7820,25822,0.21000001,0.75109,0.753,0.99700004,0.71,0.81,106,165,0.079,-0.076000005,-0.022000002,-0.20600002,1.4042772,0,3,1,17
296394517,1585465768600224,372455062,1266743020,7910,25912,0.23500001,0.7511012,0.754,0.998,0.71,0.81,106,165,0.158,-0.065000005,-0.14400001,-0.263,1.4042772,0,3,1,17
296594549,1585465768800224,372455061,1266743018,7949,25951,0.20600002,0.7511088,0.75500005,0.998,0.71,0.81,106,165,0.119,-0.1,-0.065000005,-0.15900001,1.4042772,0,3,1,17
296794519,1585465769000224,372455059,1266743016,7975,25977,0.18300001,0.7511155,0.75500005,0.9990001,0.71,0.81,106,165,0.13800001,-0.12100001,-0.065000005,-0.087000005,1.4042772,0,3,1,17
296994526,1585465769200224,372455056,1266743014,7992,25994,0.202,0.75112283,0.75600004,1.0,0.71,0.81,106,165,0.15300001,-0.104,-0.112,-0.055000003,1.4042772,0,3,1,17
297194714,1585465769400224,372455055,1266743013,7998,25999,0.19800001,0.75113016,0.757,1.001,0.71,0.81,106,159,0.035,-0.033,-0.011000001,0.036000002,1.4042772,0,3,1,17
297395523,1585465769600224,372455054,1266743012,7989,25991,0.208,0.7511377,0.75900006,1.0020001,0.71,0.81,106,159,0.056,-0.053000003,-0.018000001,0.068,1.4042772,0,3,1,17
297593841,1585465769800224,372455054,1266743012,7988,25990,0.17500001,0.7511441,0.76000005,1.0040001,0.71,0.81,106,159,0.028,0.013,-0.025,0.039,1.4042772,0,3,1,17
297812516,1585465770000224,372455053,1266743011,7990,25992,0.18100001,0.7511507,0.762,1.005,0.71,0.81,106,159,0.112,-0.093,-0.062000003,0.001,1.4042772,0,3,1,17
297992522,1585465770200224,372455052,1266743010,7989,25991,0.18200001,0.7511574,0.763,1.006,0.71,0.81,106,159,0.071,-0.071,-0.010000001,-0.066,1.4042772,0,3,1,17
298192554,1585465770400224,372455051,1266743009,8016,26018,0.238,0.7511661,0.76400006,1.0070001,0.71,0.81,106,157,0.085,-0.034,-0.078,-0.177,1.4042772,0,3,1,17
298392545,1585465770600224,372455050,1266743009,8047,26049,0.21400002,0.75117815,0.76400006,1.0070001,0.71,0.81,106,157,0.022000002,-0.016,-0.014,-0.33100003,1.4042772,0,3,1,17
298592959,1585465770800224,372455048,1266743010,8125,26127,0.21100001,0.7512033,0.76400006,1.008,0.71,0.81,106,157,0.054,-0.053000003,0.010000001,-0.68700004,1.4042772,0,3,1,17
298795516,1585465771000224,372455047,1266743012,8309,26311,0.20600002,0.7512425,0.76500005,1.0090001,0.71,0.81,106,157,0.157,-0.042000003,0.15100001,-1.062,1.4042772,0,3,1,17
298995976,1585465771200224,372455047,1266743014,8597,26598,0.21400002,0.751304,0.76600003,1.01,0.71,0.81,106,157,0.082,0.042000003,0.07,-1.6840001,1.4042772,0,3,1,17
299187602,1585465771400224,372455048,1266743015,8993,26995,0.21200001,0.75137883,0.767,1.01,0.71,0.81,106,170,0.064,0.015000001,0.062000003,-2.052,1.4042772,0,3,1,17
299395413,1585465771600224,372455048,1266743014,9420,27422,0.21400002,0.7514518,0.767,1.011,0.71,0.81,106,170,0.062000003,-0.044000003,-0.044000003,-1.9990001,1.4042772,0,3,1,17
299596219,1585465771800224,372455047,1266743015,9819,27821,0.21200001,0.7515253,0.767,1.0120001,0.77,0.96999997,106,170,0.112,-0.018000001,0.11000001,-2.0080001,1.4042772,0,3,1,16
299804543,1585465772000224,372455047,1266743017,10226,28228,0.21000001,0.75159705,0.768,1.0120001,0.71,0.81,106,170,0.13700001,0.013,0.136,-1.9660001,1.4042772,0,3,1,17
300012015,1585465772200223,372455048,1266743018,10682,28684,0.209,0.7516738,0.768,1.013,0.71,0.81,106,170,0.15200001,0.096,0.117000006,-2.098,1.4042772,0,3,1,17
300196376,1585465772400223,372455050,1266743018,11190,29192,0.20600002,0.75175583,0.768,1.0120001,0.71,0.81,106,156,0.095000006,0.026,0.091000006,-2.2440002,1.4042772,0,3,1,17
300395523,1585465772600223,372455050,1266743019,11651,29653,0.21300001,0.75183946,0.768,1.0120001,0.71,0.81,106,156,0.038000003,-0.012,0.036000002,-2.295,1.4042772,0,3,1,17
300595527,1585465772800223,372455050,1266743020,12093,30095,0.216,0.75192165,0.768,1.013,0.71,0.81,106,156,0.017,0.004,0.017,-2.2540002,1.4042772,0,3,1,17
300795516,1585465773000223,372455050,1266743021,12521,30523,0.21800001,0.7520004,0.768,1.013,0.71,0.81,106,156,0.036000002,-0.011000001,0.034,-2.1590002,1.4042772,0,3,1,17
300995361,1585465773200223,372455050,1266743018,13006,31008,0.22000001,0.7520852,0.768,1.013,0.71,0.81,106,156,0.097,-0.013,-0.096,-2.325,1.4042772,0,3,1,17
301195215,1585465773400223,372455050,1266743016,13465,31467,0.22500001,0.7521667,0.76900005,1.014,0.71,0.81,106,159,0.120000005,0.031000001,-0.116000004,-2.2310002,1.4042772,0,3,1,17
301395261,1585465773600223,372455051,1266743012,13915,31917,0.22500001,0.7002765,0.76900005,1.013,0.71,0.81,106,159,0.215,0.043,-0.21100001,-2.207,6.2004046,0,3,1,17
301598616,1585465773800223,372455051,1266743007,14310,32312,0.223,0.6985214,0.76900005,1.013,0.71,0.81,106,159,0.216,0.064,-0.20600002,-1.9100001,5.6061187,0,3,1,17
301782567,1585465774000223,372455053,1266743002,14697,32699,0.22600001,0.6483365,0.76900005,1.014,0.71,0.81,106,159,0.24800001,0.071,-0.238,-1.9460001,5.280958,0,3,1,17
301994517,1585465774200223,372455053,1266742998,15098,33100,0.224,0.6484191,0.76900005,1.014,0.71,0.81,106,159,0.11400001,0.002,-0.11400001,-1.9490001,5.280958,0,3,1,17
302192523,1585465774400223,372455053,1266742996,15503,33505,0.216,0.6484999,0.76900005,1.014,0.71,0.81,105,160,0.038000003,-0.037,-0.003,-1.9110001,5.280958,0,3,1,17
302392597,1585465774600223,372455053,1266742994,15927,33929,0.215,0.64858353,0.76900005,1.014,0.71,0.81,105,160,0.07,-0.064,-0.028,-1.9750001,5.280958,0,3,1,17
302591523,1585465774800223,372455052,1266742992,16327,34329,0.22000001,0.64866656,0.76900005,1.014,0.71,0.81,105,160,0.089,-0.047000002,-0.076000005,-1.9660001,5.280958,0,3,1,17
302793632,1585465775000223,372455051,1266742991,16679,34681,0.22100002,0.6487399,0.77000004,1.0150001,0.71,0.81,105,160,0.09900001,-0.069000006,-0.071,-1.728,5.280958,0,3,1,17
302993644,1585465775200223,372455050,1266742988,17088,35090,0.216,0.6488224,0.76900005,1.0150001,0.71,0.81,105,160,0.123,-0.093,-0.081,-1.9510001,5.280958,0,3,1,17
303193618,1585465775400223,372455049,1266742987,17491,35493,0.21700001,0.648905,0.77000004,1.0150001,0.71,0.81,105,157,0.053000003,-0.032,0.042000003,-1.9520001,5.280958,0,3,1,17
303394518,1585465775600223,372455048,1266742988,17893,35895,0.215,0.64898896,0.77000004,1.0150001,0.71,0.81,105,157,0.11000001,-0.080000006,0.074,-1.983,5.280958,0,3,1,17
303594517,1585465775800223,372455048,1266742988,18298,36300,0.216,0.64906836,0.77000004,1.0150001,0.71,0.81,105,157,0.030000001,-0.030000001,-0.004,-1.8790001,5.280958,0,3,1,17
303810640,1585465776000223,372455046,1266742988,18683,36685,0.21400002,0.64914745,0.77000004,1.0150001,0.71,0.81,105,157,0.13700001,-0.125,0.056,-1.8690001,5.280958,0,3,1,17
304010557,1585465776200223,372455044,1266742987,19093,37095,0.22000001,0.64923644,0.77000004,1.0150001,0.71,0.81,105,157,0.113000005,-0.113000005,-0.002,-2.104,5.280958,0,3,1,17
304195533,1585465776400223,372455043,1266742986,19520,37522,0.22100002,0.64932144,0.77000004,1.0150001,0.71,0.81,105,166,0.10700001,-0.095000006,-0.05,-2.0110002,5.280958,0,3,1,17
304387524,1585465776600223,372455041,1266742984,19931,37933,0.22500001,0.64941007,0.77000004,1.016,0.71,0.81,105,166,0.120000005,-0.053000003,-0.10700001,-2.0960002,5.280958,0,3,1,17
304598523,1585465776800223,372455042,1266742982,20352,38354,0.223,0.64950275,0.77000004,1.016,0.71,0.81,105,166,0.086,0.080000006,-0.032,-2.1950002,5.280958,0,3,1,17
304799530,1585465777000223,372455043,1266742980,20774,38776,0.22700001,0.6495904,0.771,1.016,0.71,0.81,105,166,0.19100001,0.081,-0.17300001,-2.066,5.280958,0,3,1,17
304995523,1585465777200223,372455045,1266742976,21177,39179,0.22700001,0.6496742,0.771,1.0170001,0.71,0.81,105,166,0.19800001,0.087000005,-0.178,-1.9740001,5.280958,0,3,1,17
305195191,1585465777400223,372455047,1266742972,21566,39568,0.22600001,0.6497571,0.771,1.0170001,0.71,0.81,105,157,0.23,0.17300001,-0.15100001,-1.9520001,5.280958,0,3,1,17
305395392,1585465777600223,372455050,1266742968,21978,39980,0.22600001,0.7545508,0.771,1.0170001,0.71,0.81,105,157,0.23600002,0.15300001,-0.18,-2.081,5.339371,0,3,1,17
305593587,1585465777800223,372455052,1266742964,22401,40403,0.224,0.7546294,0.772,1.018,0.71,0.81,105,157,0.16900001,0.12900001,-0.109000005,-2.1560001,5.339371,0,3,1,17
305798596,1585465778000223,372455055,1266742961,22827,40829,0.223,0.7547037,0.772,1.018,0.71,0.81,105,157,0.16600001,0.136,-0.095000006,-2.039,5.339371,0,3,1,17
306001747,1585465778200223,372455056,1266742959,23252,41254,0.21800001,0.7547798,0.772,1.019,0.71,0.81,105,157,0.07300001,0.008,-0.072000004,-2.091,5.339371,0,3,1,17
306197840,1585465778400223,372455056,1266742956,23712,41714,0.215,0.7548584,0.772,1.019,0.71,0.81,105,164,0.13100001,-0.112,-0.068,-2.158,5.339371,0,3,1,17
306395344,1585465778600223,372455054,1266742954,24147,42149,0.21800001,0.75493705,0.772,1.019,0.71,0.81,105,164,0.104,-0.061000004,-0.08400001,-2.164,5.339371,0,3,1,17
306598719,1585465778800223,372455054,1266742951,24605,42607,0.21900001,0.75502187,0.772,1.0200001,0.71,0.81,105,164,0.127,-0.015000001,-0.126,-2.335,5.339371,0,3,1,17
306798514,1585465779000223,372455054,1266742948,25082,43084,0.21800001,0.7551065,0.772,1.0200001,0.71,0.81,105,164,0.093,0.006,-0.093,-2.329,5.339371,0,3,1,17
306990517,1585465779200223,372455055,1266742946,25542,43543,0.21900001,0.75519395,0.77300006,1.0200001,0.71,0.81,105,164,0.16900001,0.115,-0.125,-2.4,5.339371,0,3,1,17
307196483,1585465779400223,372455057,1266742943,26013,44015,0.22000001,0.7552772,0.77300006,1.0200001,0.71,0.81,105,160,0.202,0.132,-0.15400001,-2.288,5.339371,0,3,1,17
307396129,1585465779600223,372455059,1266742938,26483,44485,0.22000001,0.7628174,0.77300006,1.0200001,0.71,0.81,105,160,0.202,0.076000005,-0.187,-2.41,5.22002,0,3,1,17
307596555,1585465779800223,372455060,1266742934,27009,45011,0.216,0.7629076,0.77300006,1.0200001,0.71,0.81,105,160,0.072000004,0.019000001,-0.069000006,-2.5070002,5.22002,0,3,1,17
307794524,1585465780000223,372455061,1266742931,27563,45565,0.21800001,0.76300395,0.77300006,1.021,0.71,0.81,105,160,0.15200001,0.105000004,-0.11000001,-2.676,5.22002,0,3,1,17
307998516,1585465780200223,372455064,1266742928,28090,46092,0.22100002,0.67767274,0.77300006,1.021,0.71,0.81,105,160,0.257,0.21300001,-0.14400001,-2.663,5.481614,0,3,1,17
308194530,1585465780400223,372455067,1266742926,28603,46605,0.21900001,0.6777754,0.77300006,1.021,0.71,0.81,105,159,0.16000001,0.15100001,-0.052,-2.5300002,5.481614,0,3,1,17
308394542,1585465780600223,372455070,1266742924,29133,47135,0.21700001,0.6778785,0.77300006,1.021,0.71,0.81,105,159,0.062000003,0.062000003,0.006,-2.5500002,5.481614,0,3,1,17
308594095,1585465780800223,372455071,1266742923,29643,47645,0.21900001,0.6779841,0.77300006,1.021,0.71,0.81,105,159,0.124000005,0.11400001,-0.049000002,-2.605,5.481614,0,3,1,17
308791553,1585465781000223,372455073,1266742924,30150,48152,0.21800001,0.6780923,0.77300006,1.0220001,0.71,0.81,105,159,0.136,0.136,0.0050000004,-2.6750002,5.481614,0,3,1,17
308991521,1585465781200223,372455075,1266742924,30709,48711,0.215,0.67820036,0.77300006,1.0220001,0.71,0.81,105,159,0.158,0.036000002,0.15400001,-2.6660001,5.481614,0,3,1,17
309195705,1585465781400223,372455077,1266742927,31264,49266,0.21900001,0.6783127,0.77400005,1.023,0.77,0.96999997,105,165,0.18100001,0.134,0.12200001,-2.776,5.481614,0,3,1,16
309392012,1585465781600223,372455078,1266742928,31833,49835,0.22000001,0.67842704,0.77400005,1.023,0.77,0.96999997,105,165,0.11400001,0.064,0.094000004,-2.8270001,5.481614,0,3,1,16
309587622,1585465781800223,372455080,1266742931,32421,50423,0.21900001,0.6785456,0.77400005,1.024,0.77,0.96999997,105,165,0.2,0.112,0.16600001,-2.9250002,5.481614,0,3,1,16
309806523,1585465782000223,372455082,1266742934,32981,50983,0.21900001,0.67865956,0.77400005,1.024,0.77,0.96999997,105,165,0.194,0.10700001,0.16100001,-2.811,5.481614,0,3,1,16
309993844,1585465782200223,372455083,1266742938,33558,51560,0.215,0.5346477,0.77500004,1.0250001,0.77,0.96999997,105,165,0.30200002,-0.023000002,0.30100003,-2.752,0.70989186,0,3,1,16
310202523,1585465782400223,372455084,1266742945,34106,52108,0.21700001,0.5065699,0.77500004,1.0250001,0.77,0.96999997,105,156,0.33100003,0.147,0.29700002,-2.7500002,0.92076373,0,3,1,16
310392643,1585465782600223,372455087,1266742952,34676,52678,0.21200001,0.37376624,0.77500004,1.026,0.77,0.96999997,105,156,0.43400002,0.09200001,0.42400002,-2.762,1.202917,0,3,1,16
310592559,1585465782800223,372455088,1266742959,35247,53249,0.21300001,0.46334875,0.77500004,1.026,0.77,0.96999997,105,156,0.34800002,0.05,0.34500003,-2.6330001,1.2909927,0,3,1,16
310795603,1585465783000223,372455090,1266742965,35779,53781,0.216,0.58242244,0.776,1.0270001,0.77,0.96999997,105,156,0.28300002,0.112,0.26000002,-2.644,1.2414324,0,3,1,16
311000591,1585465783200222,372455090,1266742971,36282,54284,0.21100001,0.4755802,0.776,1.0270001,0.77,0.96999997,105,156,0.324,-0.040000003,0.321,-2.3630002,1.5136186,0,3,1,16
311196813,1585465783400222,372455090,1266742978,36736,54738,0.208,0.41327858,0.776,1.0270001,0.77,0.96999997,105,161,0.37300003,-0.031000001,0.37100002,-2.1230001,1.5934836,0,3,1,16
311404094,1585465783600222,372455089,1266742984,37150,55152,0.21100001,0.48713008,0.776,1.028,0.77,0.96999997,105,161,0.319,-0.038000003,0.316,-1.9190001,1.6336695,0,3,1,16
311603514,1585465783800222,372455089,1266742990,37512,55514,0.21000001,0.59775585,0.776,1.028,0.77,0.96999997,105,161,0.26000002,0.044000003,0.256,-1.705,1.541433,0,3,1,16
311799521,1585465784000222,372455090,1266742996,37791,55793,0.21100001,0.74986774,0.776,1.029,0.77,0.96999997,105,161,0.21800001,0.098000005,0.19500001,-1.4670001,1.3712665,0,3,1,16
311995516,1585465784200222,372455092,1266743000,38064,56066,0.21000001,0.7153062,0.776,1.029,0.77,0.96999997,105,161,0.223,0.071,0.21100001,-1.302,1.306654,0,3,1,16
312187527,1585465784400222,372455092,1266743004,38349,56351,0.208,0.75302994,0.776,1.0300001,0.77,0.96999997,105,146,0.20300001,-0.045,0.19800001,-1.276,1.5373679,0,3,1,16
312395373,1585465784600222,372455093,1266743007,38590,56592,0.209,0.7530708,0.77500004,1.0300001,0.77,0.96999997,105,146,0.20300001,0.053000003,0.19600001,-1.098,1.5373679,0,3,1,16
312600546,1585465784800222,372455093,1266743010,38805,56807,0.22000001,0.75310636,0.77500004,1.0300001,0.77,0.96999997,105,146,0.095000006,0.036000002,0.087000005,-0.9760001,1.5373679,0,3,1,16
312793610,1585465785000222,372455094,1266743013,38983,56985,0.20600002,0.69061,0.77500004,1.031,0.77,0.96999997,105,146,0.23300001,0.060000002,0.22500001,-0.82500005,1.4145002,0,3,1,16
312994613,1585465785200222,372455096,1266743017,39173,57175,0.21200001,0.6855033,0.77500004,1.031,0.74,0.96999997,105,146,0.22900002,0.069000006,0.21800001,-0.97200006,1.3390937,0,3,1,17
313198151,1585465785400222,372455095,1266743023,39332,57333,0.18800001,0.47048315,0.77500004,1.0320001,0.74,0.96999997,105,147,0.326,-0.078,0.316,-0.731,1.6619321,0,3,1,17
313398904,1585465785600222,372455093,1266743031,39460,57462,0.17600001,0.377244,0.77500004,1.0320001,0.74,0.96999997,105,147,0.41500002,-0.156,0.38500002,-0.63900006,1.8407726,0,3,1,17
313595529,1585465785800222,372455089,1266743039,39582,57584,0.178,0.3488955,0.77500004,1.033,0.74,0.96999997,105,147,0.46600002,-0.24800001,0.395,-0.55700004,1.9971397,0,3,1,17
313803519,1585465786000222,372455083,1266743049,39676,57678,0.158,0.24817498,0.77500004,1.033,0.74,0.96999997,105,147,0.674,-0.45000002,0.50200003,-0.51500005,2.1990895,0,3,1,17
314003516,1585465786200222,372455075,1266743061,39793,57795,0.157,0.21121624,0.77500004,1.033,0.74,0.96999997,105,147,0.78700006,-0.508,0.601,-0.467,2.2415347,0,3,1,17
314203492,1585465786400222,372455064,1266743074,39870,57872,0.155,0.20441103,0.776,1.034,0.74,0.96999997,105,152,0.85300004,-0.647,0.55600005,-0.46,2.339521,0,3,1,17
314415989,1585465786600222,372455052,1266743084,39954,57956,0.148,0.2177668,0.776,1.034,0.74,0.96999997,105,152,0.80100006,-0.661,0.453,-0.397,2.4341543,0,3,1,17
314611628,1585465786800222,372455039,1266743093,40013,58015,0.16800001,0.23295152,0.776,1.0350001,0.74,0.96999997,105,152,0.81500006,-0.75000006,0.31800002,-0.305,2.5770695,0,3,1,17
314800876,1585465787000222,372455025,1266743099,40055,58057,0.156,0.24938066,0.776,1.0350001,0.74,0.96999997,105,152,0.763,-0.721,0.252,-0.147,2.6833482,0,3,1,17
315001743,1585465787200222,372455013,1266743102,40097,58099,0.15100001,0.32461622,0.777,1.036,0.74,0.96999997,105,152,0.62,-0.619,0.036000002,-0.157,2.831934,0,3,1,17
315204223,1585465787400222,372455004,1266743097,40141,58143,0.172,0.3230922,0.777,1.0370001,0.74,0.96999997,105,162,0.568,-0.44700003,-0.35000002,-0.109000005,3.3213236,0,3,1,17
315404253,1585465787600222,372454997,1266743083,40180,58182,0.21200001,0.19760686,0.77800006,1.0370001,0.74,0.96999997,105,162,0.827,-0.254,-0.78700006,-0.25,4.1070895,0,3,1,17
315605240,1585465787800222,372454994,1266743060,40234,58236,0.20400001,0.12229678,0.77800006,1.0370001,0.74,0.96999997,105,162,1.217,-0.10300001,-1.213,-0.23300001,4.4834337,0,3,1,17
315813135,1585465788000222,372454995,1266743026,40270,58272,0.201,0.08125345,0.77800006,1.0380001,0.74,0.96999997,105,162,1.8090001,0.289,-1.7860001,-0.215,4.7542834,0,3,1,17
315994521,1585465788200222,372455004,1266742979,40316,58318,0.20400001,0.06350328,0.77800006,1.0380001,0.74,0.96999997,105,162,2.3950002,0.666,-2.301,-0.142,4.90431,0,3,1,17
316205907,1585465788400222,372455019,1266742921,40325,58327,0.19800001,0.05168897,0.77800006,1.039,0.74,0.96999997,105,164,3.0560002,1.0450001,-2.8720002,-0.086,5.0002146,0,3,1,17
316382522,1585465788600222,372455041,1266742850,40332,58334,0.19000001,0.04146396,0.77800006,1.039,0.74,0.96999997,105,164,3.6680002,1.4460001,-3.371,0.036000002,5.0737033,0,3,1,17
316606947,1585465788800222,372455071,1266742767,40343,58345,0.202,0.039703794,0.77900004,1.0400001,0.74,0.96999997,105,164,4.348,1.868,-3.9270003,-0.07,5.119535,0,3,1,17
316783320,1585465789000222,372455108,1266742675,40361,58363,0.20600002,0.036412977,0.77900004,1.042,0.74,0.96999997,105,164,4.8120003,2.306,-4.223,-0.089,5.173371,0,3,1,17
316999524,1585465789200222,372455153,1266742573,40405,58407,0.21100001,0.032112136,0.78000003,1.0430001,0.74,0.96999997,105,164,5.471,2.6790001,-4.7700005,-0.279,5.2044034,0,3,1,17
317200257,1585465789400222,372455205,1266742460,40465,58467,0.20400001,0.031569164,0.781,1.044,0.74,0.96999997,105,160,6.045,3.0870001,-5.1980004,-0.14400001,5.229813,0,3,1,17
317372505,1585465789600222,372455264,1266742337,40527,58529,0.224,0.024779834,0.78300005,1.046,0.74,0.96999997,105,160,6.6380005,3.4610002,-5.664,-0.397,5.2512264,0,3,1,17
317596266,1585465789800222,372455328,1266742206,40571,58573,0.209,0.024359385,0.78300005,1.047,0.74,0.96999997,105,160,7.0010004,3.66,-5.9680004,-0.256,5.258256,0,3,1,17
317800516,1585465790000222,372455396,1266742065,40614,58615,0.19900002,0.020454036,0.78300005,1.047,0.74,0.96999997,105,160,7.6180005,3.9700003,-6.5020003,-0.052,5.259836,0,3,1,17
318001111,1585465790200222,372455469,1266741913,40661,58663,0.193,0.019266339,0.78300005,1.047,0.74,0.96999997,105,160,8.019,4.142,-6.866,-0.27600002,5.2552075,0,3,1,17
318209704,1585465790400222,372455545,1266741752,40761,58763,0.20500001,0.020473758,0.78400004,1.047,0.74,0.96999997,105,157,8.479,4.359,-7.2720003,-0.66400003,5.2524114,0,3,1,17
318386472,1585465790600222,372455626,1266741584,40927,58929,0.22000001,0.018465407,0.78400004,1.0480001,0.74,0.96999997,105,157,8.866,4.636,-7.5580006,-0.83400005,5.262654,0,3,1,17
318588005,1585465790800222,372455711,1266741408,41102,59104,0.201,0.016882919,0.785,1.0480001,0.74,0.96999997,105,157,9.297001,4.8160005,-7.9530005,-0.57500005,5.2569246,0,3,1,17
318787800,1585465791000222,372455801,1266741224,41168,59169,0.19700001,0.016004145,0.785,1.0480001,0.74,0.96999997,105,157,9.836,5.183,-8.359,-0.116000004,5.2674026,0,3,1,17
319004521,1585465791200222,372455896,1266741031,41165,59166,0.19700001,0.015321197,0.786,1.0480001,0.74,0.96999997,105,157,10.268001,5.379,-8.747001,0.004,5.2637787,0,3,1,17
319208801,1585465791400222,372455995,1266740829,41149,59151,0.19500001,0.014661637,0.786,1.049,0.74,0.96999997,105,170,10.738001,5.6480002,-9.132,0.172,5.2662764,0,3,1,17
319405610,1585465791600222,372456099,1266740618,41098,59099,0.192,0.016880648,0.786,1.049,0.74,0.96999997,105,170,11.203,5.9620004,-9.485001,0.45800003,5.273548,0,3,1,17
319597649,1585465791800222,372456211,1266740398,41062,59063,0.19500001,0.01607099,0.78700006,1.0500001,0.74,0.96999997,105,170,11.886001,6.4900002,-9.958,0.0050000004,5.2899795,0,3,1,17
319790934,1585465792000222,372456333,1266740170,41064,59065,0.192,0.016613962,0.78800005,1.0500001,0.74,0.96999997,105,170,12.466001,7.0600004,-10.274,0.075,5.31447,0,3,1,17
319978106,1585465792200222,372456464,1266739936,41070,59071,0.19100001,0.01801197,0.78900003,1.051,0.74,0.96999997,105,170,12.9470005,7.602,-10.4800005,-0.08400001,5.3399363,0,3,1,17
320187482,1585465792400222,372456604,1266739699,41039,59040,0.187,0.017488023,0.79,1.052,0.74,0.96999997,105,165,13.199,7.925,-10.555,0.259,5.356442,0,3,1,17
320403619,1585465792600222,372456750,1266739465,41014,59015,0.19900002,0.017283296,0.791,1.0530001,0.74,0.96999997,105,165,13.135,8.297,-10.183001,0.025,5.396089,0,3,1,17
320603725,1585465792800222,372456905,1266739240,41123,59124,0.2,0.016931264,0.79300004,1.054,0.74,0.96999997,105,165,13.219001,8.893001,-9.780001,-1.0940001,5.4503036,0,3,1,17
320804472,1585465793000222,372457071,1266739026,41461,59462,0.20300001,0.01676982,0.794,1.054,0.74,0.96999997,105,165,13.103001,9.406,-9.122001,-1.9160001,5.5131392,0,3,1,17
320985095,1585465793200222,372457244,1266738826,41816,59817,0.23400001,0.016819213,0.795,1.054,0.74,0.96999997,105,165,13.189001,9.893001,-8.723001,-1.988,5.56055,0,3,1,17
321210172,1585465793400222,372457424,1266738632,42207,60208,0.20600002,0.014890101,0.795,1.0530001,0.74,0.96999997,105,137,13.155001,10.034,-8.508,-1.7730001,5.5799217,0,3,1,17
321386503,1585465793600222,372457607,1266738446,42532,60533,0.215,0.017392728,0.79600006,1.054,0.74,0.96999997,105,137,12.994,10.331,-7.8810005,-1.6070001,5.631514,0,3,1,17
321602997,1585465793800222,372457795,1266738271,42877,60878,0.22900002,0.016157733,0.79700005,1.054,0.74,0.96999997,105,137,13.032001,10.558001,-7.6400003,-1.8100001,5.656808,0,3,1,17
321812518,1585465794000221,372457986,1266738101,43281,61282,0.19700001,0.01628811,0.79800004,1.054,0.74,0.96999997,105,137,12.869,10.563001,-7.3510003,-1.4310001,5.67519,0,3,1,17
321999569,1585465794200221,372458178,1266737937,43541,61542,0.18900001,0.016086001,0.79800004,1.054,0.74,0.96999997,105,137,12.903001,10.712001,-7.1920004,-1.1830001,5.691902,0,3,1,17
322201626,1585465794400221,372458374,1266737774,43803,61804,0.192,0.013495757,0.79800004,1.0530001,0.74,0.96999997,105,154,13.191001,11.059001,-7.1910005,-1.296,5.70666,0,3,1,17
322404937,1585465794600221,372458573,1266737618,44059,62060,0.22000001,0.016029801,0.79800004,1.052,0.74,0.96999997,105,154,12.912001,11.0720005,-6.643,-1.4070001,5.742783,0,3,1,17
322592958,1585465794800221,372458774,1266737471,44360,62360,0.187,0.015148585,0.79800004,1.051,0.74,0.96999997,105,154,12.867001,11.175,-6.3770003,-1.3440001,5.7646084,0,3,1,17
322799518,1585465795000221,372458978,1266737328,44569,62570,0.20400001,0.013150357,0.79800004,1.049,0.74,0.96999997,105,154,13.104001,11.526001,-6.234,-1.005,5.7874255,0,3,1,17
322999519,1585465795200221,372459187,1266737192,44771,62771,0.186,0.015880575,0.79800004,1.049,0.74,0.96999997,105,154,13.127001,11.758,-5.8350005,-1.082,5.8225493,0,3,1,17
323206575,1585465795400221,372459401,1266737059,44964,62964,0.19700001,0.013878683,0.79800004,1.047,0.74,0.96999997,105,146,13.361001,11.994,-5.887,-0.809,5.8269086,0,3,1,17
323403972,1585465795600221,372459619,1266736929,45150,63150,0.18,0.013698739,0.79800004,1.046,0.74,0.96999997,105,146,13.374001,12.102,-5.6930003,-0.63000005,5.8434396,0,3,1,17
323604098,1585465795800221,372459839,1266736801,45258,63258,0.20700002,0.015929794,0.79800004,1.046,0.74,0.96999997,105,146,13.5720005,12.353001,-5.6210003,-0.642,5.8561707,0,3,1,17
323811529,1585465796000221,372460061,1266736676,45377,63377,0.20500001,0.0156168565,0.79800004,1.046,0.74,0.96999997,105,146,13.466001,12.312,-5.4540005,-0.587,5.86615,0,3,1,17
324001594,1585465796200221,372460283,1266736554,45488,63488,0.186,0.014227225,0.79800004,1.0450001,0.74,0.96999997,105,146,13.455001,12.349001,-5.3420005,-0.42800003,5.8748603,0,3,1,17
324197045,1585465796400221,372460508,1266736434,45595,63596,0.21300001,0.014696021,0.79800004,1.044,0.74,0.96999997,105,150,13.651001,12.597,-5.26,-0.611,5.887611,0,3,1,17
324402533,1585465796600221,372460735,1266736317,45766,63767,0.186,0.013422628,0.79800004,1.0430001,0.74,0.96999997,105,150,13.6050005,12.618001,-5.089,-0.87700003,5.8998213,0,3,1,17
324602014,1585465796800221,372460963,1266736201,45913,63913,0.21400002,0.0144131025,0.79800004,1.042,0.74,0.96999997,105,150,13.736001,12.725,-5.1720004,-0.804,5.8971195,0,3,1,17
324802516,1585465797000221,372461194,1266736085,46055,64055,0.224,0.014127043,0.79800004,1.042,0.74,0.96999997,105,150,13.799001,12.844001,-5.044,-0.545,5.908976,0,3,1,17
325003516,1585465797200221,372461425,1266735971,46150,64151,0.18400002,0.013210222,0.799,1.0400001,0.74,0.96999997,105,150,13.837001,12.887001,-5.038,-0.47700003,5.9105,0,3,1,17
325178863,1585465797400221,372461658,1266735857,46256,64256,0.185,0.014074683,0.79800004,1.0400001,0.74,0.96999997,105,149,13.853001,12.904,-5.039,-0.53300005,5.9108973,0,3,1,17
325399600,1585465797600221,372461890,1266735744,46375,64375,0.22700001,0.014638948,0.799,1.0400001,0.74,0.96999997,105,149,13.873001,12.940001,-5.0030003,-0.702,5.914276,0,3,1,17
325604127,1585465797800221,372462123,1266735630,46558,64558,0.185,0.012462349,0.799,1.039,0.74,0.96999997,105,149,13.876,12.93,-5.0350003,-0.84300005,5.911826,0,3,1,17
325812880,1585465798000221,372462356,1266735516,46751,64751,0.208,0.011489153,0.79800004,1.0370001,0.74,0.96999997,105,149,13.835001,12.892,-5.0200005,-1.024,5.9118466,0,3,1,17
325987758,1585465798200221,372462587,1266735403,46978,64978,0.21300001,0.0139781665,0.79800004,1.0370001,0.74,0.96999997,105,149,13.693001,12.771001,-4.939,-1.2340001,5.9141283,0,3,1,17
326213226,1585465798400221,372462816,1266735290,47241,65240,0.224,0.013332744,0.79800004,1.036,0.74,0.96999997,106,154,13.678,12.726001,-5.0140004,-1.3560001,5.90788,0,3,1,17
326405800,1585465798600221,372463045,1266735178,47504,65504,0.20300001,0.013794732,0.799,1.036,0.74,0.96999997,106,154,13.628,12.6970005,-4.9500003,-1.218,5.9114747,0,3,1,17
326606568,1585465798800221,372463273,1266735065,47739,65739,0.22600001,0.014280109,0.799,1.036,0.74,0.96999997,106,154,13.571001,12.621,-4.9880004,-1.09,5.906801,0,3,1,17
326807578,1585465799000221,372463500,1266734953,47905,65904,0.18400002,0.012704949,0.799,1.0350001,0.74,0.96999997,106,154,13.524,12.582001,-4.96,-0.73800004,5.907669,0,3,1,17
327006197,1585465799200221,372463727,1266734840,48060,66060,0.21300001,0.014040824,0.799,1.0350001,0.74,0.96999997,106,154,13.547001,12.589001,-5.004,-0.9620001,5.9048114,0,3,1,17
327203522,1585465799400221,372463953,1266734727,48288,66288,0.216,0.014353238,0.799,1.0350001,0.74,0.96999997,106,106,13.407001,12.463,-4.9430003,-1.087,5.905627,0,3,1,17
327414873,1585465799600221,372464175,1266734615,48525,66525,0.21400002,0.014331073,0.799,1.0350001,0.74,0.96999997,106,106,13.224001,12.265,-4.9440002,-1.0170001,5.8999667,0,3,1,17
327604271,1585465799800221,372464396,1266734502,48711,66710,0.21000001,0.01417504,0.8,1.0350001,0.74,0.96999997,106,106,13.200001,12.200001,-5.039,-0.855,5.891498,0,3,1,17
327803732,1585465800000221,372464613,1266734388,48901,66900,0.186,0.01397485,0.8,1.034,0.74,0.96999997,106,106,13.001,11.981001,-5.0480003,-0.79700005,5.8844514,0,3,1,17
328015448,1585465800200221,372464829,1266734271,49098,67098,0.21300001,0.01419162,0.8,1.034,0.74,0.96999997,106,106,13.014001,11.9140005,-5.235,-0.998,5.869169,0,3,1,17
328214562,1585465800400221,372465042,1266734149,49329,67328,0.192,0.013957571,0.8,1.033,0.74,0.96999997,106,145,12.934001,11.715,-5.4820004,-1.095,5.845538,0,3,1,17
328402513,1585465800600221,372465252,1266734022,49565,67564,0.21200001,0.014260386,0.8,1.033,0.74,0.96999997,106,145,12.9800005,11.690001,-5.642,-1.13,5.833554,0,3,1,17
328602524,1585465800800221,372465464,1266733892,49765,67765,0.20700002,0.013718985,0.8,1.033,0.74,0.96999997,106,145,13.148001,11.773001,-5.853,-0.837,5.8218412,0,3,1,17
328804587,1585465801000221,372465676,1266733758,49923,67923,0.17600001,0.013450204,0.8,1.0320001,0.74,0.96999997,106,145,13.146001,11.740001,-5.9160004,-0.683,5.816364,0,3,1,17
329000522,1585465801200221,372465888,1266733621,50130,68129,0.179,0.013332918,0.8,1.0320001,0.74,0.96999997,106,145,13.258,11.779,-6.0850005,-1.118,5.8063364,0,3,1,17
329208549,1585465801400221,372466099,1266733483,50370,68370,0.194,0.0136186285,0.8,1.0320001,0.78,1.0,106,138,13.137001,11.647,-6.077,-1.2370001,5.8023086,0,3,1,16
329409736,1585465801600221,372466309,1266733344,50636,68635,0.208,0.012806527,0.799,1.031,0.78,1.0,106,138,13.206,11.654,-6.2120004,-1.2820001,5.793458,0,3,1,16
329601657,1585465801800221,372466517,1266733205,50856,68856,0.179,0.013884966,0.799,1.031,0.78,1.0,106,138,12.948001,11.457001,-6.032,-0.80500007,5.7985635,0,3,1,16
329804513,1585465802000221,372466723,1266733070,51011,69010,0.23400001,0.0144515,0.8,1.0320001,0.78,1.0,106,138,12.870001,11.439,-5.899,-0.73200005,5.8070474,0,3,1,16
330003527,1585465802200221,372466930,1266732935,51136,69135,0.18900001,0.012856094,0.8,1.031,0.78,1.0,106,138,13.029,11.570001,-5.992,-0.49500003,5.8053474,0,3,1,16
330203523,1585465802400221,372467139,1266732798,51215,69214,0.172,0.012420635,0.799,1.0300001,0.74,0.96999997,106,179,13.2300005,11.72,-6.1380005,-0.19000001,5.800735,0,3,1,17
330378437,1585465802600221,372467352,1266732658,51216,69216,0.172,0.012397771,0.799,1.028,0.74,0.96999997,106,179,13.399,11.870001,-6.216,0.25100002,5.800779,0,3,1,17
330604515,1585465802800221,372467567,1266732514,51202,69201,0.18,0.014011502,0.799,1.028,0.74,0.96999997,106,179,13.649001,12.031,-6.446,0.064,5.791368,0,3,1,17
330808362,1585465803000221,372467786,1266732363,51303,69302,0.179,0.013488951,0.799,1.028,0.74,0.96999997,106,179,13.965001,12.225,-6.7500005,-0.748,5.7786756,0,3,1,17
331007742,1585465803200221,372468006,1266732208,51498,69497,0.22500001,0.013784959,0.799,1.028,0.74,0.96999997,106,179,14.041,12.210001,-6.9340005,-1.126,5.7666736,0,3,1,17
331206516,1585465803400221,372468225,1266732051,51741,69740,0.19800001,0.013555972,0.8,1.028,0.78,1.0,106,145,13.9800005,12.123,-6.9620004,-1.2160001,5.7618914,0,3,1,16
331402533,1585465803600221,372468443,1266731893,52026,70025,0.2,0.012691336,0.8,1.028,0.78,1.0,106,145,13.953001,12.068001,-7.005,-1.493,5.7572546,0,3,1,16
331602517,1585465803800221,372468661,1266731733,52323,70321,0.19900002,0.012659396,0.8,1.028,0.78,1.0,106,145,14.035001,12.141001,-7.0410004,-1.2800001,5.757631,0,3,1,16
331803620,1585465804000221,372468882,1266731572,52573,70572,0.22900002,0.013591053,0.80100006,1.029,0.78,1.0,106,145,14.323001,12.384001,-7.1970005,-1.179,5.756759,0,3,1,16
332002516,1585465804200221,372469106,1266731407,52829,70827,0.2,0.01299764,0.80100006,1.029,0.78,1.0,106,145,14.5720005,12.551001,-7.4030004,-1.3470001,5.7503085,0,3,1,16
332202612,1585465804400220,372469332,1266731239,53116,71114,0.2,0.012944583,0.80200005,1.029,0.78,1.0,106,154,14.612,12.554001,-7.477,-1.5280001,5.746018,0,3,1,16
332402605,1585465804600220,372469557,1266731070,53468,71467,0.18300001,0.012827297,0.80200005,1.029,0.78,1.0,106,154,14.459001,12.400001,-7.4360003,-1.5760001,5.7429976,0,3,1,16
332603999,1585465804800220,372469778,1266730901,53848,71846,0.18800001,0.0131836925,0.80200005,1.029,0.78,1.0,106,154,14.271001,12.132001,-7.5160003,-2.0,5.7285028,0,3,1,16
332804154,1585465805000220,372469994,1266730732,54181,72179,0.187,0.012589059,0.80200005,1.029,0.78,1.0,106,154,14.066001,11.945001,-7.4280005,-1.2870001,5.7268457,0,3,1,16
332992516,1585465805200220,372470208,1266730566,54406,72404,0.19700001,0.012813334,0.80200005,1.029,0.78,1.0,106,154,13.866001,11.790001,-7.2990003,-1.1290001,5.728842,0,3,1,16
333202560,1585465805400220,372470416,1266730404,54639,72637,0.18400002,0.013067279,0.80200005,1.029,0.78,1.0,106,168,13.486001,11.434001,-7.1520004,-1.1220001,5.7241893,0,3,1,16
333402542,1585465805600220,372470622,1266730243,54787,72785,0.19900002,0.013322621,0.80200005,1.0300001,0.78,1.0,106,168,13.437,11.400001,-7.1130004,-0.367,5.7252975,0,3,1,16
333604995,1585465805800220,372470826,1266730084,54866,72864,0.21000001,0.013399416,0.80200005,1.0300001,0.74,0.96999997,106,168,13.278001,11.281,-7.0030003,-0.555,5.7276053,0,3,1,17
333814866,1585465806000220,372471030,1266729926,55006,73004,0.19900002,0.013551259,0.80300003,1.031,0.74,0.96999997,106,168,13.315001,11.3550005,-6.9540005,-0.85400003,5.7337017,0,3,1,17
334007524,1585465806200220,372471233,1266729769,55170,73168,0.18,0.013517051,0.80300003,1.031,0.71,0.96999997,106,168,13.181001,11.2300005,-6.9,-0.64100003,5.732243,0,3,1,18
334207516,1585465806400220,372471434,1266729613,55276,73274,0.179,0.013448459,0.80300003,1.031,0.71,0.96999997,106,136,13.1,11.141001,-6.892,-0.266,5.7291956,0,3,1,18
334407596,1585465806600220,372471635,1266729456,55335,73333,0.23200001,0.014847166,0.80300003,1.0320001,0.71,0.96999997,106,136,13.135,11.124001,-6.985,-0.351,5.7224784,0,3,1,18
334612563,1585465806800220,372471837,1266729299,55396,73394,0.22600001,0.013660517,0.804,1.033,0.71,0.96999997,106,136,13.247001,11.291,-6.9280005,-0.163,5.7328477,0,3,1,18
334808787,1585465807000220,372472040,1266729142,55459,73457,0.18200001,0.0133507205,0.804,1.033,0.71,0.96999997,106,136,13.269001,11.295,-6.964,-0.35500002,5.730686,0,3,1,18
334985282,1585465807200220,372472244,1266728984,55501,73499,0.18100001,0.014207852,0.80500007,1.033,0.71,0.96999997,106,136,13.378,11.422001,-6.965,-0.095000006,5.7355957,0,3,1,18
335189946,1585465807400220,372472450,1266728828,55536,73534,0.19000001,0.014848562,0.80500007,1.034,0.71,0.96999997,106,146,13.353001,11.462001,-6.8500004,-0.14500001,5.7445135,0,3,1,18
335402183,1585465807600220,372472659,1266728677,55572,73570,0.19000001,0.016465086,0.80600005,1.0350001,0.75,1.0,106,146,13.456,11.724001,-6.604,-0.19100001,5.7701635,0,3,1,17
335598557,1585465807800220,372472871,1266728531,55603,73601,0.20400001,0.016479049,0.80700004,1.036,0.75,1.0,106,146,13.425,11.829,-6.347,-0.078,5.790693,0,3,1,17
335790948,1585465808000220,372473086,1266728391,55617,73615,0.202,0.015765384,0.808,1.0370001,0.75,1.0,106,146,13.455001,12.032001,-6.0220003,0.134,5.8191667,0,3,1,17
336004516,1585465808200220,372473304,1266728259,55575,73573,0.19900002,0.0140966745,0.808,1.036,0.75,1.0,106,146,13.476001,12.219001,-5.6840005,0.33,5.8477793,0,3,1,17
336191722,1585465808400220,372473527,1266728135,55558,73556,0.193,0.012363213,0.80700004,1.0350001,0.75,1.0,106,149,13.475,12.439,-5.182,0.095000006,5.888414,0,3,1,17
336409723,1585465808600220,372473754,1266728024,55561,73559,0.208,0.012342619,0.80700004,1.034,0.75,1.0,106,149,13.629001,12.797001,-4.688,-0.048,5.9319954,0,3,1,17
336608144,1585465808800220,372473988,1266727925,55593,73591,0.20600002,0.012271933,0.80600005,1.033,0.71,0.96999997,106,149,13.812,13.207001,-4.043,-0.18100001,5.9860916,0,3,1,18
336809154,1585465809000220,372474229,1266727841,55658,73655,0.20300001,0.012236154,0.80600005,1.033,0.71,0.96999997,106,149,13.950001,13.551001,-3.315,-0.437,6.043257,0,3,1,18
337009195,1585465809200220,372474477,1266727773,55768,73766,0.215,0.012620999,0.80600005,1.033,0.71,0.96999997,106,149,14.175001,13.909,-2.736,-0.45600003,6.0889554,0,3,1,18
337209939,1585465809400220,372474729,1266727719,55850,73848,0.20500001,0.012366705,0.80500007,1.033,0.71,0.96999997,106,130,14.283001,14.130001,-2.0860002,-0.179,6.1366234,0,3,1,18
337413392,1585465809600220,372474986,1266727677,55833,73831,0.201,0.012361817,0.80500007,1.0320001,0.71,0.96999997,106,130,14.410001,14.330001,-1.5230001,0.372,6.177277,0,3,1,18
337605747,1585465809800220,372475247,1266727648,55760,73758,0.2,0.012197756,0.80500007,1.0320001,0.71,0.96999997,106,130,14.725,14.690001,-1.01,0.47800002,6.2145133,0,3,1,18
337815683,1585465810000220,372475515,1266727635,55694,73691,0.186,0.0121200895,0.804,1.031,0.71,0.96999997,106,130,15.067,15.066001,-0.215,0.45600003,6.268894,0,3,1,18
338004525,1585465810200220,372475789,1266727639,55618,73616,0.186,0.012435121,0.80300003,1.031,0.71,0.96999997,106,130,15.298,15.288001,0.57000005,0.45800003,0.037267663,0,3,1,18
338199328,1585465810400220,372476067,1266727660,55544,73541,0.171,0.011117921,0.80200005,1.029,0.71,0.96999997,106,153,15.726001,15.668001,1.345,0.35300002,0.08566459,0,3,1,18
338389876,1585465810600220,372476351,1266727705,55509,73506,0.17500001,0.011108147,0.80100006,1.028,0.71,0.96999997,106,153,16.067001,15.886001,2.404,-0.039,0.15017912,0,3,1,18
338592555,1585465810800220,372476638,1266727771,55535,73533,0.16900001,0.010771473,0.799,1.0270001,0.71,0.96999997,106,153,16.36,16.014,3.3460002,-0.133,0.20595023,0,3,1,18
338789944,1585465811000220,372476926,1266727855,55582,73579,0.16800001,0.010226058,0.79800004,1.026,0.71,0.96999997,106,153,16.524,15.992001,4.1600003,-0.082,0.25451088,0,3,1,18
338999563,1585465811200220,372477215,1266727956,55643,73641,0.162,0.010102314,0.79600006,1.024,0.71,0.96999997,106,153,16.810001,16.059,4.9680004,-0.098000005,0.3000465,0,3,1,18
339203562,1585465811400220,372477504,1266728076,55708,73706,0.164,0.011169758,0.795,1.023,0.71,0.96999997,106,149,17.023,16.016,5.769,-0.193,0.34575894,0,3,1,18
339386778,1585465811600220,372477792,1266728217,55755,73752,0.163,0.011047933,0.794,1.0220001,0.71,0.96999997,106,149,17.248001,15.929001,6.6150002,-0.43400002,0.3936169,0,3,1,18
339607584,1585465811800220,372478079,1266728375,55854,73852,0.156,0.010665008,0.794,1.021,0.71,0.96999997,106,149,17.537,15.925001,7.3450003,-0.33200002,0.4321332,0,3,1,18
339819523,1585465812000220,372478365,1266728549,55911,73909,0.15900001,0.011658799,0.79300004,1.0200001,0.71,0.96999997,106,149,17.728,15.778001,8.083,-0.393,0.4734448,0,3,1,18
339987362,1585465812200220,372478647,1266728741,55989,73987,0.15900001,0.010606016,0.79300004,1.0200001,0.71,0.96999997,106,149,17.942001,15.604001,8.856,-0.30100003,0.5162186,0,3,1,18
340212059,1585465812400220,372478927,1266728948,56077,74075,0.155,0.01096154,0.79200006,1.0200001,0.71,0.96999997,106,138,18.229,15.511001,9.577001,-0.31500003,0.55315346,0,3,1,18
340408822,1585465812600220,372479204,1266729175,56167,74165,0.14600001,0.010763968,0.791,1.018,0.71,0.96999997,106,138,18.489,15.284,10.405001,-0.50200003,0.5977058,0,3,1,18
340608589,1585465812800220,372479477,1266729417,56251,74248,0.14400001,0.010734472,0.791,1.0170001,0.71,0.96999997,106,138,18.616001,15.062,10.941001,-0.29200003,0.62824625,0,3,1,18
340805040,1585465813000220,372479747,1266729671,56335,74333,0.143,0.01041944,0.79,1.016,0.71,0.96999997,106,138,18.904001,14.910001,11.621,-0.35000002,0.6620763,0,3,1,18
341014851,1585465813200220,372480012,1266729940,56401,74399,0.14500001,0.010433926,0.78900003,1.014,0.71,0.96999997,106,138,18.931002,14.525001,12.142,-0.155,0.69628805,0,3,1,18
341210558,1585465813400220,372480271,1266730222,56434,74431,0.148,0.010189581,0.78800005,1.013,0.71,0.96999997,105,146,19.151001,14.247001,12.798,0.003,0.73185736,0,3,1,18
341411509,1585465813600220,372480525,1266730517,56439,74437,0.15200001,0.010058506,0.78700006,1.013,0.71,0.96999997,105,146,19.317001,13.998001,13.311001,0.047000002,0.76025474,0,3,1,18
341604546,1585465813800220,372480774,1266730825,56395,74393,0.15100001,0.0099927075,0.78700006,1.013,0.71,0.96999997,105,146,19.495,13.6380005,13.931001,0.23900001,0.7960291,0,3,1,18
341811279,1585465814000220,372481018,1266731147,56360,74358,0.163,0.009897413,0.786,1.0120001,0.71,0.96999997,105,146,19.822,13.457001,14.554001,0.254,0.8245371,0,3,1,18
342004519,1585465814200220,372481259,1266731481,56321,74319,0.16600001,0.010258172,0.785,1.0120001,0.71,0.96999997,105,146,20.044,13.228001,15.059001,0.254,0.85002506,0,3,1,18
342212517,1585465814400219,372481496,1266731827,56321,74320,0.165,0.010534458,0.785,1.011,0.71,0.96999997,105,143,20.321001,13.1,15.535001,0.15100001,0.8702206,0,3,1,18
342404516,1585465814600219,372481729,1266732184,56290,74288,0.16900001,0.01069433,0.785,1.011,0.71,0.96999997,105,143,20.536001,12.864,16.008001,0.19600001,0.89387137,0,3,1,18
342608978,1585465814800219,372481959,1266732549,56252,74250,0.177,0.0116865495,0.785,1.0120001,0.71,0.96999997,105,143,20.666,12.607,16.375,0.23600002,0.9146628,0,3,1,18
342804518,1585465815000219,372482184,1266732923,56228,74226,0.187,0.011579909,0.786,1.013,0.74,0.96999997,105,143,20.858002,12.393001,16.777,0.149,0.93458325,0,3,1,17
343003577,1585465815200219,372482406,1266733306,56192,74191,0.18200001,0.011254231,0.78700006,1.014,0.74,0.96999997,105,143,21.056002,12.179001,17.176,0.19700001,0.95401853,0,3,1,17
343205885,1585465815400219,372482624,1266733698,56144,74143,0.18400002,0.011448487,0.78800005,1.0150001,0.71,0.96999997,105,153,21.286001,11.981001,17.594002,0.43,0.97293323,0,3,1,18
343380956,1585465815600219,372482838,1266734100,56066,74064,0.18200001,0.011057532,0.78900003,1.016,0.71,0.96999997,105,153,21.623001,11.828001,18.101002,0.582,0.9920062,0,3,1,18
343604135,1585465815800219,372483050,1266734513,55957,73955,0.18300001,0.011109892,0.79,1.0170001,0.71,0.96999997,105,153,21.815,11.636001,18.453001,0.638,1.0081941,0,3,1,18
343813271,1585465816000219,372483259,1266734931,55851,73849,0.20400001,0.011026291,0.791,1.019,0.71,0.96999997,105,153,22.02,11.6050005,18.714,0.56600004,1.0157111,0,3,1,18
344003526,1585465816200219,372483467,1266735357,55768,73767,0.202,0.010699741,0.79200006,1.0220001,0.71,0.96999997,105,153,22.216002,11.425,19.053001,0.51600003,1.0306537,0,3,1,18
344215017,1585465816400219,372483672,1266735789,55674,73673,0.18400002,0.01097463,0.794,1.023,0.71,0.96999997,105,140,22.301,11.258,19.25,0.409,1.0415998,0,3,1,18
344407565,1585465816600219,372483874,1266736225,55707,73706,0.18400002,0.01071667,0.794,1.023,0.71,0.96999997,105,140,22.473001,11.137,19.519001,-0.574,1.0523106,0,3,1,18
344587768,1585465816800219,372484071,1266736667,55889,73888,0.18400002,0.010772521,0.795,1.024,0.71,0.96999997,105,140,22.351002,10.698001,19.625,-1.2900001,1.0717256,0,3,1,18
344787517,1585465817000219,372484260,1266737109,56203,74202,0.18300001,0.010755416,0.79600006,1.0250001,0.71,0.96999997,105,140,22.169,10.34,19.61,-1.383,1.0855564,0,3,1,18
345012764,1585465817200219,372484444,1266737549,56420,74419,0.18800001,0.010762746,0.79700005,1.026,0.71,0.96999997,105,140,21.916,10.033001,19.485,-0.76000005,1.095304,0,3,1,18
345213566,1585465817400219,372484622,1266737988,56534,74533,0.21400002,0.010223266,0.79800004,1.028,0.71,0.96999997,105,137,21.799002,9.786,19.479,-0.446,1.1052234,0,3,1,18
345413904,1585465817600219,372484796,1266738429,56628,74627,0.209,0.010561161,0.799,1.031,0.71,0.96999997,105,137,21.852001,9.493,19.682001,-0.462,1.1214035,0,3,1,18
345589225,1585465817800219,372484966,1266738876,56727,74726,0.20700002,0.010027265,0.8,1.033,0.71,0.96999997,105,137,22.027,9.343,19.947,-0.41700003,1.1327624,0,3,1,18
345799669,1585465818000219,372485133,1266739326,56787,74786,0.21000001,0.010607064,0.80100006,1.0350001,0.71,0.96999997,105,137,22.019001,9.2630005,19.976002,-0.07300001,1.1366185,0,3,1,18
345996513,1585465818200219,372485298,1266739776,56913,74912,0.19700001,0.0101932455,0.80200005,1.0370001,0.71,0.96999997,105,137,21.958,9.021001,20.019001,-1.046,1.1474164,0,3,1,18
346204526,1585465818400219,372485460,1266740227,57163,75162,0.201,0.009456368,0.80200005,1.039,0.71,0.96999997,105,143,21.852001,8.977,19.923,-1.2850001,1.1474394,0,3,1,18
346389210,1585465818600219,372485621,1266740674,57419,75418,0.18800001,0.009501398,0.80200005,1.039,0.71,0.96999997,105,143,21.623001,8.806001,19.748001,-1.034,1.1513282,0,3,1,18
346588460,1585465818800219,372485778,1266741117,57624,75623,0.18300001,0.009484293,0.80200005,1.0380001,0.71,0.96999997,105,143,21.408,8.681001,19.568,-0.86300004,1.1532439,0,3,1,18
346789169,1585465819000219,372485936,1266741557,57780,75779,0.19500001,0.009823934,0.80100006,1.0400001,0.71,0.96999997,105,143,21.399,8.813001,19.5,-0.592,1.146334,0,3,1,18
347007581,1585465819200219,372486095,1266741996,57876,75876,0.18,0.0093921395,0.80100006,1.0400001,0.71,0.96999997,105,143,21.332,8.794001,19.435001,-0.409,1.1458853,0,3,1,18
347207791,1585465819400219,372486252,1266742433,57914,75914,0.17500001,0.009481152,0.80100006,1.0380001,0.71,0.96999997,106,114,21.193,8.688001,19.330002,0.006,1.1483904,0,3,1,18
347406793,1585465819600219,372486411,1266742869,57911,75911,0.16900001,0.009397375,0.8,1.0370001,0.71,0.96999997,106,114,21.27,8.804001,19.363,-0.031000001,1.1440276,0,3,1,18
347603667,1585465819800219,372486572,1266743305,57894,75894,0.17,0.009703856,0.799,1.036,0.71,0.96999997,106,114,21.212002,9.001,19.208,0.171,1.1325684,0,3,1,18
347811507,1585465820000219,372486735,1266743738,57868,75868,0.17600001,0.00977681,0.799,1.0350001,0.71,0.96999997,106,114,21.157001,8.917001,19.186,0.12200001,1.1357094,0,3,1,18
348007761,1585465820200219,372486897,1266744173,57851,75851,0.17600001,0.009917833,0.79800004,1.034,0.71,0.96999997,106,114,21.267,8.984,19.276001,0.069000006,1.1346827,0,3,1,18
348206518,1585465820400219,372487060,1266744608,57805,75805,0.18900001,0.010196736,0.79800004,1.034,0.71,0.96999997,106,136,21.216002,8.933001,19.244001,0.34,1.1362072,0,3,1,18
348389648,1585465820600219,372487222,1266745044,57735,75736,0.18300001,0.009772796,0.79800004,1.034,0.71,0.96999997,106,136,21.354,8.974,19.377,0.45800003,1.1370949,0,3,1,18
348582119,1585465820800219,372487384,1266745483,57647,75647,0.185,0.009941744,0.79800004,1.0350001,0.71,0.96999997,106,136,21.479,8.96,19.521002,0.42200002,1.1404765,0,3,1,18
348807521,1585465821000219,372487547,1266745924,57575,75575,0.18,0.009571385,0.79800004,1.0350001,0.71,0.96999997,106,136,21.698002,9.121,19.688002,0.37800002,1.1369662,0,3,1,18
349007519,1585465821200219,372487709,1266746370,57511,75512,0.16900001,0.009416575,0.79800004,1.033,0.71,0.96999997,106,136,21.692001,8.900001,19.782001,0.024,1.1480119,0,3,1,18
349207524,1585465821400219,372487869,1266746817,57568,75569,0.15200001,0.009373639,0.79700005,1.031,0.71,0.96999997,106,143,21.725,8.849,19.842001,-0.22600001,1.1512941,0,3,1,18
349403528,1585465821600219,372488026,1266747266,57632,75633,0.15300001,0.010335664,0.79700005,1.0300001,0.71,0.96999997,106,143,21.746,8.5130005,20.011002,-0.379,1.1685853,0,3,1,18
349603694,1585465821800219,372488178,1266747718,57577,75578,0.147,0.009865299,0.79600006,1.028,0.71,0.96999997,106,143,21.720001,8.419001,20.022001,0.68100005,1.1727687,0,3,1,18
349812283,1585465822000219,372488329,1266748171,57411,75412,0.14600001,0.009939649,0.79600006,1.0270001,0.71,0.96999997,106,143,21.839,8.328,20.188002,1.013,1.1795623,0,3,1,18
350003606,1585465822200219,372488475,1266748633,57229,75230,0.16700001,0.010278767,0.79600006,1.026,0.71,0.96999997,106,143,22.179,7.964,20.7,0.827,1.2035292,0,3,1,18
350205178,1585465822400219,372488615,1266749104,57074,75075,0.17400001,0.010059728,0.79600006,1.0270001,0.71,0.96999997,106,132,22.344002,7.5880003,21.016,0.90500003,1.2243304,0,3,1,18
350413313,1585465822600219,372488744,1266749583,56909,74910,0.18100001,0.010043496,0.79700005,1.028,0.71,0.96999997,106,132,22.513,6.7260003,21.485,0.75200003,1.267407,0,3,1,18
350614005,1585465822800219,372488856,1266750076,56767,74769,0.18,0.010129192,0.79700005,1.029,0.71,0.96999997,106,132,22.916,5.7780004,22.176,0.43,1.3159,0,3,1,18
350807194,1585465823000219,372488950,1266750584,56741,74742,0.179,0.009570512,0.79800004,1.0300001,0.71,0.96999997,106,132,23.272001,4.663,22.799002,-0.069000006,1.3690382,0,3,1,18
351004523,1585465823200219,372489023,1266751102,56715,74716,0.18,0.009420239,0.79800004,1.031,0.71,0.96999997,106,132,23.342001,3.617,23.060001,0.284,1.415234,0,3,1,18
351199614,1585465823400219,372489081,1266751625,56604,74606,0.18,0.008248077,0.79800004,1.033,0.71,0.96999997,106,162,23.482,2.8850002,23.304,0.791,1.4476022,0,3,1,18
351408300,1585465823600219,372489121,1266752157,56546,74548,0.18,0.008124333,0.79700005,1.0350001,0.71,0.96999997,106,162,23.834002,1.7850001,23.767,0.16600001,1.495849,0,3,1,18
351608173,1585465823800219,372489142,1266752696,56541,74543,0.20500001,0.008211599,0.79700005,1.0380001,0.71,0.96999997,106,162,23.970001,0.67200005,23.960001,-0.20600002,1.5427591,0,3,1,18
351824175,1585465824000219,372489145,1266753238,56555,74557,0.20400001,0.008202349,0.79700005,1.041,0.71,0.96999997,106,162,24.091002,-0.164,24.090002,-0.009000001,1.577616,0,3,1,18
352004520,1585465824200219,372489131,1266753785,56554,74556,0.20300001,0.007876147,0.79700005,1.0430001,0.71,0.96999997,106,162,24.336,-1.2670001,24.303001,0.045,1.6228932,0,3,1,18
352206571,1585465824400218,372489096,1266754335,56567,74570,0.20700002,0.0074129365,0.79700005,1.047,0.71,0.96999997,106,142,24.591002,-2.4770002,24.466002,-0.24800001,1.6716979,0,3,1,18
352406529,1585465824600218,372489036,1266754887,56645,74647,0.21200001,0.0074085733,0.79700005,1.0500001,0.71,0.96999997,106,142,24.79,-4.0080004,24.464,-0.47500002,1.7331696,0,3,1,18
352602972,1585465824800218,372488952,1266755439,56742,74745,0.224,0.008034797,0.79800004,1.0550001,0.71,0.96999997,106,142,24.994001,-5.2170005,24.444,-0.43,1.7810647,0,3,1,18
352811274,1585465825000218,372488851,1266755989,56798,74800,0.22600001,0.008183848,0.799,1.0600001,0.71,0.96999997,106,142,25.101002,-5.918,24.394001,-0.075,1.8087937,0,3,1,18
353010704,1585465825200218,372488734,1266756538,56798,74801,0.23700002,0.008180707,0.80100006,1.0660001,0.71,0.96999997,106,142,25.308,-7.0910006,24.295002,0.13100001,1.8547808,0,3,1,18
353204524,1585465825400218,372488593,1266757084,56779,74782,0.23500001,0.008007221,0.80200005,1.0710001,0.71,0.96999997,106,140,25.565,-8.448,24.129002,-0.097,1.9075639,0,3,1,18
353408117,1585465825600218,372488431,1266757624,56772,74775,0.23,0.007962715,0.804,1.077,0.71,0.96999997,106,140,25.581001,-9.508,23.748001,-0.052,1.9515983,0,3,1,18
353607737,1585465825800218,372488248,1266758155,56777,74780,0.216,0.0077803284,0.80500007,1.082,0.71,0.96999997,106,140,25.708002,-10.701,23.376001,-0.020000001,2.0000951,0,3,1,18
353780980,1585465826000218,372488045,1266758677,56803,74806,0.194,0.00783007,0.80600005,1.0860001,0.71,0.96999997,106,140,25.733002,-11.695001,22.922,-0.07,2.0425658,0,3,1,18
354005902,1585465826200218,372487825,1266759190,56766,74770,0.193,0.007788357,0.80600005,1.09,0.71,0.96999997,106,140,25.851002,-12.571001,22.588001,0.163,2.0786316,0,3,1,18
354205792,1585465826400218,372487588,1266759693,56711,74714,0.186,0.0077839936,0.80700004,1.093,0.71,0.96999997,106,144,25.955002,-13.657001,22.071001,0.22900002,2.1249099,0,3,1,18
354389689,1585465826600218,372487333,1266760185,56646,74649,0.18400002,0.0078070317,0.80700004,1.0960001,0.71,0.96999997,106,144,26.050001,-14.543,21.612001,0.316,2.1631017,0,3,1,18
354614514,1585465826800218,372487064,1266760668,56547,74551,0.18,0.0077286665,0.80700004,1.098,0.71,0.96999997,106,144,26.135002,-15.291,21.195002,0.47900003,2.1957922,0,3,1,18
354790778,1585465827000218,372486781,1266761139,56450,74454,0.177,0.008066388,0.808,1.1,0.71,0.96999997,106,144,26.154001,-16.056002,20.645,0.565,2.2317982,0,3,1,18
355000515,1585465827200218,372486483,1266761597,56323,74327,0.17300001,0.00793287,0.808,1.1010001,0.74,0.96999997,106,144,26.164001,-16.982,19.904001,0.41400003,2.2771194,0,3,1,17
355217131,1585465827400218,372486170,1266762036,56281,74285,0.16600001,0.0080066975,0.808,1.103,0.77,0.97999996,106,148,26.076002,-17.682001,19.165,0.21900001,2.315959,0,3,1,16
355393115,1585465827600218,372485845,1266762459,56238,74242,0.164,0.008116479,0.809,1.1040001,0.77,0.97999996,106,148,25.93,-18.291,18.380001,0.21400002,2.3537438,0,3,1,16
355609579,1585465827800218,372485511,1266762865,56176,74180,0.16100001,0.007926238,0.809,1.1040001,0.77,0.97999996,106,148,25.752,-18.758001,17.643002,0.32500002,2.3868234,0,3,1,16
355818601,1585465828000218,372485168,1266763258,56078,74082,0.15900001,0.007738615,0.809,1.105,0.77,0.97999996,106,148,25.766,-19.166,17.221,0.65400004,2.4095802,0,3,1,16
356009938,1585465828200218,372484818,1266763640,55947,73951,0.164,0.0073115327,0.808,1.105,0.77,0.97999996,106,148,25.776001,-19.615002,16.723001,0.71300006,2.4356139,0,3,1,16
356187393,1585465828400218,372484460,1266764009,55807,73812,0.162,0.007355864,0.808,1.105,0.77,0.97999996,106,147,25.685001,-20.044,16.060001,0.68700004,2.4660947,0,3,1,16
356378113,1585465828600218,372484094,1266764364,55664,73669,0.17,0.0074378946,0.80700004,1.105,0.77,0.97999996,106,147,25.698002,-20.555,15.424001,0.62,2.4978542,0,3,1,16
356587772,1585465828800218,372483720,1266764706,55571,73576,0.16800001,0.0076797972,0.80700004,1.105,0.77,0.97999996,106,147,25.752,-20.95,14.976001,0.555,2.5209632,0,3,1,16
