timestamp,voltage_v,voltage_filtered_v,current_a,current_filtered_a,average_current_a,discharged_mah,remaining,scale,temperature,cell_count,capacity,cycle_count,run_time_to_empty,average_time_to_empty,serial_number,connected,system_source,priority,is_powering_off,warning
288320371,25.320257,25.320257,3.021613,1.1643821,0.0,75.47435,0.99469084,1.0,0.0,6,0,0,0,0,0,1,1,0,0,0
288813999,25.320257,25.320257,1.2075799,1.3094236,0.0,75.682785,0.994676,1.0,0.0,6,0,0,0,0,0,1,1,0,0,0
289319641,25.320257,25.320257,3.4751213,2.0213819,0.0,76.007126,0.994653,1.0,0.0,6,0,0,0,0,0,1,1,0,0,0
289825206,25.320257,25.320257,5.254269,3.8894348,0.0,76.72044,0.994602,1.0,0.0,6,0,0,0,0,0,1,1,0,0,0
290330867,25.320257,25.320257,8.673024,5.9307046,0.0,77.735725,0.99452966,1.0,0.0,6,0,0,0,0,0,1,1,0,0,0
290822847,25.320257,25.320257,7.9404335,7.0461974,0.0,78.81968,0.9944521,1.0,0.0,6,0,0,0,0,0,1,1,0,0,0
291328488,25.320257,25.320257,8.324171,7.565691,0.0,79.93737,0.9943724,1.0,0.0,6,0,0,0,0,0,1,1,0,0,0
291834001,25.320257,25.320257,7.591581,7.7775235,0.0,81.05236,0.99429274,1.0,0.0,6,0,0,0,0,0,1,1,0,0,0
292327671,25.320257,25.320257,7.975319,7.93124,0.0,82.15538,0.9942139,1.0,0.0,6,0,0,0,0,0,1,1,0,0,0
292832396,25.320257,25.320257,8.11486,7.9952326,0.0,83.28341,0.9941333,1.0,0.0,6,0,0,0,0,0,1,1,0,0,0
293336433,25.320257,25.320257,7.975319,7.9802504,0.0,84.3997,0.99405354,1.0,0.0,6,0,0,0,0,0,1,1,0,0,0
293829242,25.320257,25.320257,8.463713,7.984585,0.0,85.49093,0.9939756,1.0,0.0,6,0,0,0,0,0,1,1,0,0,0
294333221,25.320257,25.320257,8.149745,8.098112,0.0,86.63649,0.9938938,1.0,0.0,6,0,0,0,0,0,1,1,0,0,0
294838870,24.745218,25.306448,66.40812,14.03211,0.0,88.81359,0.99373823,1.0,0.0,6,0,0,0,0,0,1,1,0,0,0
295332403,25.215143,25.29003,41.32562,28.794935,0.0,94.454765,0.99333495,1.0,0.0,6,0,0,0,0,0,1,1,0,0,0
295838007,25.320257,25.280436,39.825554,35.511887,0.0,100.14877,0.99292827,1.0,0.0,6,0,0,0,0,0,1,1,0,0,0
296343610,25.289341,25.273699,42.686146,38.995716,0.0,105.981125,0.99251163,1.0,0.0,6,0,0,0,0,0,1,1,0,0,0
296835660,25.320257,25.273642,39.755783,40.08287,0.0,111.58229,0.99211144,1.0,0.0,6,0,0,0,0,0,1,1,0,0,0
297340481,25.24606,25.261696,42.232635,40.69709,0.0,117.31933,0.9917017,1.0,0.0,6,0,0,0,0,0,1,1,0,0,0
297845196,25.140944,25.227924,49.419,43.77824,0.0,123.702156,0.9912457,1.0,0.0,6,0,0,0,0,0,1,1,0,0,0
298349205,24.8627,25.170715,58.942673,48.48281,0.0,130.87552,0.99073315,1.0,0.0,6,0,0,0,0,0,1,1,0,0,0
298842054,24.454607,25.013882,92.53717,60.817963,0.0,140.22462,0.9900652,1.0,0.0,6,0,0,0,0,0,1,1,0,0,0
299346110,24.751402,24.952835,64.48943,61.844807,0.0,149.05702,0.98943436,1.0,0.0,6,0,0,0,0,0,1,1,0,0,0
299850861,24.992548,24.905243,60.407856,61.440346,0.0,157.66547,0.9888195,1.0,0.0,6,0,0,0,0,0,1,1,0,0,0
300344471,24.800867,24.896532,60.059002,58.96266,0.0,165.53183,0.9882574,1.0,0.0,6,0,0,0,0,0,1,1,0,0,0
300848477,24.65247,24.881926,56.675133,58.113876,0.0,173.64151,0.98767805,1.0,0.0,6,0,0,0,0,0,1,1,0,0,0
301353998,24.67102,24.88467,59.814804,56.725433,0.0,181.42857,0.9871217,1.0,0.0,6,0,0,0,0,0,1,1,0,0,0
301847620,24.837967,24.824478,66.54766,62.176544,0.0,190.56009,0.9864694,1.0,0.0,6,0,0,0,0,0,1,1,0,0,0
302353216,24.8256,24.773754,63.407986,65.35035,0.0,200.0686,0.9857902,1.0,0.0,6,0,0,0,0,0,1,1,0,0,0
302858892,24.436058,24.708536,79.73428,70.012215,0.0,210.24199,0.9850636,1.0,0.0,6,0,0,0,0,0,1,1,0,0,0
303350862,24.572088,24.658804,68.88497,70.10924,0.0,219.84177,0.9843778,1.0,0.0,6,0,0,0,0,0,1,1,0,0,0
303855631,24.800867,24.609617,66.861626,72.63167,0.0,230.29259,0.9836312,1.0,0.0,6,0,0,0,0,0,1,1,0,0,0
304360406,24.893616,24.58713,65.88484,71.941765,0.0,240.35664,0.9829122,1.0,0.0,6,0,0,0,0,0,1,1,0,0,0
304864412,24.300028,24.586714,79.73428,69.99064,0.0,249.83176,0.98223525,1.0,0.0,6,0,0,0,0,0,1,1,0,0,0
305358003,24.355677,24.534193,76.17599,72.08224,0.0,259.94385,0.9815129,1.0,0.0,6,0,0,0,0,0,1,1,0,0,0
305863631,24.442242,24.52433,70.629234,71.46182,0.0,269.9435,0.9807988,1.0,0.0,6,0,0,0,0,0,1,1,0,0,0
306368519,24.522623,24.500673,75.68759,72.69949,0.0,280.1515,0.98006976,1.0,0.0,6,0,0,0,0,0,1,1,0,0,0
306872443,24.547356,24.50033,68.60589,71.395256,0.0,290.05014,0.9793626,1.0,0.0,6,0,0,0,0,0,1,1,0,0,0
307366159,24.454607,24.507994,63.966152,69.930786,0.0,299.48145,0.9786889,1.0,0.0,6,0,0,0,0,0,1,1,0,0,0
307871592,24.578272,24.528513,63.791725,68.31466,0.0,308.85605,0.9780192,1.0,0.0,6,0,0,0,0,0,1,1,0,0,0
308376437,24.38041,24.479334,79.106346,73.48545,0.0,319.63324,0.9772496,1.0,0.0,6,0,0,0,0,0,1,1,0,0,0
308868513,24.479342,24.465343,65.91972,73.21734,0.0,329.68127,0.97653204,1.0,0.0,6,0,0,0,0,0,1,1,0,0,0
309374160,24.67102,24.454283,64.90805,71.509125,0.0,339.6224,0.97582215,1.0,0.0,6,0,0,0,0,0,1,1,0,0,0
309879680,24.398958,24.456732,77.606285,70.90591,0.0,349.46817,0.97511876,1.0,0.0,6,0,0,0,0,0,1,1,0,0,0
310373168,24.32476,24.441877,76.3853,71.52845,0.0,359.36713,0.97441167,1.0,0.0,6,0,0,0,0,0,1,1,0,0,0
310877253,24.76995,24.476824,56.954212,67.34618,0.0,368.57852,0.9737538,1.0,0.0,6,0,0,0,0,0,1,1,0,0,0
311382786,24.819418,24.531765,62.11723,62.872517,0.0,376.94458,0.97315633,1.0,0.0,6,0,0,0,0,0,1,1,0,0,0
311876603,24.76995,24.573002,59.570606,61.058895,0.0,385.11615,0.97257274,1.0,0.0,6,0,0,0,0,0,1,1,0,0,0
312382067,24.504074,24.59879,57.33795,59.72482,0.0,393.36078,0.9719839,1.0,0.0,6,0,0,0,0,0,1,1,0,0,0
312887666,24.850334,24.64241,43.9769,56.04441,0.0,400.95526,0.9714416,1.0,0.0,6,0,0,0,0,0,1,1,0,0,0
313379671,24.745218,24.695047,50.3609,51.440758,0.0,407.43848,0.97097874,1.0,0.0,6,0,0,0,0,0,1,1,0,0,0
313885257,24.615372,24.707964,55.00064,51.028053,0.0,414.5445,0.97047126,1.0,0.0,6,0,0,0,0,0,1,1,0,0,0
314390038,24.739035,24.718767,55.419266,51.606674,0.0,421.8132,0.9699521,1.0,0.0,6,0,0,0,0,0,1,1,0,0,0
314882876,24.72667,24.69455,53.779655,54.36474,0.0,429.5348,0.9694006,1.0,0.0,6,0,0,0,0,0,1,1,0,0,0
315386915,24.578272,24.641176,58.105423,59.804443,0.0,438.4117,0.9687664,1.0,0.0,6,0,0,0,0,0,1,1,0,0,0
315891563,24.34331,24.572815,71.11763,63.84024,0.0,447.84143,0.9680928,1.0,0.0,6,0,0,0,0,0,1,1,0,0,0
316383678,24.42369,24.550974,48.511982,61.155304,0.0,456.02835,0.967508,1.0,0.0,6,0,0,0,0,0,1,1,0,0,0
316889234,24.84415,24.594751,50.988834,56.70969,0.0,463.53876,0.96697164,1.0,0.0,6,0,0,0,0,0,1,1,0,0,0
317394013,24.973997,24.646948,45.442078,52.491066,0.0,470.53494,0.96647185,1.0,0.0,6,0,0,0,0,0,1,1,0,0,0
317887632,24.8998,24.690212,48.372444,50.413986,0.0,477.23636,0.9659933,1.0,0.0,6,0,0,0,0,0,1,1,0,0,0
318391641,25.023464,24.776861,39.54647,44.644516,0.0,482.95618,0.9655847,1.0,0.0,6,0,0,0,0,0,1,1,0,0,0
318897110,24.76995,24.837284,39.162735,41.645924,0.0,488.50827,0.96518815,1.0,0.0,6,0,0,0,0,0,1,1,0,0,0
319390685,24.745218,24.899391,49.209686,40.541042,0.0,493.69766,0.9648175,1.0,0.0,6,0,0,0,0,0,1,1,0,0,0
319892300,25.184227,24.887491,27.162207,43.319317,0.0,500.2964,0.9643461,1.0,0.0,6,0,0,0,0,0,1,1,0,0,0
320397840,25.320257,25.020393,19.73165,29.967453,0.0,503.09073,0.96414673,1.0,0.0,6,0,0,0,0,0,1,1,0,0,0
320901902,25.320257,25.12264,12.475515,20.535152,0.0,504.97693,0.96401197,1.0,0.0,6,0,0,0,0,0,1,1,0,0,0
321407585,25.314074,25.18902,17.219912,18.773697,0.0,507.3778,0.9638404,1.0,0.0,6,0,0,0,0,0,1,1,0,0,0
321901036,25.320257,25.218822,16.522205,18.843414,0.0,509.96228,0.963656,1.0,0.0,6,0,0,0,0,0,1,1,0,0,0
322406611,25.320257,25.25199,16.55709,17.525242,0.0,512.3236,0.9634875,1.0,0.0,6,0,0,0,0,0,1,1,0,0,0
322912265,25.320257,25.264961,19.801418,19.4207,0.0,515.2015,0.96328187,1.0,0.0,6,0,0,0,0,0,1,1,0,0,0
323405942,25.320257,25.265322,15.580304,20.120674,0.0,518.128,0.9630727,1.0,0.0,6,0,0,0,0,0,1,1,0,0,0
323922009,25.320257,25.280828,18.126928,17.905905,0.0,520.4413,0.9629076,1.0,0.0,6,0,0,0,0,0,1,1,0,0,0
324415456,25.320257,25.288607,20.045616,18.896568,0.0,523.1125,0.96271676,1.0,0.0,6,0,0,0,0,0,1,1,0,0,0
324920259,25.320257,25.29247,16.27801,18.71067,0.0,525.71094,0.96253115,1.0,0.0,6,0,0,0,0,0,1,1,0,0,0
325425906,25.320257,25.292109,16.661747,18.601608,0.0,528.35834,0.96234196,1.0,0.0,6,0,0,0,0,0,1,1,0,0,0
325917849,25.320257,25.301342,17.498993,16.824638,0.0,530.47656,0.9621905,1.0,0.0,6,0,0,0,0,0,1,1,0,0,0
326423456,25.320257,25.306467,16.138468,16.474155,0.0,532.7751,0.9620263,1.0,0.0,6,0,0,0,0,0,1,1,0,0,0
326928253,25.320257,25.308697,15.336107,16.561144,0.0,535.0857,0.9618611,1.0,0.0,6,0,0,0,0,0,1,1,0,0,0
327421080,25.320257,25.310982,13.208107,15.163431,0.0,537.038,0.9617215,1.0,0.0,6,0,0,0,0,0,1,1,0,0,0
327925958,25.320257,25.314184,16.41755,15.395199,0.0,539.1769,0.9615687,1.0,0.0,6,0,0,0,0,0,1,1,0,0,0
328431492,25.320257,25.312222,21.72011,17.461065,0.0,541.8283,0.9613793,1.0,0.0,6,0,0,0,0,0,1,1,0,0,0
328925068,25.320257,25.310871,15.615189,18.59505,0.0,544.57294,0.96118325,1.0,0.0,6,0,0,0,0,0,1,1,0,0,0
329430712,25.320257,25.31411,11.5685,14.849243,0.0,546.29565,0.9610603,1.0,0.0,6,0,0,0,0,0,1,1,0,0,0
329936234,25.227509,25.30854,26.255192,17.684774,0.0,548.9193,0.9608728,1.0,0.0,6,0,0,0,0,0,1,1,0,0,0
330429867,25.091478,25.276424,37.27893,23.592758,0.0,552.61835,0.9606086,1.0,0.0,6,0,0,0,0,0,1,1,0,0,0
330933836,25.320257,25.26613,15.057025,22.258713,0.0,555.8574,0.9603773,1.0,0.0,6,0,0,0,0,0,1,1,0,0,0
331439459,25.215143,25.277441,22.103846,20.85598,0.0,558.5455,0.96018535,1.0,0.0,6,0,0,0,0,0,1,1,0,0,0
331944289,25.270792,25.25728,23.080633,25.540936,0.0,562.6681,0.9598909,1.0,0.0,6,0,0,0,0,0,1,1,0,0,0
332436253,25.320257,25.274193,5.2891545,18.85137,0.0,564.70264,0.9597454,1.0,0.0,6,0,0,0,0,0,1,1,0,0,0
332941885,25.320257,25.290068,4.940302,10.572062,0.0,565.30176,0.9597027,1.0,0.0,6,0,0,0,0,0,1,1,0,0,0
333447439,25.320257,25.300472,12.789484,11.0485115,0.0,566.8147,0.95959455,1.0,0.0,6,0,0,0,0,0,1,1,0,0,0
333940236,25.320257,25.307165,15.894271,12.015216,0.0,568.55206,0.95947045,1.0,0.0,6,0,0,0,0,0,1,1,0,0,0
334445936,25.320257,25.309141,17.60365,14.788699,0.0,570.8949,0.95930296,1.0,0.0,6,0,0,0,0,0,1,1,0,0,0
334949857,25.320257,25.312181,13.208107,15.219023,0.0,573.1373,0.959143,1.0,0.0,6,0,0,0,0,0,1,1,0,0,0
335443469,25.320257,25.314802,9.859122,13.493154,0.0,574.8542,0.95902026,1.0,0.0,6,0,0,0,0,0,1,1,0,0,0
335949181,25.320257,25.316685,9.475385,11.159081,0.0,576.1618,0.9589268,1.0,0.0,6,0,0,0,0,0,1,1,0,0,0
336454643,25.320257,25.317467,13.6965,11.98759,0.0,577.89453,0.958803,1.0,0.0,6,0,0,0,0,0,1,1,0,0,0
336959538,25.320257,25.31825,16.41755,13.585198,0.0,579.9572,0.9586556,1.0,0.0,6,0,0,0,0,0,1,1,0,0,0
337451482,25.320257,25.318888,18.092043,15.309119,0.0,582.20685,0.9584948,1.0,0.0,6,0,0,0,0,0,1,1,0,0,0
337957003,25.320257,25.315186,21.371256,17.28524,0.0,584.8029,0.9583095,1.0,0.0,6,0,0,0,0,0,1,1,0,0,0
338462693,25.320257,25.312817,12.615058,16.398964,0.0,587.13275,0.95814306,1.0,0.0,6,0,0,0,0,0,1,1,0,0,0
338968241,25.320257,25.315386,15.824501,15.472229,0.0,589.1807,0.9579968,1.0,0.0,6,0,0,0,0,0,1,1,0,0,0
339460303,25.320257,25.31704,14.987255,15.1540985,0.0,591.2114,0.9578517,1.0,0.0,6,0,0,0,0,0,1,1,0,0,0
339965184,25.320257,25.316977,17.708303,16.008041,0.0,593.5374,0.95768553,1.0,0.0,6,0,0,0,0,0,1,1,0,0,0
340470673,25.320257,25.317352,13.138336,14.821183,0.0,595.52576,0.9575433,1.0,0.0,6,0,0,0,0,0,1,1,0,0,0
340976380,25.320257,25.318008,11.324304,13.002396,0.0,597.18243,0.9574249,1.0,0.0,6,0,0,0,0,0,1,1,0,0,0
341469064,25.320257,25.31803,14.638403,13.59695,0.0,599.05084,0.9572914,1.0,0.0,6,0,0,0,0,0,1,1,0,0,0
341973078,25.320257,25.31756,17.67342,15.456818,0.0,601.41583,0.95712245,1.0,0.0,6,0,0,0,0,0,1,1,0,0,0
342477905,25.320257,25.317886,17.533878,15.899518,0.0,603.67346,0.95696104,1.0,0.0,6,0,0,0,0,0,1,1,0,0,0
342981863,25.320257,25.317015,17.464108,16.750021,0.0,606.0886,0.95678866,1.0,0.0,6,0,0,0,0,0,1,1,0,0,0
343474647,25.320257,25.310892,21.475912,18.426006,0.0,608.76117,0.9565977,1.0,0.0,6,0,0,0,0,0,1,1,0,0,0
343980245,25.320257,25.312016,17.60365,18.130077,0.0,611.3602,0.9564121,1.0,0.0,6,0,0,0,0,0,1,1,0,0,0
344485943,25.320257,25.314203,2.5332196,12.810946,0.0,612.73956,0.9563135,1.0,0.0,6,0,0,0,0,0,1,1,0,0,0
344990195,25.320257,25.3163,11.428958,8.174338,0.0,613.2899,0.95627415,1.0,0.0,6,0,0,0,0,0,1,1,0,0,0
345483404,25.320257,25.316202,18.47578,12.346537,0.0,615.38855,0.95612425,1.0,0.0,6,0,0,0,0,0,1,1,0,0,0
345989126,25.320257,25.317604,3.579777,10.765271,0.0,616.8662,0.95601875,1.0,0.0,6,0,0,0,0,0,1,1,0,0,0
346494644,25.320257,25.318523,7.2078433,6.933501,0.0,617.36536,0.95598304,1.0,0.0,6,0,0,0,0,0,1,1,0,0,0
346988219,25.320257,25.319115,10.277745,7.7801805,0.0,618.50696,0.95590144,1.0,0.0,6,0,0,0,0,0,1,1,0,0,0
347493808,25.320257,25.319513,9.266073,8.870696,0.0,619.87823,0.95580333,1.0,0.0,6,0,0,0,0,0,1,1,0,0,0
347997855,25.320257,25.319778,9.3707285,8.817659,0.0,621.1276,0.9557141,1.0,0.0,6,0,0,0,0,0,1,1,0,0,0
348491480,25.320257,25.319944,11.742927,10.5168705,0.0,622.72253,0.9556,1.0,0.0,6,0,0,0,0,0,1,1,0,0,0
348996326,25.320257,25.32005,6.3705974,9.712326,0.0,624.0599,0.95550454,1.0,0.0,6,0,0,0,0,0,1,1,0,0,0
349501836,25.320257,25.32013,12.4057455,8.217104,0.0,624.9943,0.9554379,1.0,0.0,6,0,0,0,0,0,1,1,0,0,0
350005894,25.320257,25.320185,10.347516,9.45451,0.0,626.49445,0.9553309,1.0,0.0,6,0,0,0,0,0,1,1,0,0,0
350499473,25.320257,25.320185,12.580172,11.277129,0.0,628.22675,0.95520717,1.0,0.0,6,0,0,0,0,0,1,1,0,0,0
351005120,25.320257,25.320185,13.6965,10.921648,0.0,629.6986,0.95510197,1.0,0.0,6,0,0,0,0,0,1,1,0,0,0
351509900,25.320257,25.320007,9.998664,12.201227,0.0,631.63336,0.95496386,1.0,0.0,6,0,0,0,0,0,1,1,0,0,0
352013894,25.320257,25.320087,15.929156,13.723785,0.0,633.646,0.9548201,1.0,0.0,6,0,0,0,0,0,1,1,0,0,0
352519413,25.320257,25.319788,16.312893,14.435713,0.0,635.7702,0.95466834,1.0,0.0,6,0,0,0,0,0,1,1,0,0,0
353013045,25.320257,25.315582,13.103451,17.29599,0.0,638.40625,0.9544802,1.0,0.0,6,0,0,0,0,0,1,1,0,0,0
353517866,25.320257,25.316406,13.626729,15.401321,0.0,640.4156,0.954337,1.0,0.0,6,0,0,0,0,0,1,1,0,0,0
354023502,25.295525,25.317493,18.47578,16.19305,0.0,642.7008,0.9541737,1.0,0.0,6,0,0,0,0,0,1,1,0,0,0
354527519,25.320257,25.315928,17.394337,17.26622,0.0,645.24243,0.9539922,1.0,0.0,6,0,0,0,0,0,1,1,0,0,0
355033030,25.320257,25.316854,10.347516,15.405233,0.0,647.27954,0.9538468,1.0,0.0,6,0,0,0,0,0,1,1,0,0,0
355538761,25.320257,25.318033,15.301222,13.512483,0.0,648.9427,0.9537281,1.0,0.0,6,0,0,0,0,0,1,1,0,0,0
356032408,25.320257,25.316519,16.382666,15.179175,0.0,651.1544,0.9535701,1.0,0.0,6,0,0,0,0,0,1,1,0,0,0
356537921,25.320257,25.317451,16.766403,15.482634,0.0,653.38135,0.9534113,1.0,0.0,6,0,0,0,0,0,1,1,0,0,0
357043494,25.320257,25.318426,8.777679,13.6419,0.0,655.1465,0.95328504,1.0,0.0,6,0,0,0,0,0,1,1,0,0,0
357547504,25.320257,25.319006,14.4290905,12.627892,0.0,656.75385,0.9531703,1.0,0.0,6,0,0,0,0,0,1,1,0,0,0
358041100,25.320257,25.319437,14.463976,14.244161,0.0,658.8809,0.95301837,1.0,0.0,6,0,0,0,0,0,1,1,0,0,0
358546657,25.320257,25.319681,10.835909,13.520994,0.0,660.74023,0.9528855,1.0,0.0,6,0,0,0,0,0,1,1,0,0,0
359052265,25.320257,25.319883,6.893876,10.80555,0.0,662.00354,0.9527953,1.0,0.0,6,0,0,0,0,0,1,1,0,0,0
359557815,25.320257,25.320019,8.603253,8.503098,0.0,662.93726,0.9527286,1.0,0.0,6,0,0,0,0,0,1,1,0,0,0
360051406,25.320257,25.320097,11.3940735,9.847913,0.0,664.4334,0.9526219,1.0,0.0,6,0,0,0,0,0,1,1,0,0,0
360557048,25.320257,25.320177,10.452171,9.962642,0.0,665.834,0.9525218,1.0,0.0,6,0,0,0,0,0,1,1,0,0,0
361061010,25.320257,25.320185,2.3936784,7.0717764,0.0,666.6043,0.9524667,1.0,0.0,6,0,0,0,0,0,1,1,0,0,0
361553853,25.320257,25.320185,4.521679,5.9683146,0.0,667.27795,0.95241845,1.0,0.0,6,0,0,0,0,0,1,1,0,0,0
362060115,25.320257,25.320185,4.277482,4.474397,0.0,667.76605,0.9523837,1.0,0.0,6,0,0,0,0,0,1,1,0,0,0
362565067,25.320257,25.320185,12.440631,6.7930546,0.0,668.8871,0.9523036,1.0,0.0,6,0,0,0,0,0,1,1,0,0,0
363057060,25.320257,25.320185,13.173221,10.426732,0.0,670.6805,0.9521755,1.0,0.0,6,0,0,0,0,0,1,1,0,0,0
363562767,25.320257,25.320185,14.743057,12.446676,0.0,672.6507,0.9520346,1.0,0.0,6,0,0,0,0,0,1,1,0,0,0
364069384,25.320257,25.320164,7.521811,11.9292,0.0,674.31476,0.9519156,1.0,0.0,6,0,0,0,0,0,1,1,0,0,0
364561840,25.320257,25.320185,7.3124986,9.9254,0.0,675.4574,0.951834,1.0,0.0,6,0,0,0,0,0,1,1,0,0,0
365067528,25.320257,25.320185,8.04509,8.2079,0.0,676.44836,0.951763,1.0,0.0,6,0,0,0,0,0,1,1,0,0,0
365573008,25.320257,25.320185,9.894008,8.376267,0.0,677.6146,0.9516797,1.0,0.0,6,0,0,0,0,0,1,1,0,0,0
366066617,25.320257,25.320185,13.836041,11.614059,0.0,679.5072,0.9515445,1.0,0.0,6,0,0,0,0,0,1,1,0,0,0
366570619,25.320257,25.320118,10.591713,12.380214,0.0,681.38214,0.9514106,1.0,0.0,6,0,0,0,0,0,1,1,0,0,0
367076271,25.320257,25.320185,13.522074,11.666287,0.0,682.91626,0.95130074,1.0,0.0,6,0,0,0,0,0,1,1,0,0,0
367581811,25.320257,25.320185,12.8243685,12.953327,0.0,684.89154,0.9511597,1.0,0.0,6,0,0,0,0,0,1,1,0,0,0
368076111,25.320257,25.320185,13.626729,13.9797,0.0,686.9186,0.951015,1.0,0.0,6,0,0,0,0,0,1,1,0,0,0
368581093,25.320257,25.320185,12.649942,13.444036,0.0,688.7683,0.9508828,1.0,0.0,6,0,0,0,0,0,1,1,0,0,0
369086648,25.320257,25.320017,14.254664,14.252936,0.0,690.8192,0.9507364,1.0,0.0,6,0,0,0,0,0,1,1,0,0,0
369580193,25.320257,25.317186,18.022272,15.138445,0.0,692.97437,0.9505826,1.0,0.0,6,0,0,0,0,0,1,1,0,0,0
370084269,25.320257,25.31646,13.138336,15.193448,0.0,695.14545,0.9504277,1.0,0.0,6,0,0,0,0,0,1,1,0,0,0
370589832,25.320257,25.317532,15.196566,14.856762,0.0,697.1781,0.95028275,1.0,0.0,6,0,0,0,0,0,1,1,0,0,0
371083439,25.320257,25.317698,15.336107,15.378057,0.0,699.3452,0.95012796,1.0,0.0,6,0,0,0,0,0,1,1,0,0,0
371589096,25.320257,25.318586,13.591845,14.770816,0.0,701.37177,0.9499833,1.0,0.0,6,0,0,0,0,0,1,1,0,0,0
372093857,25.295525,25.318396,20.429354,15.586475,0.0,703.5985,0.94982433,1.0,0.0,6,0,0,0,0,0,1,1,0,0,0
372585944,25.320257,25.318447,12.89414,15.01229,0.0,705.65845,0.94967705,1.0,0.0,6,0,0,0,0,0,1,1,0,0,0
373091554,25.320257,25.319078,10.835909,12.853872,0.0,707.2507,0.9495633,1.0,0.0,6,0,0,0,0,0,1,1,0,0,0
373596256,25.301708,25.318907,15.650074,14.199642,0.0,709.3373,0.9494144,1.0,0.0,6,0,0,0,0,0,1,1,0,0,0
374101001,25.320257,25.31849,15.4407625,14.926524,0.0,711.519,0.9492585,1.0,0.0,6,0,0,0,0,0,1,1,0,0,0
374593780,25.320257,25.319092,11.603385,14.186624,0.0,713.39954,0.9491244,1.0,0.0,6,0,0,0,0,0,1,1,0,0,0
375098722,25.320257,25.319498,11.603385,13.488454,0.0,715.24506,0.9489925,1.0,0.0,6,0,0,0,0,0,1,1,0,0,0
375604266,25.320257,25.319767,12.161549,11.5120325,0.0,716.6521,0.94889176,1.0,0.0,6,0,0,0,0,0,1,1,0,0,0
376097900,25.320257,25.319462,15.02214,12.061836,0.0,718.33514,0.94877166,1.0,0.0,6,0,0,0,0,0,1,1,0,0,0
376603410,25.320257,25.319513,12.161549,13.122544,0.0,720.3069,0.9486308,1.0,0.0,6,0,0,0,0,0,1,1,0,0,0
377107453,25.320257,25.319778,13.103451,13.06565,0.0,722.10205,0.94850254,1.0,0.0,6,0,0,0,0,0,1,1,0,0,0
377601040,25.320257,25.318514,18.99906,15.349905,0.0,724.4055,0.9483381,1.0,0.0,6,0,0,0,0,0,1,1,0,0,0
378106680,25.320257,25.319035,12.056893,14.261319,0.0,726.3546,0.94819885,1.0,0.0,6,0,0,0,0,0,1,1,0,0,0
378612312,25.320257,25.319407,17.15014,14.751558,0.0,728.4537,0.94804895,1.0,0.0,6,0,0,0,0,0,1,1,0,0,0
379105944,25.320257,25.318335,11.987123,14.360813,0.0,730.42615,0.9479083,1.0,0.0,6,0,0,0,0,0,1,1,0,0,0
379611453,25.320257,25.319004,9.928893,11.125971,0.0,731.6787,0.94781876,1.0,0.0,6,0,0,0,0,0,1,1,0,0,0
380117076,25.320257,25.319445,12.545287,10.883345,0.0,733.1622,0.9477127,1.0,0.0,6,0,0,0,0,0,1,1,0,0,0
380609032,25.320257,25.319721,6.928761,11.156355,0.0,734.76636,0.94759816,1.0,0.0,6,0,0,0,0,0,1,1,0,0,0
381114702,25.320257,25.31991,8.986991,9.226006,0.0,735.8173,0.94752294,1.0,0.0,6,0,0,0,0,0,1,1,0,0,0
381620265,25.320257,25.320032,11.045221,9.267923,0.0,737.0943,0.9474318,1.0,0.0,6,0,0,0,0,0,1,1,0,0,0
382113823,25.320257,25.32011,11.533614,10.867664,0.0,738.7467,0.94731385,1.0,0.0,6,0,0,0,0,0,1,1,0,0,0
382619486,25.320257,25.320185,12.754598,10.699081,0.0,740.2187,0.9472086,1.0,0.0,6,0,0,0,0,0,1,1,0,0,0
383124254,25.320257,25.320185,15.370992,11.823679,0.0,741.96436,0.9470839,1.0,0.0,6,0,0,0,0,0,1,1,0,0,0
383616244,25.320257,25.319761,15.4407625,12.807959,0.0,743.8088,0.9469521,1.0,0.0,6,0,0,0,0,0,1,1,0,0,0
384121914,25.320257,25.319937,12.684828,12.759859,0.0,745.63763,0.9468213,1.0,0.0,6,0,0,0,0,0,1,1,0,0,0
384627412,25.320257,25.320045,8.324171,10.6130085,0.0,746.9225,0.9467295,1.0,0.0,6,0,0,0,0,0,1,1,0,0,0
385132296,25.320257,25.320126,14.463976,11.055502,0.0,748.46924,0.94661903,1.0,0.0,6,0,0,0,0,0,1,1,0,0,0
385624287,25.320257,25.319681,14.568631,13.462541,0.0,750.5564,0.94647,1.0,0.0,6,0,0,0,0,0,1,1,0,0,0
386129869,25.320257,25.319483,15.929156,14.900942,0.0,752.78973,0.94631046,1.0,0.0,6,0,0,0,0,0,1,1,0,0,0
386634682,25.320257,25.317963,16.033813,16.254803,0.0,755.2254,0.94613653,1.0,0.0,6,0,0,0,0,0,1,1,0,0,0
387128309,25.314074,25.31785,16.452435,15.985891,0.0,757.3789,0.94598264,1.0,0.0,6,0,0,0,0,0,1,1,0,0,0
387632904,25.320257,25.316658,17.08037,16.666193,0.0,759.78,0.94581115,1.0,0.0,6,0,0,0,0,0,1,1,0,0,0
388137828,25.320257,25.31657,14.95237,16.538263,0.0,762.12445,0.94564354,1.0,0.0,6,0,0,0,0,0,1,1,0,0,0
388631405,25.320257,25.317379,15.336107,15.572698,0.0,764.1705,0.9454975,1.0,0.0,6,0,0,0,0,0,1,1,0,0,0
389137047,25.320257,25.318192,14.184894,15.292975,0.0,766.2959,0.9453458,1.0,0.0,6,0,0,0,0,0,1,1,0,0,0
389641898,25.320257,25.31865,13.905811,14.991104,0.0,768.3625,0.94519806,1.0,0.0,6,0,0,0,0,0,1,1,0,0,0
390133856,25.320257,25.319199,13.103451,14.316831,0.0,770.2523,0.9450631,1.0,0.0,6,0,0,0,0,0,1,1,0,0,0
390639502,25.320257,25.318834,16.871058,15.127189,0.0,772.4485,0.94490606,1.0,0.0,6,0,0,0,0,0,1,1,0,0,0
391144332,25.320257,25.318375,17.778076,17.017796,0.0,775.01074,0.944723,1.0,0.0,6,0,0,0,0,0,1,1,0,0,0
391637839,25.320257,25.318096,13.905811,16.25322,0.0,777.18585,0.9445677,1.0,0.0,6,0,0,0,0,0,1,1,0,0,0
392143539,25.320257,25.318628,12.440631,15.40683,0.0,779.2748,0.94441855,1.0,0.0,6,0,0,0,0,0,1,1,0,0,0
392647403,25.320257,25.318504,15.231452,14.679759,0.0,781.23004,0.944279,1.0,0.0,6,0,0,0,0,0,1,1,0,0,0
393141065,25.24606,25.315584,15.057025,15.947606,0.0,783.55945,0.94411266,1.0,0.0,6,0,0,0,0,0,1,1,0,0,0
393645928,25.320257,25.3172,15.057025,14.767334,0.0,785.51624,0.9439728,1.0,0.0,6,0,0,0,0,0,1,1,0,0,0
394151492,25.320257,25.31826,9.545156,13.870294,0.0,787.3973,0.94383836,1.0,0.0,6,0,0,0,0,0,1,1,0,0,0
394644269,25.320257,25.31894,11.184762,13.229511,0.0,789.10944,0.943716,1.0,0.0,6,0,0,0,0,0,1,1,0,0,0
395149110,25.320257,25.319403,10.312631,11.469555,0.0,790.53687,0.94361395,1.0,0.0,6,0,0,0,0,0,1,1,0,0,0
395654669,25.320257,25.319698,12.161549,11.863963,0.0,792.23914,0.9434925,1.0,0.0,6,0,0,0,0,0,1,1,0,0,0
396147481,25.320257,25.319891,8.986991,11.12382,0.0,793.71655,0.94338685,1.0,0.0,6,0,0,0,0,0,1,1,0,0,0
396652206,25.320257,25.320023,8.359056,9.602938,0.0,794.90204,0.9433023,1.0,0.0,6,0,0,0,0,0,1,1,0,0,0
397156197,25.320257,25.320103,11.987123,10.332556,0.0,796.3977,0.9431955,1.0,0.0,6,0,0,0,0,0,1,1,0,0,0
397649837,25.320257,25.32018,7.3124986,9.472043,0.0,797.6555,0.9431055,1.0,0.0,6,0,0,0,0,0,1,1,0,0,0
398155453,25.320257,25.320185,10.870795,9.515261,0.0,798.94684,0.94301325,1.0,0.0,6,0,0,0,0,0,1,1,0,0,0
398661066,25.320257,25.320147,10.591713,10.79383,0.0,800.5898,0.94289595,1.0,0.0,6,0,0,0,0,0,1,1,0,0,0
399154635,25.320257,25.320074,17.185024,12.452614,0.0,802.4173,0.9427654,1.0,0.0,6,0,0,0,0,0,1,1,0,0,0
399660284,25.320257,25.31996,12.649942,13.584118,0.0,804.462,0.9426192,1.0,0.0,6,0,0,0,0,0,1,1,0,0,0
400164195,25.320257,25.31998,11.533614,13.526599,0.0,806.38806,0.9424818,1.0,0.0,6,0,0,0,0,0,1,1,0,0,0
400657862,25.320257,25.320066,11.812696,12.483468,0.0,807.96405,0.9423693,1.0,0.0,6,0,0,0,0,0,1,1,0,0,0
401163496,25.320257,25.319954,15.4407625,13.350907,0.0,809.93915,0.94222814,1.0,0.0,6,0,0,0,0,0,1,1,0,0,0
401669064,25.320257,25.320055,10.835909,11.831738,0.0,811.458,0.9421197,1.0,0.0,6,0,0,0,0,0,1,1,0,0,0
402161970,25.320257,25.320133,8.84745,10.613653,0.0,812.7991,0.942024,1.0,0.0,6,0,0,0,0,0,1,1,0,0,0
402665949,25.320257,25.320185,9.161417,10.038105,0.0,814.1307,0.941929,1.0,0.0,6,0,0,0,0,0,1,1,0,0,0
403171500,25.320257,25.320185,3.8588588,7.5629253,0.0,814.9866,0.94186795,1.0,0.0,6,0,0,0,0,0,1,1,0,0,0
403677026,25.320257,25.320185,8.638139,6.9580817,0.0,815.8387,0.9418071,1.0,0.0,6,0,0,0,0,0,1,1,0,0,0
404170723,25.320257,25.320185,5.672892,6.736846,0.0,816.7808,0.9417398,1.0,0.0,6,0,0,0,0,0,1,1,0,0,0
404676243,25.320257,25.320185,5.9868593,6.5701876,0.0,817.6927,0.9416744,1.0,0.0,6,0,0,0,0,0,1,1,0,0,0
405181907,25.320257,25.320185,6.928761,6.694831,0.0,818.63446,0.9416071,1.0,0.0,6,0,0,0,0,0,1,1,0,0,0
405675528,25.320257,25.320185,5.1496134,6.507782,0.0,819.5423,0.9415424,1.0,0.0,6,0,0,0,0,0,1,1,0,0,0
406181056,25.320257,25.320185,2.9518423,5.4052677,0.0,820.20917,0.9414945,1.0,0.0,6,0,0,0,0,0,1,1,0,0,0
406684996,25.320257,25.320185,3.1960392,4.528477,0.0,820.75586,0.9414554,1.0,0.0,6,0,0,0,0,0,1,1,0,0,0
407178724,25.320257,25.320185,6.9636464,5.8586154,0.0,821.67444,0.9413898,1.0,0.0,6,0,0,0,0,0,1,1,0,0,0
407684237,25.320257,25.320185,9.649811,7.4625454,0.0,822.8433,0.9413065,1.0,0.0,6,0,0,0,0,0,1,1,0,0,0
408189922,25.320257,25.320185,7.6264663,7.2125883,0.0,823.86066,0.9412337,1.0,0.0,6,0,0,0,0,0,1,1,0,0,0
408682749,25.320257,25.320185,14.219778,9.93598,0.0,825.45734,0.9411196,1.0,0.0,6,0,0,0,0,0,1,1,0,0,0
409186655,25.320257,25.320185,9.789352,10.622031,0.0,827.0438,0.9410064,1.0,0.0,6,0,0,0,0,0,1,1,0,0,0
409692246,25.320257,25.320185,11.5685,10.650899,0.0,828.53284,0.9409002,1.0,0.0,6,0,0,0,0,0,1,1,0,0,0
410185995,25.320257,25.320185,12.719713,12.066539,0.0,830.3092,0.9407733,1.0,0.0,6,0,0,0,0,0,1,1,0,0,0
410691472,25.320257,25.320185,3.8588588,7.917619,0.0,831.08386,0.94071805,1.0,0.0,6,0,0,0,0,0,1,1,0,0,0
411197074,25.320257,25.320185,6.6845646,6.5696397,0.0,831.84406,0.9406638,1.0,0.0,6,0,0,0,0,0,1,1,0,0,0
411690669,25.320257,25.320185,11.812696,9.097325,0.0,833.31903,0.9405584,1.0,0.0,6,0,0,0,0,0,1,1,0,0,0
412196226,25.320257,25.319809,11.917353,10.775948,0.0,835.0077,0.94043756,1.0,0.0,6,0,0,0,0,0,1,1,0,0,0
412701898,25.320257,25.31997,8.463713,9.715179,0.0,836.2967,0.9403453,1.0,0.0,6,0,0,0,0,0,1,1,0,0,0
413205916,25.320257,25.320063,13.277877,10.886907,0.0,837.8809,0.94023186,1.0,0.0,6,0,0,0,0,0,1,1,0,0,0
413699478,25.320257,25.32014,10.382401,10.627808,0.0,839.35443,0.94012654,1.0,0.0,6,0,0,0,0,0,1,1,0,0,0
414205073,25.320257,25.320185,3.7890887,9.079599,0.0,840.5407,0.94004166,1.0,0.0,6,0,0,0,0,0,1,1,0,0,0
414709896,25.320257,25.320185,14.533747,9.298389,0.0,841.7422,0.9399558,1.0,0.0,6,0,0,0,0,0,1,1,0,0,0
415203547,25.320257,25.318626,14.010468,13.579074,0.0,844.07495,0.9397893,1.0,0.0,6,0,0,0,0,0,1,1,0,0,0
415707439,25.320257,25.31846,17.81296,14.873346,0.0,846.2797,0.9396319,1.0,0.0,6,0,0,0,0,0,1,1,0,0,0
416213109,25.320257,25.310493,23.673681,17.854816,0.0,849.02155,0.93943614,1.0,0.0,6,0,0,0,0,0,1,1,0,0,0
416706715,25.320257,25.311249,12.196435,16.914305,0.0,851.33075,0.9392712,1.0,0.0,6,0,0,0,0,0,1,1,0,0,0
417211501,25.320257,25.314358,1.4866619,10.98946,0.0,852.3873,0.93919563,1.0,0.0,6,0,0,0,0,0,1,1,0,0,0
417716265,25.320257,25.315678,15.75473,10.358241,0.0,853.60547,0.9391085,1.0,0.0,6,0,0,0,0,0,1,1,0,0,0
418208327,25.320257,25.315222,13.905811,13.407344,0.0,855.7727,0.9389537,1.0,0.0,6,0,0,0,0,0,1,1,0,0,0
418713913,25.320257,25.316963,8.010203,9.75501,0.0,856.7867,0.93888134,1.0,0.0,6,0,0,0,0,0,1,1,0,0,0
419219506,25.320257,25.317879,17.81296,11.947751,0.0,858.5959,0.9387519,1.0,0.0,6,0,0,0,0,0,1,1,0,0,0
419725155,25.320257,25.314852,10.138205,15.046558,0.0,861.1591,0.9385687,1.0,0.0,6,0,0,0,0,0,1,1,0,0,0
420229946,25.320257,25.31672,8.428827,10.110832,0.0,862.0824,0.9385028,1.0,0.0,6,0,0,0,0,0,1,1,0,0,0
420721837,25.320257,25.317446,16.41755,12.171472,0.0,863.89453,0.93837357,1.0,0.0,6,0,0,0,0,0,1,1,0,0,0
421228172,25.320257,25.31618,15.789615,14.29083,0.0,866.1355,0.9382134,1.0,0.0,6,0,0,0,0,0,1,1,0,0,0
421733146,25.320257,25.31741,7.870663,11.592373,0.0,867.5604,0.93811154,1.0,0.0,6,0,0,0,0,0,1,1,0,0,0
422238682,25.320257,25.318396,7.1031876,9.804896,0.0,868.75684,0.93802613,1.0,0.0,6,0,0,0,0,0,1,1,0,0,0
422732270,25.320257,25.319033,4.2425966,7.645911,0.0,869.5833,0.9379672,1.0,0.0,6,0,0,0,0,0,1,1,0,0,0
423237058,25.320257,25.31946,9.614926,6.753432,0.0,870.3844,0.93791,1.0,0.0,6,0,0,0,0,0,1,1,0,0,0
423741030,25.320257,25.319738,10.696369,8.595177,0.0,871.7891,0.93780977,1.0,0.0,6,0,0,0,0,0,1,1,0,0,0
424246706,25.320257,25.319921,12.859254,9.644682,0.0,873.2408,0.9377062,1.0,0.0,6,0,0,0,0,0,1,1,0,0,0
424752258,25.320257,25.320038,9.614926,10.1234045,0.0,874.7419,0.9375989,1.0,0.0,6,0,0,0,0,0,1,1,0,0,0
425257814,25.320257,25.320118,6.8589907,8.8876705,0.0,875.8782,0.9375177,1.0,0.0,6,0,0,0,0,0,1,1,0,0,0
425750875,25.320257,25.320185,6.265941,7.5226297,0.0,876.76337,0.93745446,1.0,0.0,6,0,0,0,0,0,1,1,0,0,0
426254564,25.320257,25.320185,8.359056,7.318904,0.0,877.7514,0.9373839,1.0,0.0,6,0,0,0,0,0,1,1,0,0,0
426760314,25.320257,25.320185,11.149878,8.782309,0.0,879.11096,0.9372869,1.0,0.0,6,0,0,0,0,0,1,1,0,0,0
427253879,25.320257,25.320185,11.463844,10.64076,0.0,880.75415,0.93716973,1.0,0.0,6,0,0,0,0,0,1,1,0,0,0
427759442,25.320257,25.320185,13.522074,11.728666,0.0,882.486,0.93704593,1.0,0.0,6,0,0,0,0,0,1,1,0,0,0
428265072,25.320257,25.320185,10.312631,12.169918,0.0,884.2945,0.9369169,1.0,0.0,6,0,0,0,0,0,1,1,0,0,0
428758742,25.320257,25.320127,15.964041,12.852637,0.0,886.0723,0.9367902,1.0,0.0,6,0,0,0,0,0,1,1,0,0,0
429264263,25.215143,25.310007,25.801682,17.984211,0.0,889.0559,0.9365769,1.0,0.0,6,0,0,0,0,0,1,1,0,0,0
429768220,25.320257,25.307848,18.929287,19.24434,0.0,891.96423,0.9363692,1.0,0.0,6,0,0,0,0,0,1,1,0,0,0
430273828,25.320257,25.31113,16.382666,17.993092,0.0,894.40283,0.93619496,1.0,0.0,6,0,0,0,0,0,1,1,0,0,0
430779773,25.314074,25.308764,18.859518,19.112957,0.0,897.1422,0.9359991,1.0,0.0,6,0,0,0,0,0,1,1,0,0,0
431273089,25.320257,25.306702,12.440631,18.520243,0.0,899.7468,0.93581307,1.0,0.0,6,0,0,0,0,0,1,1,0,0,0
431778986,25.320257,25.311378,9.614926,14.390742,0.0,901.3767,0.9356967,1.0,0.0,6,0,0,0,0,0,1,1,0,0,0
432284247,25.320257,25.314444,14.394205,11.978982,0.0,902.76385,0.9355976,1.0,0.0,6,0,0,0,0,0,1,1,0,0,0
432789829,25.320257,25.316082,13.138336,12.659741,0.0,904.5932,0.935467,1.0,0.0,6,0,0,0,0,0,1,1,0,0,0
433283442,25.320257,25.3175,12.231319,13.214709,0.0,906.49304,0.9353312,1.0,0.0,6,0,0,0,0,0,1,1,0,0,0
433787440,25.320257,25.318457,13.487189,13.335395,0.0,908.33777,0.93519944,1.0,0.0,6,0,0,0,0,0,1,1,0,0,0
434293102,25.320257,25.319084,8.777679,12.099272,0.0,909.9709,0.93508285,1.0,0.0,6,0,0,0,0,0,1,1,0,0,0
434786668,25.320257,25.319485,9.3707285,10.431098,0.0,911.2052,0.93499464,1.0,0.0,6,0,0,0,0,0,1,1,0,0,0
435292215,25.320257,25.319757,17.498993,11.881474,0.0,912.9628,0.93486905,1.0,0.0,6,0,0,0,0,0,1,1,0,0,0
435796999,25.320257,25.31942,17.254797,14.16581,0.0,915.2157,0.9347081,1.0,0.0,6,0,0,0,0,0,1,1,0,0,0
436289826,25.320257,25.319704,12.789484,13.374965,0.0,916.9631,0.93458325,1.0,0.0,6,0,0,0,0,0,1,1,0,0,0
436794667,25.320257,25.318813,14.463976,14.574343,0.0,919.1242,0.9344288,1.0,0.0,6,0,0,0,0,0,1,1,0,0,0
437300286,25.320257,25.318455,14.28955,14.894724,0.0,921.26654,0.93427575,1.0,0.0,6,0,0,0,0,0,1,1,0,0,0
437793888,25.320257,25.31907,10.661484,14.094947,0.0,923.1414,0.9341418,1.0,0.0,6,0,0,0,0,0,1,1,0,0,0
438299404,25.320257,25.319246,16.068697,13.314205,0.0,924.8889,0.9340171,1.0,0.0,6,0,0,0,0,0,1,1,0,0,0
438805037,25.320257,25.319603,14.080238,14.475817,0.0,927.04724,0.93386304,1.0,0.0,6,0,0,0,0,0,1,1,0,0,0
439298674,25.320257,25.317698,17.67342,15.816728,0.0,929.3358,0.9336995,1.0,0.0,6,0,0,0,0,0,1,1,0,0,0
439804842,25.320257,25.318586,13.522074,14.889032,0.0,931.38513,0.9335531,1.0,0.0,6,0,0,0,0,0,1,1,0,0,0
440309890,25.320257,25.319168,11.603385,13.407366,0.0,933.1196,0.93342906,1.0,0.0,6,0,0,0,0,0,1,1,0,0,0
440801903,25.320257,25.319271,16.103582,13.352378,0.0,934.88904,0.9333028,1.0,0.0,6,0,0,0,0,0,1,1,0,0,0
441306637,25.320257,25.318958,10.487058,14.015059,0.0,936.96124,0.9331549,1.0,0.0,6,0,0,0,0,0,1,1,0,0,0
441812293,25.289341,25.316706,16.940828,14.837447,0.0,939.06305,0.93300474,1.0,0.0,6,0,0,0,0,0,1,1,0,0,0
442305936,25.320257,25.314993,13.068566,15.786264,0.0,941.3825,0.9328391,1.0,0.0,6,0,0,0,0,0,1,1,0,0,0
442811557,25.320257,25.316753,9.719582,12.685682,0.0,942.87537,0.9327325,1.0,0.0,6,0,0,0,0,0,1,1,0,0,0
443317034,25.320257,25.317966,9.614926,10.09585,0.0,944.0075,0.9326517,1.0,0.0,6,0,0,0,0,0,1,1,0,0,0
443809849,25.320257,25.318367,9.021876,9.972158,0.0,945.3978,0.93255216,1.0,0.0,6,0,0,0,0,0,1,1,0,0,0
444314647,25.320257,25.319027,4.0681705,8.3166,0.0,946.46295,0.9324762,1.0,0.0,6,0,0,0,0,0,1,1,0,0,0
444819480,25.320257,25.319456,1.5913175,4.884019,0.0,946.81537,0.9324511,1.0,0.0,6,0,0,0,0,0,1,1,0,0,0
445312245,25.320257,25.31973,9.614926,5.0622344,0.0,947.43976,0.9324066,1.0,0.0,6,0,0,0,0,0,1,1,0,0,0
445816240,25.320257,25.319916,4.696105,6.502615,0.0,948.55304,0.93232703,1.0,0.0,6,0,0,0,0,0,1,1,0,0,0
446321848,25.320257,25.320036,7.870663,6.1472034,0.0,949.3357,0.93227094,1.0,0.0,6,0,0,0,0,0,1,1,0,0,0
446827485,25.320257,25.320116,10.801024,8.264217,0.0,950.6895,0.9321741,1.0,0.0,6,0,0,0,0,0,1,1,0,0,0
447333278,25.320257,25.320185,13.208107,10.956282,0.0,952.482,0.932046,1.0,0.0,6,0,0,0,0,0,1,1,0,0,0
447826702,25.221327,25.313227,20.743322,15.270823,0.0,954.9453,0.9318702,1.0,0.0,6,0,0,0,0,0,1,1,0,0,0
448331446,25.320257,25.31211,5.2193837,13.965224,0.0,956.9359,0.93172807,1.0,0.0,6,0,0,0,0,0,1,1,0,0,0
448835572,25.320257,25.314924,6.475253,8.001255,0.0,957.4036,0.93169475,1.0,0.0,6,0,0,0,0,0,1,1,0,0,0
449341132,25.320257,25.31677,12.161549,8.7749605,0.0,958.66437,0.9316047,1.0,0.0,6,0,0,0,0,0,1,1,0,0,0
449835178,25.320257,25.317953,12.754598,10.757993,0.0,960.3509,0.9314842,1.0,0.0,6,0,0,0,0,0,1,1,0,0,0
450340283,25.320257,25.318254,11.114991,11.824438,0.0,962.1336,0.9313567,1.0,0.0,6,0,0,0,0,0,1,1,0,0,0
450845908,25.320257,25.31895,13.138336,11.986905,0.0,963.79706,0.93123806,1.0,0.0,6,0,0,0,0,0,1,1,0,0,0
451339440,25.320257,25.317749,13.4174185,14.055632,0.0,965.9523,0.93108416,1.0,0.0,6,0,0,0,0,0,1,1,0,0,0
451845062,25.320257,25.31862,12.335976,12.9454565,0.0,967.67206,0.9309612,1.0,0.0,6,0,0,0,0,0,1,1,0,0,0
452350640,25.320257,25.318285,11.045221,12.373955,0.0,969.36835,0.93084013,1.0,0.0,6,0,0,0,0,0,1,1,0,0,0
452854639,25.320257,25.31897,9.161417,10.431467,0.0,970.6256,0.9307503,1.0,0.0,6,0,0,0,0,0,1,1,0,0,0
453348267,25.320257,25.319414,8.952106,10.556965,0.0,972.09564,0.9306452,1.0,0.0,6,0,0,0,0,0,1,1,0,0,0
453853836,25.320257,25.319706,15.057025,10.883514,0.0,973.60547,0.9305374,1.0,0.0,6,0,0,0,0,0,1,1,0,0,0
454359221,25.320257,25.319075,10.207975,11.037515,0.0,975.21594,0.9304226,1.0,0.0,6,0,0,0,0,0,1,1,0,0,0
454852275,25.320257,25.3184,14.673287,12.075853,0.0,976.9451,0.9302991,1.0,0.0,6,0,0,0,0,0,1,1,0,0,0
455357835,25.320257,25.318903,9.649811,12.075562,0.0,978.6965,0.930174,1.0,0.0,6,0,0,0,0,0,1,1,0,0,0
455863307,25.320257,25.31877,15.4407625,10.854324,0.0,980.0332,0.9300784,1.0,0.0,6,0,0,0,0,0,1,1,0,0,0
456355434,25.320257,25.319225,10.90568,12.652356,0.0,982.0008,0.9299379,1.0,0.0,6,0,0,0,0,0,1,1,0,0,0
456860996,25.320257,25.319588,11.882466,11.227535,0.0,983.4006,0.9298379,1.0,0.0,6,0,0,0,0,0,1,1,0,0,0
457365940,25.320257,25.312592,16.452435,15.023173,0.0,985.83673,0.9296639,1.0,0.0,6,0,0,0,0,0,1,1,0,0,0
457871441,25.320257,25.313732,17.0106,15.660428,0.0,988.1507,0.92949843,1.0,0.0,6,0,0,0,0,0,1,1,0,0,0
458365018,25.320257,25.315887,16.34778,15.57028,0.0,990.2575,0.9293479,1.0,0.0,6,0,0,0,0,0,1,1,0,0,0
458869965,25.320257,25.31433,9.056762,14.169821,0.0,992.1857,0.9292103,1.0,0.0,6,0,0,0,0,0,1,1,0,0,0
459374677,25.320257,25.31638,8.568368,10.137413,0.0,993.14545,0.92914176,1.0,0.0,6,0,0,0,0,0,1,1,0,0,0
459868347,25.320257,25.317696,3.5100067,7.827391,0.0,994.01056,0.92907983,1.0,0.0,6,0,0,0,0,0,1,1,0,0,0
460373916,25.320257,25.318584,6.161286,5.939358,0.0,994.5918,0.92903805,1.0,0.0,6,0,0,0,0,0,1,1,0,0,0
460879431,25.320257,25.319166,14.359321,7.261634,0.0,995.6577,0.9289619,1.0,0.0,6,0,0,0,0,0,1,1,0,0,0
461373298,25.320257,25.319422,14.359321,10.928758,0.0,997.52515,0.92882836,1.0,0.0,6,0,0,0,0,0,1,1,0,0,0
461878658,25.320257,25.31971,3.6495476,9.326942,0.0,998.7951,0.9287376,1.0,0.0,6,0,0,0,0,0,1,1,0,0,0
462384232,25.320257,25.319902,10.626597,8.832881,0.0,999.90533,0.9286583,1.0,0.0,6,0,0,0,0,0,1,1,0,0,0
462877805,25.320257,25.319506,12.266205,11.126931,0.0,1001.66125,0.9285327,1.0,0.0,6,0,0,0,0,0,1,1,0,0,0
463383511,25.320257,25.319773,11.184762,11.0087,0.0,1003.2139,0.9284219,1.0,0.0,6,0,0,0,0,0,1,1,0,0,0
463887462,25.320257,25.319944,11.63827,11.465137,0.0,1004.84546,0.9283053,1.0,0.0,6,0,0,0,0,0,1,1,0,0,0
464392293,25.320257,25.32005,12.789484,12.170545,0.0,1006.6302,0.928178,1.0,0.0,6,0,0,0,0,0,1,1,0,0,0
464885924,25.320257,25.318777,18.022272,14.557124,0.0,1008.8174,0.92802185,1.0,0.0,6,0,0,0,0,0,1,1,0,0,0
465390720,25.320257,25.317423,12.231319,15.60696,0.0,1011.17255,0.9278535,1.0,0.0,6,0,0,0,0,0,1,1,0,0,0
465894676,25.320257,25.318361,13.03368,13.985505,0.0,1012.9485,0.9277266,1.0,0.0,6,0,0,0,0,0,1,1,0,0,0
466388356,25.320257,25.31826,12.370861,13.527662,0.0,1014.77057,0.92759633,1.0,0.0,6,0,0,0,0,0,1,1,0,0,0
466893800,25.320257,25.318647,12.998795,13.30019,0.0,1016.61127,0.92746496,1.0,0.0,6,0,0,0,0,0,1,1,0,0,0
467399489,25.320257,25.318466,12.719713,12.804897,0.0,1018.36224,0.9273398,1.0,0.0,6,0,0,0,0,0,1,1,0,0,0
467905253,25.320257,25.31909,12.370861,12.369684,0.0,1020.0444,0.92721957,1.0,0.0,6,0,0,0,0,0,1,1,0,0,0
468398688,25.320257,25.317844,14.708173,13.644186,0.0,1022.04407,0.9270767,1.0,0.0,6,0,0,0,0,0,1,1,0,0,0
468904317,25.320257,25.317509,13.975582,13.728476,0.0,1023.997,0.9269374,1.0,0.0,6,0,0,0,0,0,1,1,0,0,0
469409828,25.320257,25.318129,12.231319,13.127203,0.0,1025.7744,0.9268103,1.0,0.0,6,0,0,0,0,0,1,1,0,0,0
469902693,25.320257,25.318676,13.731385,12.719502,0.0,1027.4825,0.9266882,1.0,0.0,6,0,0,0,0,0,1,1,0,0,0
470407386,25.320257,25.318968,11.952237,12.7350445,0.0,1029.2588,0.9265612,1.0,0.0,6,0,0,0,0,0,1,1,0,0,0
470913038,25.320257,25.31846,13.487189,13.236512,0.0,1031.1449,0.92642635,1.0,0.0,6,0,0,0,0,0,1,1,0,0,0
471406642,25.320257,25.316374,15.545419,14.755788,0.0,1033.3213,0.9262709,1.0,0.0,6,0,0,0,0,0,1,1,0,0,0
471912316,25.320257,25.31487,16.312893,16.036072,0.0,1035.6915,0.9261017,1.0,0.0,6,0,0,0,0,0,1,1,0,0,0
472417843,25.320257,25.315916,8.917221,12.996853,0.0,1037.2983,0.925987,1.0,0.0,6,0,0,0,0,0,1,1,0,0,0
472911429,25.320257,25.316494,14.743057,12.808249,0.0,1038.9594,0.92586833,1.0,0.0,6,0,0,0,0,0,1,1,0,0,0
473417130,25.320257,25.314226,19.20837,15.225079,0.0,1041.2961,0.92570156,1.0,0.0,6,0,0,0,0,0,1,1,0,0,0
473922639,25.320257,25.309315,11.3940735,15.778528,0.0,1043.6903,0.92553055,1.0,0.0,6,0,0,0,0,0,1,1,0,0,0
474416252,25.320257,25.313017,6.998532,10.690282,0.0,1044.6393,0.9254627,1.0,0.0,6,0,0,0,0,0,1,1,0,0,0
474920295,25.320257,25.314735,15.091909,12.132132,0.0,1046.3917,0.92533743,1.0,0.0,6,0,0,0,0,0,1,1,0,0,0
475425940,25.320257,25.316643,6.9636464,10.116452,0.0,1047.6971,0.92524403,1.0,0.0,6,0,0,0,0,0,1,1,0,0,0
475919489,25.320257,25.317871,8.463713,9.137509,0.0,1048.8503,0.9251616,1.0,0.0,6,0,0,0,0,0,1,1,0,0,0
476424282,25.320257,25.316566,15.964041,11.71927,0.0,1050.6947,0.9250297,1.0,0.0,6,0,0,0,0,0,1,1,0,0,0
476929865,25.320257,25.313301,13.103451,13.956208,0.0,1052.9373,0.9248694,1.0,0.0,6,0,0,0,0,0,1,1,0,0,0
477423450,25.320257,25.31506,11.5685,13.232675,0.0,1054.6912,0.9247441,1.0,0.0,6,0,0,0,0,0,1,1,0,0,0
477928227,25.320257,25.316029,15.824501,13.354961,0.0,1056.5367,0.9246124,1.0,0.0,6,0,0,0,0,0,1,1,0,0,0
478433114,25.320257,25.313904,15.336107,15.4414835,0.0,1058.9125,0.9244427,1.0,0.0,6,0,0,0,0,0,1,1,0,0,0
478926610,25.320257,25.312979,13.138336,15.015527,0.0,1060.9738,0.92429537,1.0,0.0,6,0,0,0,0,0,1,1,0,0,0
479432443,25.320257,25.315315,12.161549,12.599381,0.0,1062.4857,0.92418736,1.0,0.0,6,0,0,0,0,0,1,1,0,0,0
479937875,25.320257,25.316614,15.475648,13.32623,0.0,1064.3949,0.924051,1.0,0.0,6,0,0,0,0,0,1,1,0,0,0
480431417,25.320257,25.313906,14.463976,15.232794,0.0,1066.6737,0.9238882,1.0,0.0,6,0,0,0,0,0,1,1,0,0,0
480937162,25.320257,25.314447,11.045221,14.196001,0.0,1068.6002,0.9237506,1.0,0.0,6,0,0,0,0,0,1,1,0,0,0
481442619,25.320257,25.316364,12.440631,12.0494175,0.0,1070.0663,0.92364585,1.0,0.0,6,0,0,0,0,0,1,1,0,0,0
481936273,25.320257,25.311872,12.196435,12.798536,0.0,1071.8746,0.92351675,1.0,0.0,6,0,0,0,0,0,1,1,0,0,0
482441897,25.320257,25.314072,10.452171,11.619725,0.0,1073.4183,0.92340636,1.0,0.0,6,0,0,0,0,0,1,1,0,0,0
482948070,25.320257,25.316212,9.475385,10.765699,0.0,1074.8278,0.9233057,1.0,0.0,6,0,0,0,0,0,1,1,0,0,0
483439445,25.320257,25.317583,12.754598,10.876181,0.0,1076.3049,0.92319995,1.0,0.0,6,0,0,0,0,0,1,1,0,0,0
483944249,25.320257,25.316462,12.929025,12.173013,0.0,1078.1539,0.9230678,1.0,0.0,6,0,0,0,0,0,1,1,0,0,0
484449790,25.320257,25.317526,10.068434,10.964109,0.0,1079.606,0.92296404,1.0,0.0,6,0,0,0,0,0,1,1,0,0,0
484943456,25.320257,25.318455,9.3707285,10.114053,0.0,1080.894,0.92287207,1.0,0.0,6,0,0,0,0,0,1,1,0,0,0
485448250,25.320257,25.319082,12.370861,10.683382,0.0,1082.4379,0.9227618,1.0,0.0,6,0,0,0,0,0,1,1,0,0,0
485952205,25.320257,25.315918,17.429222,13.852859,0.0,1084.6488,0.922604,1.0,0.0,6,0,0,0,0,0,1,1,0,0,0
486445908,25.320257,25.31375,11.463844,14.80706,0.0,1086.8395,0.9224477,1.0,0.0,6,0,0,0,0,0,1,1,0,0,0
486952093,25.320257,25.31541,7.591581,11.260778,0.0,1088.0708,0.9223596,1.0,0.0,6,0,0,0,0,0,1,1,0,0,0
487457018,25.320257,25.316317,11.080106,11.2464285,0.0,1089.6198,0.922249,1.0,0.0,6,0,0,0,0,0,1,1,0,0,0
487950626,25.320257,25.317656,8.707909,8.556263,0.0,1090.5145,0.9221851,1.0,0.0,6,0,0,0,0,0,1,1,0,0,0
488456273,25.320257,25.318115,14.603517,11.489275,0.0,1092.4332,0.9220481,1.0,0.0,6,0,0,0,0,0,1,1,0,0,0
488961872,25.320257,25.318174,12.719713,12.045708,0.0,1094.2183,0.9219206,1.0,0.0,6,0,0,0,0,0,1,1,0,0,0
489468420,25.320257,25.318897,7.2776136,9.648513,0.0,1095.3563,0.92183924,1.0,0.0,6,0,0,0,0,0,1,1,0,0,0
489961025,25.320257,25.319363,7.9055486,8.473859,0.0,1096.4008,0.9217646,1.0,0.0,6,0,0,0,0,0,1,1,0,0,0
490465101,25.320257,25.319675,10.068434,9.180452,0.0,1097.7504,0.9216681,1.0,0.0,6,0,0,0,0,0,1,1,0,0,0
490969845,25.320257,25.31988,8.603253,8.060807,0.0,1098.7766,0.92159486,1.0,0.0,6,0,0,0,0,0,1,1,0,0,0
491463536,25.320257,25.320015,7.8008924,8.887631,0.0,1100.1099,0.92149985,1.0,0.0,6,0,0,0,0,0,1,1,0,0,0
491969070,25.320257,25.320095,7.9404335,8.249588,0.0,1101.185,0.92142296,1.0,0.0,6,0,0,0,0,0,1,1,0,0,0
492474717,25.320257,25.320175,7.731122,7.472991,0.0,1102.1632,0.9213529,1.0,0.0,6,0,0,0,0,0,1,1,0,0,0
492968303,25.320257,25.319422,14.045352,9.553267,0.0,1103.6321,0.92124796,1.0,0.0,6,0,0,0,0,0,1,1,0,0,0
493472305,25.320257,25.318436,16.103582,12.4366455,0.0,1105.6819,0.92110175,1.0,0.0,6,0,0,0,0,0,1,1,0,0,0
493977799,25.320257,25.31667,17.0106,13.524206,0.0,1107.6604,0.92096037,1.0,0.0,6,0,0,0,0,0,1,1,0,0,0
494471528,25.320257,25.317848,7.3473845,11.701668,0.0,1109.1727,0.92085236,1.0,0.0,6,0,0,0,0,0,1,1,0,0,0
494977017,25.320257,25.318386,13.312762,11.640993,0.0,1110.7299,0.9207413,1.0,0.0,6,0,0,0,0,0,1,1,0,0,0
495483409,25.320257,25.31904,11.219647,11.171819,0.0,1112.275,0.92063093,1.0,0.0,6,0,0,0,0,0,1,1,0,0,0
495976303,25.320257,25.31798,13.103451,11.383036,0.0,1113.8488,0.9205184,1.0,0.0,6,0,0,0,0,0,1,1,0,0,0
496481799,25.270792,25.309074,21.754992,16.413282,0.0,1116.5865,0.92032284,1.0,0.0,6,0,0,0,0,0,1,1,0,0,0
496987456,25.320257,25.30147,16.103582,17.4541,0.0,1119.217,0.92013496,1.0,0.0,6,0,0,0,0,0,1,1,0,0,0
497492229,25.320257,25.304333,11.742927,16.188763,0.0,1121.3757,0.91998076,1.0,0.0,6,0,0,0,0,0,1,1,0,0,0
497984321,25.320257,25.305622,17.0106,15.305836,0.0,1123.332,0.9198412,1.0,0.0,6,0,0,0,0,0,1,1,0,0,0
498489906,25.320257,25.306479,17.498993,15.3919525,0.0,1125.4677,0.91968864,1.0,0.0,6,0,0,0,0,0,1,1,0,0,0
498995461,25.320257,25.311228,11.045221,13.600325,0.0,1127.2366,0.9195622,1.0,0.0,6,0,0,0,0,0,1,1,0,0,0
499500314,25.320257,25.311964,13.905811,13.544049,0.0,1129.1057,0.9194287,1.0,0.0,6,0,0,0,0,0,1,1,0,0,0
500006549,25.320257,25.312422,9.475385,12.718958,0.0,1130.8407,0.9193048,1.0,0.0,6,0,0,0,0,0,1,1,0,0,0
500498700,25.320257,25.315075,12.719713,12.424234,0.0,1132.4867,0.9191872,1.0,0.0,6,0,0,0,0,0,1,1,0,0,0
501002690,25.196594,25.311993,18.40601,14.389716,0.0,1134.6691,0.9190313,1.0,0.0,6,0,0,0,0,0,1,1,0,0,0
501508067,25.320257,25.308075,12.370861,15.520174,0.0,1137.0094,0.9188641,1.0,0.0,6,0,0,0,0,0,1,1,0,0,0
502001219,25.320257,25.312193,12.4057455,13.372362,0.0,1138.6029,0.9187501,1.0,0.0,6,0,0,0,0,0,1,1,0,0,0
502505068,25.320257,25.314219,14.4290905,13.512811,0.0,1140.4713,0.9186164,1.0,0.0,6,0,0,0,0,0,1,1,0,0,0
503010604,25.320257,25.314468,11.847582,13.321653,0.0,1142.3522,0.91848207,1.0,0.0,6,0,0,0,0,0,1,1,0,0,0
503504246,25.320257,25.31429,12.649942,13.359592,0.0,1144.1821,0.9183511,1.0,0.0,6,0,0,0,0,0,1,1,0,0,0
504009880,25.320257,25.316305,10.556828,13.035461,0.0,1146.0181,0.91822004,1.0,0.0,6,0,0,0,0,0,1,1,0,0,0
504515450,25.320257,25.317207,11.3940735,10.575823,0.0,1147.189,0.91813636,1.0,0.0,6,0,0,0,0,0,1,1,0,0,0
505009035,25.320257,25.313074,13.836041,12.870568,0.0,1149.1854,0.9179937,1.0,0.0,6,0,0,0,0,0,1,1,0,0,0
505513785,25.320257,25.314325,12.859254,13.23656,0.0,1151.1075,0.91785645,1.0,0.0,6,0,0,0,0,0,1,1,0,0,0
506017806,25.320257,25.316257,14.394205,13.500825,0.0,1152.9948,0.9177214,1.0,0.0,6,0,0,0,0,0,1,1,0,0,0
506523474,25.320257,25.317587,16.138468,13.68212,0.0,1154.9062,0.91758496,1.0,0.0,6,0,0,0,0,0,1,1,0,0,0
507017137,25.320257,25.31488,13.940698,14.269012,0.0,1156.9467,0.9174392,1.0,0.0,6,0,0,0,0,0,1,1,0,0,0
507522642,25.320257,25.313824,14.603517,14.17745,0.0,1158.918,0.91729844,1.0,0.0,6,0,0,0,0,0,1,1,0,0,0
508028266,25.320257,25.309338,15.68496,15.717089,0.0,1161.2644,0.9171309,1.0,0.0,6,0,0,0,0,0,1,1,0,0,0
508521034,25.320257,25.29541,14.987255,16.615484,0.0,1163.6697,0.91695917,1.0,0.0,6,0,0,0,0,0,1,1,0,0,0
509025923,25.320257,25.303303,13.940698,14.829171,0.0,1165.5752,0.9168232,1.0,0.0,6,0,0,0,0,0,1,1,0,0,0
509529894,25.320257,25.308237,11.5685,13.912743,0.0,1167.4479,0.9166893,1.0,0.0,6,0,0,0,0,0,1,1,0,0,0
510023463,25.320257,25.312307,14.324434,12.066086,0.0,1168.8625,0.91658825,1.0,0.0,6,0,0,0,0,0,1,1,0,0,0
510529133,25.320257,25.309977,15.057025,14.186972,0.0,1171.0669,0.91643083,1.0,0.0,6,0,0,0,0,0,1,1,0,0,0
511034701,25.320257,25.312128,11.463844,14.170531,0.0,1173.1074,0.9162851,1.0,0.0,6,0,0,0,0,0,1,1,0,0,0
511528254,25.320257,25.314882,12.89414,13.019407,0.0,1174.7428,0.91616833,1.0,0.0,6,0,0,0,0,0,1,1,0,0,0
512033831,25.295525,25.313766,13.138336,13.729413,0.0,1176.7456,0.91602534,1.0,0.0,6,0,0,0,0,0,1,1,0,0,0
512538665,25.320257,25.311419,11.463844,14.5123205,0.0,1178.8943,0.9158721,1.0,0.0,6,0,0,0,0,0,1,1,0,0,0
513042628,25.184227,25.311718,16.975714,12.523361,0.0,1180.3573,0.91576743,1.0,0.0,6,0,0,0,0,0,1,1,0,0,0
513536284,25.252243,25.30794,16.871058,14.416557,0.0,1182.5085,0.91561383,1.0,0.0,6,0,0,0,0,0,1,1,0,0,0
514041876,25.196594,25.303152,21.371256,16.44553,0.0,1184.9799,0.9154373,1.0,0.0,6,0,0,0,0,0,1,1,0,0,0
514547462,25.320257,25.305294,6.8589907,14.370398,0.0,1186.924,0.9152984,1.0,0.0,6,0,0,0,0,0,1,1,0,0,0
515040285,25.320257,25.309273,10.801024,9.641926,0.0,1187.6793,0.9152445,1.0,0.0,6,0,0,0,0,0,1,1,0,0,0
515544276,25.320257,25.313065,8.324171,8.315708,0.0,1188.7163,0.9151705,1.0,0.0,6,0,0,0,0,0,1,1,0,0,0
516049840,25.320257,25.31223,11.149878,10.334253,0.0,1190.357,0.9150531,1.0,0.0,6,0,0,0,0,0,1,1,0,0,0
516555460,25.320257,25.31449,7.3124986,11.141833,0.0,1192.0452,0.9149324,1.0,0.0,6,0,0,0,0,0,1,1,0,0,0
517049042,25.320257,25.316034,10.382401,10.553564,0.0,1193.3932,0.9148363,1.0,0.0,6,0,0,0,0,0,1,1,0,0,0
517554702,25.320257,25.312056,16.766403,13.238624,0.0,1195.476,0.91468745,1.0,0.0,6,0,0,0,0,0,1,1,0,0,0
518060262,25.320257,25.31011,12.440631,13.709922,0.0,1197.4905,0.91454345,1.0,0.0,6,0,0,0,0,0,1,1,0,0,0
518553857,25.320257,25.313198,9.126533,11.83478,0.0,1198.934,0.9144403,1.0,0.0,6,0,0,0,0,0,1,1,0,0,0
519058825,25.320257,25.315575,13.626729,11.629152,0.0,1200.4908,0.91432923,1.0,0.0,6,0,0,0,0,0,1,1,0,0,0
519562666,25.320257,25.316353,10.312631,12.348646,0.0,1202.3344,0.9141973,1.0,0.0,6,0,0,0,0,0,1,1,0,0,0
520068243,25.196594,25.313164,16.138468,12.966666,0.0,1204.151,0.9140676,1.0,0.0,6,0,0,0,0,0,1,1,0,0,0
520561915,25.320257,25.311579,17.464108,14.832833,0.0,1206.3794,0.91390836,1.0,0.0,6,0,0,0,0,0,1,1,0,0,0
521067586,25.320257,25.309134,13.452303,15.030395,0.0,1208.5477,0.91375345,1.0,0.0,6,0,0,0,0,0,1,1,0,0,0
521572258,25.320257,25.311075,16.522205,14.206662,0.0,1210.4017,0.91362095,1.0,0.0,6,0,0,0,0,0,1,1,0,0,0
522077882,25.320257,25.308994,15.405878,14.585239,0.0,1212.5033,0.9134709,1.0,0.0,6,0,0,0,0,0,1,1,0,0,0
522569888,25.320257,25.312756,14.708173,14.186446,0.0,1214.4038,0.9133351,1.0,0.0,6,0,0,0,0,0,1,1,0,0,0
523075428,25.320257,25.314747,13.556959,14.019741,0.0,1216.3629,0.91319525,1.0,0.0,6,0,0,0,0,0,1,1,0,0,0
523581068,25.320257,25.315577,13.452303,13.599194,0.0,1218.2289,0.91306204,1.0,0.0,6,0,0,0,0,0,1,1,0,0,0
524074692,25.320257,25.316406,11.987123,12.755516,0.0,1219.9098,0.912942,1.0,0.0,6,0,0,0,0,0,1,1,0,0,0
524580283,25.320257,25.316273,12.998795,12.641821,0.0,1221.6665,0.9128165,1.0,0.0,6,0,0,0,0,0,1,1,0,0,0
525085956,25.320257,25.315672,13.4174185,13.505802,0.0,1223.6464,0.91267484,1.0,0.0,6,0,0,0,0,0,1,1,0,0,0
525591537,25.320257,25.316055,12.196435,12.935531,0.0,1225.4216,0.91254824,1.0,0.0,6,0,0,0,0,0,1,1,0,0,0
526085028,25.320257,25.315691,14.638403,12.73366,0.0,1227.1187,0.91242695,1.0,0.0,6,0,0,0,0,0,1,1,0,0,0
526590614,25.320257,25.31644,11.987123,11.793369,0.0,1228.7114,0.9123133,1.0,0.0,6,0,0,0,0,0,1,1,0,0,0
527096282,25.320257,25.317572,11.847582,11.584871,0.0,1230.3271,0.912198,1.0,0.0,6,0,0,0,0,0,1,1,0,0,0
527601876,25.320257,25.318403,8.324171,9.228228,0.0,1231.3994,0.9121213,1.0,0.0,6,0,0,0,0,0,1,1,0,0,0
528094675,25.320257,25.319038,8.568368,8.376905,0.0,1232.4414,0.91204697,1.0,0.0,6,0,0,0,0,0,1,1,0,0,0
528599404,25.320257,25.319464,11.952237,8.763733,0.0,1233.6614,0.9119597,1.0,0.0,6,0,0,0,0,0,1,1,0,0,0
529105148,25.320257,25.318754,7.417155,10.905991,0.0,1235.4624,0.9118309,1.0,0.0,6,0,0,0,0,0,1,1,0,0,0
529598718,25.320257,25.31927,8.18463,8.792797,0.0,1236.4191,0.9117626,1.0,0.0,6,0,0,0,0,0,1,1,0,0,0
530104186,25.320257,25.319342,10.103319,9.447422,0.0,1237.8073,0.91166335,1.0,0.0,6,0,0,0,0,0,1,1,0,0,0
530609882,25.24606,25.312984,22.348043,13.274418,0.0,1239.9735,0.91150874,1.0,0.0,6,0,0,0,0,0,1,1,0,0,0
531103495,25.295525,25.297888,16.34778,16.368671,0.0,1242.5868,0.91132194,1.0,0.0,6,0,0,0,0,0,1,1,0,0,0
531608290,25.320257,25.305597,8.463713,11.244679,0.0,1243.7003,0.9112424,1.0,0.0,6,0,0,0,0,0,1,1,0,0,0
532113094,25.320257,25.30445,19.313026,13.057018,0.0,1245.6062,0.9111063,1.0,0.0,6,0,0,0,0,0,1,1,0,0,0
532605890,25.24606,25.30115,16.068697,15.357238,0.0,1247.9867,0.91093624,1.0,0.0,6,0,0,0,0,0,1,1,0,0,0
533111417,25.320257,25.306467,9.440499,13.368447,0.0,1249.7196,0.9108125,1.0,0.0,6,0,0,0,0,0,1,1,0,0,0
533616219,25.289341,25.310911,13.836041,12.208472,0.0,1251.2518,0.9107029,1.0,0.0,6,0,0,0,0,0,1,1,0,0,0
534109848,25.320257,25.306835,16.696632,14.7404585,0.0,1253.4851,0.9105433,1.0,0.0,6,0,0,0,0,0,1,1,0,0,0
534614673,25.320257,25.300388,15.650074,16.432682,0.0,1256.0303,0.9103617,1.0,0.0,6,0,0,0,0,0,1,1,0,0,0
535118690,25.320257,25.305557,12.580172,14.794653,0.0,1257.9197,0.91022676,1.0,0.0,6,0,0,0,0,0,1,1,0,0,0
535623493,25.320257,25.300385,14.812829,15.195852,0.0,1260.106,0.91007066,1.0,0.0,6,0,0,0,0,0,1,1,0,0,0
536128278,25.320257,25.306038,14.673287,14.477238,0.0,1262.0387,0.9099325,1.0,0.0,6,0,0,0,0,0,1,1,0,0,0
536620274,25.264608,25.298443,14.917483,15.501792,0.0,1264.273,0.909773,1.0,0.0,6,0,0,0,0,0,1,1,0,0,0
537125926,25.320257,25.304344,9.475385,13.354438,0.0,1265.9761,0.9096516,1.0,0.0,6,0,0,0,0,0,1,1,0,0,0
537631486,25.320257,25.307854,9.545156,12.081251,0.0,1267.5466,0.9095396,1.0,0.0,6,0,0,0,0,0,1,1,0,0,0
538125038,25.320257,25.311827,10.382401,10.923633,0.0,1268.9226,0.90944123,1.0,0.0,6,0,0,0,0,0,1,1,0,0,0
538630681,25.320257,25.31435,13.347647,11.539022,0.0,1270.5756,0.90932333,1.0,0.0,6,0,0,0,0,0,1,1,0,0,0
539135441,25.320257,25.315044,12.056893,11.98414,0.0,1272.3468,0.909197,1.0,0.0,6,0,0,0,0,0,1,1,0,0,0
539629094,25.320257,25.31469,15.405878,12.644127,0.0,1274.096,0.9090721,1.0,0.0,6,0,0,0,0,0,1,1,0,0,0
540133899,25.320257,25.304092,15.68496,14.816834,0.0,1276.4104,0.90890694,1.0,0.0,6,0,0,0,0,0,1,1,0,0,0
540637898,25.289341,25.307467,11.463844,12.741869,0.0,1278.0248,0.9087918,1.0,0.0,6,0,0,0,0,0,1,1,0,0,0
541131482,25.295525,25.310541,12.510402,12.574787,0.0,1279.7335,0.90866965,1.0,0.0,6,0,0,0,0,0,1,1,0,0,0
541636994,25.320257,25.307188,18.022272,14.09465,0.0,1281.8141,0.9085211,1.0,0.0,6,0,0,0,0,0,1,1,0,0,0
542142614,25.320257,25.306028,8.952106,12.694014,0.0,1283.5303,0.90839833,1.0,0.0,6,0,0,0,0,0,1,1,0,0,0
542636264,25.320257,25.310783,7.2776136,10.534524,0.0,1284.763,0.9083101,1.0,0.0,6,0,0,0,0,0,1,1,0,0,0
543141812,25.320257,25.313936,11.777811,9.572974,0.0,1285.9448,0.9082259,1.0,0.0,6,0,0,0,0,0,1,1,0,0,0
543647493,25.320257,25.31506,8.568368,9.849573,0.0,1287.4003,0.90812194,1.0,0.0,6,0,0,0,0,0,1,1,0,0,0
544151490,25.320257,25.316854,10.417287,8.966258,0.0,1288.5425,0.9080405,1.0,0.0,6,0,0,0,0,0,1,1,0,0,0
544657007,25.140944,25.308815,19.278141,13.559793,0.0,1290.8417,0.9078765,1.0,0.0,6,0,0,0,0,0,1,1,0,0,0
545150367,25.165678,25.266022,26.115648,19.970682,0.0,1294.2186,0.9076352,1.0,0.0,6,0,0,0,0,0,1,1,0,0,0
545655398,25.320257,25.268347,10.417287,17.955078,0.0,1296.6871,0.90745896,1.0,0.0,6,0,0,0,0,0,1,1,0,0,0
546160337,25.320257,25.286228,4.207711,10.867526,0.0,1297.5214,0.9073993,1.0,0.0,6,0,0,0,0,0,1,1,0,0,0
546664258,25.320257,25.29795,9.161417,7.9393826,0.0,1298.2705,0.90734583,1.0,0.0,6,0,0,0,0,0,1,1,0,0,0
547169800,25.320257,25.293222,14.463976,12.564572,0.0,1300.4725,0.90718836,1.0,0.0,6,0,0,0,0,0,1,1,0,0,0
547663519,25.17186,25.297626,13.487189,13.014654,0.0,1302.324,0.907056,1.0,0.0,6,0,0,0,0,0,1,1,0,0,0
548169058,25.320257,25.301155,12.545287,12.752736,0.0,1304.1146,0.90692824,1.0,0.0,6,0,0,0,0,0,1,1,0,0,0
548674692,25.320257,25.300793,9.475385,13.392098,0.0,1306.1136,0.9067855,1.0,0.0,6,0,0,0,0,0,1,1,0,0,0
549167422,25.320257,25.307287,7.975319,10.163688,0.0,1307.1854,0.90670884,1.0,0.0,6,0,0,0,0,0,1,1,0,0,0
549673014,25.320257,25.308168,16.55709,11.713917,0.0,1308.9231,0.9065846,1.0,0.0,6,0,0,0,0,0,1,1,0,0,0
550178198,25.320257,25.309446,7.8357778,12.376816,0.0,1310.7843,0.90645164,1.0,0.0,6,0,0,0,0,0,1,1,0,0,0
550681852,25.320257,25.313175,-0.2576008,6.17207,0.0,1311.0786,0.9064292,1.0,0.0,6,0,0,0,0,0,1,1,0,0,0
551176147,25.320257,25.315573,0.684301,3.0753412,0.0,1311.1677,0.9064223,1.0,0.0,6,0,0,0,0,0,1,1,0,0,0
551681106,25.320257,25.317194,10.277745,3.574863,0.0,1311.6183,0.90639037,1.0,0.0,6,0,0,0,0,0,1,1,0,0,0
552186626,25.320257,25.316298,11.70804,7.9198184,0.0,1313.1771,0.9062789,1.0,0.0,6,0,0,0,0,0,1,1,0,0,0
552680219,25.17186,25.309063,15.4407625,12.019721,0.0,1315.1965,0.90613455,1.0,0.0,6,0,0,0,0,0,1,1,0,0,0
553185918,25.320257,25.310535,9.126533,11.83482,0.0,1316.9274,0.9060111,1.0,0.0,6,0,0,0,0,0,1,1,0,0,0
553690667,25.320257,25.31056,14.743057,12.611807,0.0,1318.7178,0.90588325,1.0,0.0,6,0,0,0,0,0,1,1,0,0,0
554183184,25.320257,25.30415,17.254797,15.329334,0.0,1321.0834,0.90571415,1.0,0.0,6,0,0,0,0,0,1,1,0,0,0
554688312,25.295525,25.297215,13.940698,15.580143,0.0,1323.352,0.9055521,1.0,0.0,6,0,0,0,0,0,1,1,0,0,0
555193867,25.320257,25.301321,14.184894,14.261553,0.0,1325.2167,0.9054189,1.0,0.0,6,0,0,0,0,0,1,1,0,0,0
555699477,25.295525,25.303995,14.394205,13.808637,0.0,1327.1077,0.9052837,1.0,0.0,6,0,0,0,0,0,1,1,0,0,0
556193046,25.320257,25.30501,14.254664,14.269934,0.0,1329.0917,0.90514195,1.0,0.0,6,0,0,0,0,0,1,1,0,0,0
556698686,25.24606,25.299212,12.266205,14.348043,0.0,1331.122,0.90499705,1.0,0.0,6,0,0,0,0,0,1,1,0,0,0
557203449,25.320257,25.303484,15.789615,13.671239,0.0,1332.9685,0.904865,1.0,0.0,6,0,0,0,0,0,1,1,0,0,0
557707379,25.289341,25.306816,11.812696,12.972507,0.0,1334.7498,0.9047377,1.0,0.0,6,0,0,0,0,0,1,1,0,0,0
558201092,25.320257,25.306416,15.929156,12.928169,0.0,1336.4886,0.90461355,1.0,0.0,6,0,0,0,0,0,1,1,0,0,0
558706652,25.320257,25.307789,13.382533,13.127544,0.0,1338.3383,0.90448153,1.0,0.0,6,0,0,0,0,0,1,1,0,0,0
559212235,25.320257,25.306438,11.603385,13.725501,0.0,1340.3513,0.90433776,1.0,0.0,6,0,0,0,0,0,1,1,0,0,0
559705885,25.320257,25.310522,13.382533,12.826908,0.0,1341.991,0.9042209,1.0,0.0,6,0,0,0,0,0,1,1,0,0,0
560211459,25.320257,25.310476,16.41755,14.571679,0.0,1344.1825,0.90406436,1.0,0.0,6,0,0,0,0,0,1,1,0,0,0
560717073,25.221327,25.294716,18.40601,16.86946,0.0,1346.7863,0.90387833,1.0,0.0,6,0,0,0,0,0,1,1,0,0,0
561222683,25.196594,25.292072,15.789615,15.164842,0.0,1348.7749,0.9037361,1.0,0.0,6,0,0,0,0,0,1,1,0,0,0
561716246,25.239876,25.291403,17.778076,16.008236,0.0,1351.0408,0.9035743,1.0,0.0,6,0,0,0,0,0,1,1,0,0,0
562221864,25.320257,25.281364,18.022272,16.751217,0.0,1353.4921,0.9033993,1.0,0.0,6,0,0,0,0,0,1,1,0,0,0
562727711,25.320257,25.286032,13.487189,16.218147,0.0,1355.7645,0.9032371,1.0,0.0,6,0,0,0,0,0,1,1,0,0,0
563219503,25.320257,25.29363,8.84745,13.274693,0.0,1357.3225,0.9031259,1.0,0.0,6,0,0,0,0,0,1,1,0,0,0
563725070,25.320257,25.301691,10.835909,10.750548,0.0,1358.548,0.9030385,1.0,0.0,6,0,0,0,0,0,1,1,0,0,0
564230679,25.270792,25.303585,12.475515,11.951923,0.0,1360.3391,0.90291053,1.0,0.0,6,0,0,0,0,0,1,1,0,0,0
564735491,25.320257,25.307537,12.091779,11.582432,0.0,1361.9386,0.9027965,1.0,0.0,6,0,0,0,0,0,1,1,0,0,0
565229141,25.320257,25.307844,11.219647,11.827368,0.0,1363.5704,0.9026797,1.0,0.0,6,0,0,0,0,0,1,1,0,0,0
565734614,25.320257,25.304886,13.591845,12.554449,0.0,1365.3939,0.9025494,1.0,0.0,6,0,0,0,0,0,1,1,0,0,0
566239424,25.320257,25.304312,14.010468,13.763268,0.0,1367.447,0.9024027,1.0,0.0,6,0,0,0,0,0,1,1,0,0,0
566743427,25.320257,25.29913,14.638403,14.521791,0.0,1369.573,0.9022509,1.0,0.0,6,0,0,0,0,0,1,1,0,0,0
567236282,25.320257,25.302189,13.661615,14.46193,0.0,1371.5306,0.90211093,1.0,0.0,6,0,0,0,0,0,1,1,0,0,0
567741899,25.320257,25.286762,16.626862,15.776218,0.0,1373.8545,0.9019449,1.0,0.0,6,0,0,0,0,0,1,1,0,0,0
568247429,25.314074,25.285606,16.591976,15.984073,0.0,1376.1354,0.90178174,1.0,0.0,6,0,0,0,0,0,1,1,0,0,0
568741041,25.320257,25.28147,15.02214,17.00938,0.0,1378.6315,0.9016035,1.0,0.0,6,0,0,0,0,0,1,1,0,0,0
569245857,25.320257,25.293888,2.6727605,11.153299,0.0,1379.7008,0.9015271,1.0,0.0,6,0,0,0,0,0,1,1,0,0,0
569750675,25.320257,25.30297,9.789352,8.335067,0.0,1380.4907,0.9014709,1.0,0.0,6,0,0,0,0,0,1,1,0,0,0
570244183,25.320257,25.304724,11.080106,10.231478,0.0,1382.0844,0.90135705,1.0,0.0,6,0,0,0,0,0,1,1,0,0,0
570749884,25.320257,25.30907,6.6496797,8.916447,0.0,1383.2566,0.90127325,1.0,0.0,6,0,0,0,0,0,1,1,0,0,0
571256069,25.320257,25.312624,11.812696,8.651752,0.0,1384.3834,0.9011928,1.0,0.0,6,0,0,0,0,0,1,1,0,0,0
571748246,25.320257,25.313293,10.9754505,9.898164,0.0,1385.8809,0.9010858,1.0,0.0,6,0,0,0,0,0,1,1,0,0,0
572253823,25.320257,25.304842,11.324304,10.701276,0.0,1387.4546,0.9009732,1.0,0.0,6,0,0,0,0,0,1,1,0,0,0
572759484,25.320257,25.307081,12.056893,11.368479,0.0,1389.122,0.90085393,1.0,0.0,6,0,0,0,0,0,1,1,0,0,0
573253051,25.17186,25.305527,15.231452,12.637063,0.0,1390.9589,0.90072274,1.0,0.0,6,0,0,0,0,0,1,1,0,0,0
573757043,25.320257,25.301888,14.708173,13.826269,0.0,1392.9835,0.900578,1.0,0.0,6,0,0,0,0,0,1,1,0,0,0
574262638,25.320257,25.298515,12.126663,14.22693,0.0,1395.0587,0.90042984,1.0,0.0,6,0,0,0,0,0,1,1,0,0,0
574768287,25.320257,25.303883,7.7660074,11.599327,0.0,1396.456,0.90033007,1.0,0.0,6,0,0,0,0,0,1,1,0,0,0
575261912,25.320257,25.307663,11.463844,10.497818,0.0,1397.7242,0.90023947,1.0,0.0,6,0,0,0,0,0,1,1,0,0,0
575767473,25.320257,25.308159,14.254664,11.927898,0.0,1399.5305,0.9001104,1.0,0.0,6,0,0,0,0,0,1,1,0,0,0
576273037,25.239876,25.29476,16.243124,14.690266,0.0,1401.8722,0.8999431,1.0,0.0,6,0,0,0,0,0,1,1,0,0,0
576766727,25.320257,25.299488,6.3705974,10.3234005,0.0,1402.9398,0.899867,1.0,0.0,6,0,0,0,0,0,1,1,0,0,0
577272261,25.320257,25.30465,13.522074,10.036726,0.0,1404.2368,0.89977443,1.0,0.0,6,0,0,0,0,0,1,1,0,0,0
577777864,25.320257,25.296116,14.882599,12.981017,0.0,1406.3528,0.8996233,1.0,0.0,6,0,0,0,0,0,1,1,0,0,0
