timestamp,indicated_airspeed_m_s,true_airspeed_m_s,air_temperature_celsius,confidence
579923717,1.1387675,1.1735787,31.582804,1.0
579934448,0.75084734,0.77380013,31.582804,1.0
579945176,-0.5527089,-0.56960833,31.582804,1.0
579955904,-1.0919235,-1.1253097,31.582804,1.0
579966633,-1.4209566,-1.4644033,31.582804,1.0
579977365,-1.6556084,-1.7062297,31.582804,1.0
579988098,-1.8269325,-1.8827921,31.582804,1.0
579998865,-1.8971212,-1.9551266,31.582804,1.0
580009593,-1.8486351,-1.905158,31.582804,1.0
580020330,-1.7520828,-1.8056537,31.582804,1.0
580031059,-1.5937641,-1.6424942,31.582804,1.0
580041788,-1.3149836,-1.3551899,31.582804,1.0
580052527,-0.9521371,-0.98140174,31.680508,1.0
580063255,-0.49599925,-0.5112441,31.680508,1.0
580074007,0.50747514,0.5230728,31.680508,1.0
580084736,0.85054237,0.8766844,31.680508,1.0
580095487,1.1553011,1.1908101,31.680508,1.0
580106216,1.4107381,1.4540999,31.680508,1.0
580116945,1.5538083,1.6015676,31.680508,1.0
580127674,1.5976611,1.6467683,31.680508,1.0
580138404,1.5799488,1.6285115,31.680508,1.0
580149157,1.5230756,1.5696386,31.582804,1.0
580159888,1.4423404,1.4864333,31.582804,1.0
580170618,1.349009,1.3902488,31.582804,1.0
580181346,1.2923533,1.331861,31.582804,1.0
580192077,1.3065808,1.3465234,31.582804,1.0
580202806,1.325656,1.3661819,31.582804,1.0
580213534,1.307105,1.3470671,31.582804,1.0
580224298,1.2233512,1.2607528,31.582804,1.0
580235027,1.0457447,1.0777162,31.582804,1.0
580245755,0.83898956,0.86464,31.582804,1.0
580256484,0.5950346,0.6132266,31.582804,1.0
580267213,-0.38611072,-0.3979128,31.582804,1.0
580277944,-0.9020281,-0.9296,31.582804,1.0
580288678,-1.2362651,-1.2740535,31.582804,1.0
580299453,-1.4540615,-1.4985071,31.582804,1.0
580310182,-1.5374,-1.584393,31.582804,1.0
580320939,-1.4730831,-1.5181066,31.582804,1.0
580331667,-1.2250911,-1.2625349,31.582804,1.0
580342395,-0.8270458,-0.8523237,31.582804,1.0
580353125,-0.3854084,-0.39725173,31.680508,1.0
580363862,0.40429676,0.4167205,31.680508,1.0
580374591,0.6407504,0.6604394,31.680508,1.0
580385319,0.7721367,0.7958629,31.680508,1.0
580396047,0.8529298,0.8791386,31.680508,1.0
580406774,0.8425526,0.86844254,31.680508,1.0
580417503,0.7033641,0.724977,31.680508,1.0
580428230,0.52309114,0.5391687,31.680508,1.0
580438961,0.41228983,0.42496186,31.680508,1.0
580449736,0.21560697,0.22223382,31.680508,1.0
580460464,-0.53553987,-0.55191153,31.582804,1.0
580471192,-0.91179,-0.93966377,31.582804,1.0
580481920,-1.2114799,-1.2485231,31.582804,1.0
580492648,-1.4171228,-1.460454,31.582804,1.0
580503379,-1.5298526,-1.5766307,31.582804,1.0
580514107,-1.5850415,-1.633507,31.582804,1.0
580524875,-1.6023847,-1.6513805,31.582804,1.0
580535604,-1.594889,-1.6436293,31.582804,1.0
580546331,-1.5718807,-1.6199178,31.582804,1.0
580557059,-1.5402735,-1.5875992,31.680508,1.0
580567788,-1.4704193,-1.5155987,31.680508,1.0
580578515,-1.3391857,-1.3803328,31.680508,1.0
580589272,-1.2067437,-1.2438399,31.680508,1.0
580600022,-1.1268729,-1.1615138,31.680508,1.0
580610762,-1.1694596,-1.2054096,31.680508,1.0
580621490,-1.3841265,-1.4266756,31.680508,1.0
580632218,-1.6562928,-1.7072085,31.680508,1.0
580642946,-1.9011745,-1.9596156,31.680508,1.0
580653674,-2.0833051,-2.1473448,31.680508,1.0
580664402,-2.1933472,-2.2607694,31.680508,1.0
580675170,-2.2538812,-2.3231642,31.680508,1.0
580685898,-2.2799962,-2.350082,31.680508,1.0
580696627,-2.2826662,-2.3528166,31.680508,1.0
580707354,-2.2472508,-2.3163128,31.680508,1.0
580718085,-2.1652734,-2.231816,31.680508,1.0
580728813,-2.080894,-2.1448436,31.680508,1.0
580739573,-2.0264058,-2.088681,31.680508,1.0
580750312,-1.9966857,-2.0580554,31.680508,1.0
580761040,-1.9596304,-2.0195372,31.582804,1.0
580771769,-1.8932762,-1.9511546,31.582804,1.0
580782497,-1.8392725,-1.8955,31.582804,1.0
580793225,-1.7978435,-1.8528044,31.582804,1.0
580803952,-1.7386158,-1.7917506,31.582804,1.0
580814680,-1.6710705,-1.722141,31.582804,1.0
580825460,-1.6022817,-1.6512499,31.582804,1.0
580836187,-1.5373676,-1.5843519,31.582804,1.0
580846915,-1.4443942,-1.4885372,31.582804,1.0
580857648,-1.2964336,-1.3362837,31.680508,1.0
580868376,-1.1528186,-1.1882541,31.680508,1.0
580879103,-1.1166795,-1.1510043,31.680508,1.0
580889832,-1.2033455,-1.2403343,31.680508,1.0
580900598,-1.3470385,-1.3884287,31.680508,1.0
580911327,-1.4320071,-1.476008,31.680508,1.0
580922055,-1.3305027,-1.3713849,31.680508,1.0
580932783,-0.98695046,-1.0172763,31.680508,1.0
580943512,0.29817075,0.30733258,31.680508,1.0
580954239,1.1124859,1.146669,31.680508,1.0
580964968,1.5326611,1.5797802,31.680508,1.0
580975744,1.8295538,1.8858005,31.680508,1.0
580986474,2.0476093,2.1105597,31.680508,1.0
580997218,2.1837413,2.250877,31.680508,1.0
581007945,2.2410285,2.3099253,31.680508,1.0
581018673,2.2468739,2.3159473,31.680508,1.0
581029401,2.1725242,2.2393122,31.680508,1.0
581040132,1.9696716,2.0302234,31.680508,1.0
581050901,1.6356082,1.6858902,31.680508,1.0
581061629,1.1549938,1.1903069,31.582804,1.0
581072357,-0.30111185,-0.31031814,31.582804,1.0
581083086,-1.248175,-1.2863371,31.582804,1.0
581093813,-1.6826049,-1.7340494,31.582804,1.0
581104541,-1.9427146,-2.0021117,31.582804,1.0
581115268,-2.0548947,-2.1177218,31.582804,1.0
581126047,-1.97582,-2.0362368,31.582804,1.0
581136779,-1.73644,-1.7895371,31.582804,1.0
581147507,-1.3913834,-1.4339293,31.582804,1.0
581158236,-0.906151,-0.9338594,31.582804,1.0
581168965,0.4764331,0.49108025,31.680508,1.0
581179695,1.0714837,1.1044205,31.680508,1.0
581190423,1.3454448,1.386803,31.680508,1.0
581201200,1.5010331,1.547174,31.680508,1.0
581211936,1.6512898,1.7020495,31.680508,1.0
581222664,1.7545977,1.8085285,31.680508,1.0
581233398,1.7359773,1.7893358,31.680508,1.0
581244125,1.6071641,1.6565634,31.680508,1.0
581254852,1.3597579,1.4015527,31.680508,1.0
581265579,0.98958784,1.0198412,31.582804,1.0
581276429,0.44270912,0.4562435,31.582804,1.0
581287157,-0.75661904,-0.77975214,31.582804,1.0
581297886,-1.1268039,-1.1612551,31.582804,1.0
581308613,-1.2877162,-1.3270872,31.582804,1.0
581319377,-1.3481638,-1.3893831,31.582804,1.0
581330104,-1.3858489,-1.4282203,31.582804,1.0
581340832,-1.40685,-1.4498758,31.582804,1.0
581351561,-1.4519613,-1.4963669,31.582804,1.0
581362290,-1.5412337,-1.5883694,31.582804,1.0
581373018,-1.677285,-1.7285815,31.582804,1.0
581383745,-1.8517472,-1.9083512,31.582804,1.0
581394475,-1.9754022,-2.0357862,31.582804,1.0
581405248,-2.0097516,-2.0711854,31.582804,1.0
581415975,-1.9344982,-1.9936317,31.582804,1.0
581426704,-1.6351379,-1.6851206,31.582804,1.0
581437432,-0.99445343,-1.0248518,31.582804,1.0
581448160,0.92310643,0.95132387,31.582804,1.0
581458891,1.6265128,1.6762319,31.582804,1.0
581469619,2.039814,2.1025038,31.680508,1.0
581480348,2.3186285,2.389887,31.680508,1.0
581491088,2.5511034,2.6295066,31.680508,1.0
581501827,2.7567122,2.841445,31.680508,1.0
581512554,2.9109273,3.0004003,31.680508,1.0
581523282,2.9536405,3.0444262,31.680508,1.0
581534010,2.8531466,2.9408436,31.680508,1.0
581544740,2.6392057,2.7203438,31.680508,1.0
581555467,2.3241956,2.3956492,31.680508,1.0
581566195,1.9003488,1.958772,31.680508,1.0
581576933,1.3486997,1.3899404,31.582804,1.0
581587662,0.41172296,0.42431268,31.582804,1.0
581598390,-1.1206464,-1.1549137,31.582804,1.0
581609118,-1.5565856,-1.6041591,31.582804,1.0
581619847,-1.8250157,-1.8807932,31.582804,1.0
581630576,-2.0254912,-2.087396,31.582804,1.0
581641303,-2.1974876,-2.264649,31.582804,1.0
581652056,-2.3160741,-2.3869162,31.582804,1.0
581662784,-2.3945546,-2.467797,31.582804,1.0
581673513,-2.484896,-2.5609016,31.582804,1.0
581684243,-2.6073349,-2.6870856,31.582804,1.0
581694971,-2.74914,-2.833228,31.582804,1.0
581705699,-2.8585114,-2.9459047,31.582804,1.0
581716427,-2.9101315,-2.9991028,31.582804,1.0
581727220,-2.94004,-3.029926,31.582804,1.0
581737949,-2.9539788,-3.0442908,31.582804,1.0
581748678,-2.9391365,-3.0289948,31.582804,1.0
581759407,-2.9067674,-2.995636,31.582804,1.0
581770134,-2.847193,-2.9347327,31.680508,1.0
581780862,-2.7548656,-2.8395667,31.680508,1.0
581791589,-2.6264472,-2.7071998,31.680508,1.0
581802353,-2.416757,-2.4910626,31.680508,1.0
581813082,-2.1038404,-2.1684952,31.680508,1.0
581823809,-1.7319652,-1.7851915,31.680508,1.0
581834538,-1.3355719,-1.3766164,31.680508,1.0
581845266,-0.95076907,-0.9799879,31.680508,1.0
581855993,-0.45491377,-0.4688941,31.680508,1.0
581866722,0.91341084,0.9414804,31.680508,1.0
581877511,1.4547253,1.4991894,31.582804,1.0
581888241,1.7123096,1.7646468,31.582804,1.0
581898969,1.8110266,1.866381,31.582804,1.0
581909697,1.9270484,1.9859492,31.582804,1.0
581920424,1.9900934,2.050921,31.582804,1.0
581931151,1.8565706,1.9133315,31.582804,1.0
581941878,1.6412456,1.6914234,31.582804,1.0
581952644,1.4689721,1.513883,31.582804,1.0
581963382,1.1344826,1.1691672,31.582804,1.0
581974109,-0.37770402,-0.38925156,31.582804,1.0
581984836,-1.3729402,-1.4149151,31.582804,1.0
581995583,-1.9382404,-1.9974983,31.582804,1.0
582006312,-2.2763562,-2.3459513,31.582804,1.0
582017039,-2.4280262,-2.5022583,31.582804,1.0
582027795,-2.524117,-2.6012836,31.582804,1.0
582038525,-2.6066003,-2.6862886,31.582804,1.0
582049252,-2.6414583,-2.722212,31.582804,1.0
582059979,-2.6047,-2.6843302,31.582804,1.0
582070707,-2.5231152,-2.600251,31.582804,1.0
582081435,-2.4583979,-2.5339615,31.680508,1.0
582092163,-2.4315174,-2.506258,31.680508,1.0
582102937,-2.3889039,-2.4623346,31.680508,1.0
582113667,-2.3166804,-2.387891,31.680508,1.0
582124395,-2.2749124,-2.344839,31.680508,1.0
582135124,-2.2797613,-2.349837,31.680508,1.0
582145851,-2.3140402,-2.3851905,31.680508,1.0
582156591,-2.34157,-2.4135666,31.680508,1.0
582167320,-2.3771837,-2.4502754,31.680508,1.0
582178082,-2.4502356,-2.5251687,31.582804,1.0
582188813,-2.525343,-2.6025724,31.582804,1.0
582199541,-2.5817726,-2.660728,31.582804,1.0
582210272,-2.6221645,-2.7023551,31.582804,1.0
582221014,-2.6493464,-2.7303681,31.582804,1.0
582231742,-2.6465864,-2.7275238,31.582804,1.0
582242469,-2.6050336,-2.6847003,31.582804,1.0
582253207,-2.5406551,-2.6183403,31.582804,1.0
582263935,-2.4862142,-2.5622346,31.582804,1.0
582274662,-2.4846542,-2.560627,31.582804,1.0
582285390,-2.5377965,-2.6158135,31.680508,1.0
582296123,-2.6195483,-2.7000785,31.680508,1.0
582306852,-2.6917505,-2.7745073,31.680508,1.0
582317580,-2.7331755,-2.8172057,31.680508,1.0
582328369,-2.7710257,-2.8562195,31.680508,1.0
582339099,-2.784993,-2.8706162,31.680508,1.0
582349827,-2.688164,-2.7707934,31.680508,1.0
582360554,-2.478347,-2.554527,31.680508,1.0
582371282,-2.2353742,-2.3040857,31.680508,1.0
582382024,-1.9759287,-2.0366652,31.680508,1.0
582392751,-1.7426322,-1.7961975,31.680508,1.0
582403498,-1.6412663,-1.691716,31.680508,1.0
582414230,-1.6159253,-1.6655816,31.680508,1.0
582424958,-1.5465666,-1.5940915,31.680508,1.0
582435687,-1.3767432,-1.4190495,31.680508,1.0
582446415,-1.0267129,-1.0582631,31.680508,1.0
582457142,-0.24348524,-0.25096738,31.680508,1.0
582467869,0.9223066,0.9506614,31.680508,1.0
582478646,1.3177726,1.3582854,31.680508,1.0
582489379,1.5924212,1.6413776,31.680508,1.0
582500106,1.764039,1.8182715,31.680508,1.0
582510834,1.8704071,1.9279048,31.680508,1.0
582521570,1.9319515,1.9913411,31.680508,1.0
582532303,1.988293,2.0494146,31.680508,1.0
582543030,2.0868626,2.1510143,31.680508,1.0
582553788,2.2234821,2.2918336,31.680508,1.0
582564518,2.3234694,2.3948946,31.680508,1.0
582575245,2.3502195,2.422461,31.680508,1.0
582585999,2.351727,2.424015,31.680508,1.0
582596738,2.3808553,2.4540386,31.680508,1.0
582607465,2.424692,2.4992228,31.680508,1.0
582618194,2.4102027,2.4842882,31.680508,1.0
582628941,2.3369,2.408729,31.680508,1.0
582639682,2.2737281,2.3436155,31.680508,1.0
582650440,2.1988335,2.266419,31.680508,1.0
582661168,2.046523,2.109427,31.680508,1.0
582671897,1.8422143,1.8988549,31.680508,1.0
582682625,1.6025596,1.6518316,31.680508,1.0
582693352,1.2982962,1.3382134,31.680508,1.0
582704097,0.9699136,0.99973446,31.680508,1.0
582714825,0.7423511,0.76517534,31.680508,1.0
582725553,0.6484941,0.66843265,31.680508,1.0
582736281,0.60263723,0.6211643,31.680508,1.0
582747009,0.59778625,0.6161642,31.680508,1.0
582757736,0.53060365,0.5469162,31.680508,1.0
582768463,-0.2001163,-0.20626855,31.680508,1.0
582779242,-0.7726044,-0.79635686,31.680508,1.0
582789971,-0.9744109,-1.0043676,31.680508,1.0
582800699,-0.8536341,-0.8798777,31.680508,1.0
582811426,-0.23330964,-0.24048236,31.680508,1.0
582822154,0.92547154,0.95392364,31.680508,1.0
582832881,1.2802488,1.3196028,31.680508,1.0
582843608,1.3646979,1.4066479,31.680508,1.0
582854368,1.2671589,1.3061106,31.680508,1.0
582865115,1.1714098,1.2074183,31.680508,1.0
582875871,1.174455,1.2105571,31.680508,1.0
582886598,1.2410643,1.2792139,31.680508,1.0
582897326,1.3748895,1.417137,31.680508,1.0
582908073,1.527618,1.5745586,31.680508,1.0
582918800,1.6106191,1.6601101,31.680508,1.0
582929528,1.584108,1.6327845,31.680508,1.0
582940286,1.4514292,1.4960511,31.680508,1.0
582951015,1.2789638,1.3182834,31.680508,1.0
582961743,1.1235963,1.1581395,31.680508,1.0
582972491,0.99085206,1.0213141,31.680508,1.0
582983220,0.88489753,0.9121023,31.680508,1.0
582993948,0.74115884,0.7639389,31.680508,1.0
583004676,-0.25991526,-0.26790395,31.680508,1.0
583015407,-1.0754464,-1.108501,31.680508,1.0
583026134,-1.6647618,-1.7159295,31.680508,1.0
583036862,-2.2145584,-2.2826245,31.680508,1.0
583047590,-2.663546,-2.745412,31.680508,1.0
583058318,-2.9897416,-3.0816066,31.680508,1.0
583069045,-3.1674933,-3.2648203,31.680508,1.0
583079808,-3.2811236,-3.381942,31.680508,1.0
583090536,-3.4292374,-3.534607,31.680508,1.0
583101265,-3.5930758,-3.7034883,31.680508,1.0
583111993,-3.7508318,-3.8660922,31.680508,1.0
583122725,-3.8148277,-3.9320548,31.680508,1.0
583133453,-3.7157369,-3.8299189,31.680508,1.0
583144196,-3.5555346,-3.6647937,31.680508,1.0
583154948,-3.447966,-3.5539768,31.680508,1.0
583165677,-3.3441875,-3.4470074,31.680508,1.0
583176405,-3.1916988,-3.2898302,31.680508,1.0
583187133,-3.0479856,-3.1416986,31.680508,1.0
583197862,-2.9382157,-3.0285537,31.680508,1.0
583208590,-2.8423536,-2.9297442,31.680508,1.0
583219322,-2.7942593,-2.8800893,31.680508,1.0
583230092,-2.7944787,-2.8803153,31.680508,1.0
583240829,-2.7950637,-2.8809185,31.680508,1.0
583251561,-2.8020017,-2.8880694,31.680508,1.0
583262290,-2.8307605,-2.9177914,31.680508,1.0
583273017,-2.8526664,-2.9403706,31.680508,1.0
583283745,-2.8624523,-2.9504573,31.680508,1.0
583294472,-2.8937182,-2.9826846,31.680508,1.0
583305239,-2.9416263,-3.0320656,31.680508,1.0
583315984,-3.012911,-3.1054997,31.680508,1.0
583326713,-3.1308815,-3.2270954,31.680508,1.0
583337440,-3.2599258,-3.3601053,31.680508,1.0
583348169,-3.3271809,-3.4294271,31.680508,1.0
583358896,-3.2681508,-3.368583,31.680508,1.0
583369623,-3.1010401,-3.196337,31.680508,1.0
583380392,-2.918071,-3.0077412,31.680508,1.0
583391121,-2.7908938,-2.876656,31.680508,1.0
583401852,-2.7449107,-2.8292599,31.680508,1.0
583412581,-2.7698038,-2.8549178,31.680508,1.0
583423308,-2.85532,-2.9430728,31.680508,1.0
583434036,-2.951648,-3.0423613,31.680508,1.0
583444765,-3.0458038,-3.1394107,31.680508,1.0
583455534,-3.2066522,-3.3052025,31.680508,1.0
583466262,-3.3846529,-3.4886737,31.680508,1.0
583476989,-3.5018375,-3.6094866,31.680508,1.0
583487717,-3.5395787,-3.648388,31.680508,1.0
583498445,-3.4707973,-3.5774922,31.680508,1.0
583509173,-3.3299856,-3.4323518,31.680508,1.0
583519901,-3.1742167,-3.2717946,31.680508,1.0
583530675,-3.0520942,-3.1459062,31.680508,1.0
583541405,-3.0432005,-3.136739,31.680508,1.0
583552133,-3.0920274,-3.1870668,31.680508,1.0
583562862,-3.050256,-3.1440115,31.680508,1.0
583573591,-2.88651,-2.9752324,31.680508,1.0
583584333,-2.6999044,-2.7828913,31.680508,1.0
583595061,-2.5071208,-2.584182,31.680508,1.0
583605868,-2.1831808,-2.2502851,31.680508,1.0
583616596,-1.9574951,-2.0176625,31.680508,1.0
583627324,-2.3932889,-2.4668512,31.680508,1.0
583638051,-3.1090872,-3.2046273,31.680508,1.0
583648779,-3.6071706,-3.7180164,31.680508,1.0
583659523,-3.9018822,-4.0217843,31.680508,1.0
583670251,-4.044904,-4.1692014,31.680508,1.0
583680978,-4.063147,-4.1880045,31.680508,1.0
583691707,-4.1077433,-4.2339706,31.680508,1.0
583702435,-4.283453,-4.41508,31.680508,1.0
583713162,-4.506923,-4.645417,31.680508,1.0
583723890,-4.6183596,-4.7602777,31.680508,1.0
583734622,-4.567636,-4.707996,31.680508,1.0
583745349,-4.4568205,-4.5936956,31.680508,1.0
583756122,-4.380349,-4.514876,31.680508,1.0
583766850,-4.2888737,-4.420591,31.680508,1.0
583777579,-4.136059,-4.263083,31.680508,1.0
583788306,-4.0496025,-4.1739717,31.680508,1.0
583799035,-4.150207,-4.2777185,31.680508,1.0
583809764,-4.331148,-4.464219,31.680508,1.0
583820491,-4.4957056,-4.6338325,31.680508,1.0
583831253,-4.6806555,-4.824465,31.680508,1.0
583841982,-4.924146,-5.0754366,31.680508,1.0
583852709,-5.237408,-5.398363,31.680508,1.0
583863437,-5.602014,-5.774174,31.680508,1.0
583874164,-5.956159,-6.1392026,31.680508,1.0
583884937,-6.1688223,-6.3584013,31.680508,1.0
583895665,-6.1396165,-6.328298,31.680508,1.0
583906412,-5.904152,-6.085379,31.680508,1.0
583917182,-5.5436187,-5.713779,31.680508,1.0
583927910,-5.139864,-5.2976313,31.680508,1.0
583938638,-4.8196177,-4.967555,31.680508,1.0
583949371,-4.7433944,-4.8889923,31.680508,1.0
583960111,-4.919446,-5.0706797,31.680508,1.0
583970840,-5.1974525,-5.357233,31.680508,1.0
583981568,-5.515109,-5.6846547,31.680508,1.0
583992296,-5.7499685,-5.9267344,31.680508,1.0
584003032,-5.867129,-6.0474963,31.680508,1.0
584013762,-6.110229,-6.2979608,31.680508,1.0
584024491,-6.4893084,-6.688687,31.680508,1.0
584035231,-6.818507,-7.0280004,31.680508,1.0
584045958,-7.1093936,-7.3278236,31.680508,1.0
584056703,-7.317148,-7.5419617,31.680508,1.0
584067430,-7.3155003,-7.540338,31.680508,1.0
584078183,-7.146584,-7.36623,31.680508,1.0
584088936,-6.8932757,-7.1051364,31.680508,1.0
584099664,-6.54541,-6.7465796,31.680508,1.0
584110392,-6.1080523,-6.2957797,31.680508,1.0
584121120,-5.645769,-5.819339,31.680508,1.0
584131847,-5.210474,-5.3706613,31.680508,1.0
584142609,-4.893568,-5.0440125,31.680508,1.0
584153338,-4.768473,-4.915072,31.680508,1.0
584164066,-4.680253,-4.8241396,31.680508,1.0
584174794,-4.5522823,-4.6919446,31.680508,1.0
584185523,-4.506717,-4.6449814,31.680508,1.0
584196254,-4.5192823,-4.657932,31.680508,1.0
584206996,-4.5261683,-4.6650295,31.680508,1.0
584217726,-4.656568,-4.7994294,31.680508,1.0
584228456,-4.9684844,-5.1211624,31.680508,1.0
584239185,-5.283407,-5.4457626,31.680508,1.0
584249914,-5.4608903,-5.6287,31.680508,1.0
584260641,-5.5245314,-5.6942964,31.680508,1.0
584271370,-5.5500226,-5.720571,31.680508,1.0
584282125,-5.5493293,-5.719962,31.680508,1.0
584292854,-5.5225434,-5.692353,31.680508,1.0
584303582,-5.4461913,-5.6136527,31.680508,1.0
584314310,-5.2514677,-5.412942,31.680508,1.0
584325051,-4.9481144,-5.1002607,31.680508,1.0
584335778,-4.60026,-4.7415876,31.680508,1.0
584346505,-4.2462873,-4.3767405,31.680508,1.0
584357291,-3.973715,-4.095794,31.680508,1.0
584368018,-3.97733,-4.09952,31.680508,1.0
584378751,-4.2293563,-4.359289,31.680508,1.0
584389482,-4.4365816,-4.5728693,31.680508,1.0
584400212,-4.547202,-4.6868877,31.680508,1.0
584410940,-4.624623,-4.766687,31.680508,1.0
584421669,-4.6641946,-4.807474,31.680508,1.0
584432418,-4.7717977,-4.9184318,31.680508,1.0
584443146,-5.039415,-5.1942725,31.680508,1.0
584453916,-5.4534535,-5.621034,31.680508,1.0
584464643,-6.0123944,-6.197151,31.680508,1.0
584475382,-6.7047462,-6.9107785,31.680508,1.0
584486109,-7.3532476,-7.579208,31.680508,1.0
584496837,-8.021531,-8.267914,31.680508,1.0
584507573,-8.873881,-9.146444,31.680508,1.0
584518301,-9.708579,-10.006781,31.680508,1.0
584529042,-10.391879,-10.711068,31.680508,1.0
584539770,-11.028247,-11.366982,31.680508,1.0
584550497,-11.732226,-12.092493,31.680508,1.0
584561225,-12.328138,-12.706704,31.680508,1.0
584571952,-12.537493,-12.922487,31.680508,1.0
584582740,-12.401932,-12.7827635,31.680508,1.0
584593468,-12.04526,-12.415157,31.680508,1.0
584604197,-11.634859,-11.992153,31.680508,1.0
584614924,-11.410852,-11.761268,31.680508,1.0
584625652,-11.338181,-11.686363,31.680508,1.0
584636380,-11.30339,-11.650504,31.680508,1.0
584647108,-11.515185,-11.868804,31.680508,1.0
584657864,-12.027083,-12.3965435,31.680508,1.0
584668591,-12.469927,-12.852991,31.680508,1.0
584679325,-12.86594,-13.261169,31.680508,1.0
584690054,-13.262465,-13.669875,31.680508,1.0
584700782,-13.30438,-13.7130785,31.680508,1.0
584711510,-13.0289755,-13.429147,31.680508,1.0
584722238,-12.737278,-13.1284895,31.680508,1.0
584733004,-12.453434,-12.835928,31.680508,1.0
584743732,-12.183441,-12.557642,31.680508,1.0
584754460,-12.025178,-12.39415,31.680508,1.0
584765210,-11.8784,-12.242868,31.680508,1.0
584775937,-11.586517,-11.94203,31.680508,1.0
584786665,-11.237847,-11.582662,31.680508,1.0
584797401,-10.906371,-11.2410145,31.680508,1.0
584808153,-10.549106,-10.8727865,31.680508,1.0
584818881,-10.238123,-10.552171,31.680508,1.0
584829608,-10.112665,-10.422865,31.680508,1.0
584840337,-10.135923,-10.446836,31.680508,1.0
584851064,-10.024312,-10.331801,31.680508,1.0
584861794,-9.703296,-10.000937,31.680508,1.0
584872541,-9.387555,-9.675609,31.680508,1.0
584883284,-9.132323,-9.412545,31.680508,1.0
584894015,-8.887608,-9.16032,31.680508,1.0
584904742,-8.692031,-8.958742,31.680508,1.0
584915471,-8.516432,-8.77795,31.680508,1.0
584926199,-8.318031,-8.573457,31.680508,1.0
584936926,-8.048323,-8.295466,31.680508,1.0
584947655,-7.6310625,-7.865393,31.680508,1.0
584958469,-7.1527514,-7.3723946,31.680508,1.0
584969200,-6.716613,-6.922863,31.680508,1.0
584979938,-6.291626,-6.4847465,31.680508,1.0
584990668,-5.866879,-6.046962,31.680508,1.0
585001395,-5.4621716,-5.6298323,31.680508,1.0
585012124,-5.1317873,-5.2893066,31.680508,1.0
585022851,-5.022604,-5.176772,31.680508,1.0
585033579,-5.14107,-5.298841,31.680508,1.0
585044308,-5.3388896,-5.502732,31.680508,1.0
585055035,-5.4993873,-5.6681547,31.680508,1.0
585065764,-5.5343137,-5.704153,31.680508,1.0
585076492,-5.4434896,-5.6104794,31.680508,1.0
585087219,-5.320806,-5.484032,31.680508,1.0
585097960,-5.231819,-5.3923154,31.680508,1.0
585108718,-5.125432,-5.282665,31.680508,1.0
585119446,-4.8756886,-5.02526,31.680508,1.0
585130174,-4.4598317,-4.596646,31.680508,1.0
585140903,-4.150381,-4.277739,31.680508,1.0
585151633,-4.3872104,-4.521836,31.680508,1.0
585162360,-5.0626745,-5.218027,31.680508,1.0
585173097,-5.6648107,-5.8386407,31.680508,1.0
585183866,-6.1428466,-6.3312035,31.680508,1.0
585194594,-6.603817,-6.8063083,31.680508,1.0
585205333,-6.8548665,-7.065056,31.680508,1.0
585216061,-6.904138,-7.115838,31.680508,1.0
585226788,-6.9535813,-7.1667976,31.680508,1.0
585237518,-7.016306,-7.231473,31.680508,1.0
585248277,-7.0602036,-7.2767167,31.680508,1.0
585259010,-7.044723,-7.2607617,31.680508,1.0
585269744,-6.915311,-7.127381,31.680508,1.0
585280471,-6.71103,-6.9168353,31.680508,1.0
585291199,-6.4825807,-6.6813803,31.680508,1.0
585301929,-6.286338,-6.4789424,31.680508,1.0
585312657,-6.152237,-6.3407326,31.680508,1.0
585323385,-6.0678496,-6.25376,31.680508,1.0
585334162,-6.046059,-6.231302,31.680508,1.0
585344891,-6.0751653,-6.2610598,31.680508,1.0
585355637,-6.103128,-6.2898784,31.680508,1.0
585366366,-6.0743756,-6.2602463,31.680508,1.0
585377094,-6.011079,-6.1950126,31.680508,1.0
585387822,-5.993533,-6.17693,31.680508,1.0
585398550,-6.1038685,-6.2908983,31.680508,1.0
585409300,-6.3076444,-6.500918,31.680508,1.0
585420028,-6.465984,-6.664109,31.680508,1.0
585430755,-6.5310163,-6.7311344,31.680508,1.0
585441483,-6.5643263,-6.7654653,31.680508,1.0
585452211,-6.634959,-6.8382626,31.680508,1.0
585462939,-6.75879,-6.9657063,31.680508,1.0
585473667,-6.8769803,-7.087515,31.680508,1.0
585484445,-6.9817557,-7.195498,31.680508,1.0
585495174,-7.1229863,-7.341052,31.680508,1.0
585505918,-7.2386303,-7.4602556,31.680508,1.0
585516681,-7.2627015,-7.4850636,31.680508,1.0
585527412,-7.22918,-7.4505157,31.680508,1.0
585538139,-7.1319604,-7.3503194,31.680508,1.0
585548866,-7.0194683,-7.2343836,31.680508,1.0
585559594,-7.1120477,-7.3299694,31.680508,1.0
585570323,-7.4665136,-7.695297,31.680508,1.0
585581050,-7.7976356,-8.036565,31.680508,1.0
585591780,-7.887006,-8.128674,31.680508,1.0
585602508,-7.7734795,-8.011668,31.680508,1.0
585613235,-7.597276,-7.8300657,31.680508,1.0
585623962,-7.486352,-7.715781,31.680508,1.0
585634734,-7.395113,-7.621746,31.680508,1.0
585645463,-7.1789193,-7.3989267,31.680508,1.0
585656191,-6.848558,-7.058441,31.680508,1.0
585666961,-6.6176996,-6.8203893,31.680508,1.0
585677694,-6.587608,-6.7893763,31.680508,1.0
585688423,-6.57664,-6.7780724,31.680508,1.0
585699152,-6.4784827,-6.6769085,31.680508,1.0
585709898,-6.4242043,-6.620968,31.680508,1.0
585720626,-6.533715,-6.733824,31.680508,1.0
585731355,-6.7345166,-6.9407754,31.680508,1.0
585742082,-6.921897,-7.133895,31.680508,1.0
585752811,-6.991963,-7.2061067,31.680508,1.0
585763539,-6.89893,-7.1102247,31.680508,1.0
585774266,-6.7354765,-6.941765,31.680508,1.0
585785080,-6.585748,-6.787451,31.680508,1.0
585795808,-6.4619517,-6.659863,31.680508,1.0
585806535,-6.3433905,-6.53767,31.680508,1.0
585817263,-6.2732024,-6.4653325,31.680508,1.0
585827992,-6.1850204,-6.374537,31.680508,1.0
585838719,-6.0660553,-6.2519264,31.680508,1.0
585849447,-6.1183634,-6.305837,31.680508,1.0
585860184,-6.235466,-6.426528,31.680508,1.0
585870940,-6.2949677,-6.487853,31.680508,1.0
585881668,-6.4139767,-6.6107793,31.680508,1.0
585892395,-6.603664,-6.806287,31.680508,1.0
585903125,-6.8538985,-7.0641994,31.680508,1.0
585913853,-7.3786073,-7.605008,31.680508,1.0
585924582,-8.236499,-8.489223,31.680508,1.0
585935360,-9.096946,-9.375652,31.680508,1.0
585946087,-9.734156,-10.032385,31.680508,1.0
586407670,-6.966575,-7.1805286,31.680508,1.0
586418401,-6.9397345,-7.152775,31.680508,1.0
586429130,-7.0974426,-7.315325,31.680508,1.0
586439859,-7.2989984,-7.523068,31.680508,1.0
586450586,-7.3534875,-7.57923,31.680508,1.0
586461346,-7.3656325,-7.5917478,31.680508,1.0
586472075,-7.3779073,-7.6042953,31.680508,1.0
586482803,-7.335388,-7.5604715,31.680508,1.0
586493530,-7.2391157,-7.461245,31.680508,1.0
586504257,-7.1410923,-7.3602138,31.680508,1.0
586514985,-7.1055017,-7.323531,31.680508,1.0
586525713,-7.0304875,-7.2464037,31.680508,1.0
586536507,-6.8702755,-7.081271,31.680508,1.0
586547236,-6.7510915,-6.958427,31.680508,1.0
586557973,-6.62977,-6.8333793,31.680508,1.0
586568701,-6.468381,-6.667034,31.680508,1.0
586579430,-6.315993,-6.50974,31.680508,1.0
586590165,-6.0542502,-6.2399683,31.680508,1.0
586600892,-5.7223787,-5.8979163,31.680508,1.0
586633108,-5.1652784,-5.32376,31.680508,1.0
586643835,-5.2458196,-5.406772,31.680508,1.0
586654563,-5.36213,-5.5266514,31.680508,1.0
586665291,-5.508872,-5.6778955,31.680508,1.0
586676020,-5.562607,-5.733279,31.680508,1.0
586686788,-5.501065,-5.670052,31.680508,1.0
586697516,-5.406594,-5.572679,31.680508,1.0
586708244,-5.1818867,-5.341069,31.680508,1.0
586718986,-4.878391,-5.02825,31.680508,1.0
586729714,-4.6542907,-4.797266,31.680508,1.0
586740450,-4.356024,-4.4901037,31.680508,1.0
586751177,-3.9406686,-4.0619636,31.680508,1.0
586761938,-3.5879734,-3.6984124,31.680508,1.0
586772667,-3.291688,-3.393007,31.680508,1.0
586783396,-2.9730182,-3.0645287,31.680508,1.0
586794123,-2.7846372,-2.870282,31.680508,1.0
586804860,-3.0452178,-3.138877,31.680508,1.0
586815589,-3.5422301,-3.6511753,31.680508,1.0
586826316,-3.77744,-3.8936195,31.680508,1.0
586837073,-3.551676,-3.6609752,31.680508,1.0
586847800,-3.0165823,-3.1094146,31.680508,1.0
586858527,-2.583692,-2.6632025,31.680508,1.0
586869307,-2.3357403,-2.4076204,31.680508,1.0
586880037,-2.0516992,-2.1148381,31.680508,1.0
586890767,-1.91504,-1.9739734,31.680508,1.0
586901495,-1.9651717,-2.0255902,31.680508,1.0
586912223,-2.0751503,-2.13895,31.680508,1.0
586922954,-2.3147562,-2.3859227,31.680508,1.0
586933693,-2.591345,-2.671015,31.680508,1.0
586944444,-2.8863828,-2.9751236,31.680508,1.0
586955183,-3.143283,-3.2399738,31.680508,1.0
586965937,-3.176293,-3.2739992,31.680508,1.0
586976665,-3.1689088,-3.266388,31.680508,1.0
586987394,-3.3385592,-3.441257,31.680508,1.0
586998135,-3.449484,-3.5556912,31.680508,1.0
587008863,-3.531256,-3.6399808,31.680508,1.0
587019591,-3.739235,-3.8543632,31.680508,1.0
587030344,-3.8159893,-3.9334807,31.680508,1.0
587041072,-3.5593293,-3.6689184,31.680508,1.0
587051808,-3.0901396,-3.1852827,31.680508,1.0
587062559,-2.632067,-2.712942,31.680508,1.0
587073288,-2.3288333,-2.4003909,31.680508,1.0
587084017,-2.1248121,-2.1901007,31.680508,1.0
587094752,-1.8640648,-1.9213415,31.680508,1.0
587105482,-1.5711157,-1.6193911,31.680508,1.0
587116232,-1.1198541,-1.1543164,31.680508,1.0
587126963,0.7166447,0.7386987,31.680508,1.0
587137692,1.4422628,1.486647,31.680508,1.0
587148433,1.7256464,1.7787514,31.680508,1.0
587159161,1.8649483,1.9223448,31.680508,1.0
587169936,1.6691612,1.7205322,31.680508,1.0
587180687,1.0366796,1.068585,31.680508,1.0
587191416,-0.5060433,-0.52161753,31.680508,1.0
587202144,-1.7005225,-1.7528586,31.680508,1.0
587212871,-2.7757976,-2.861227,31.680508,1.0
587223598,-3.5002623,-3.6080594,31.680508,1.0
587234327,-3.8978193,-4.01786,31.680508,1.0
587245055,-4.0563703,-4.181294,31.680508,1.0
587255783,-3.9677477,-4.089942,31.680508,1.0
587266512,-3.7596004,-3.8753843,31.680508,1.0
587277263,-3.6546338,-3.7671902,31.680508,1.0
587288002,-3.4740608,-3.5810559,31.680508,1.0
587298731,-2.8111312,-2.8977094,31.680508,1.0
587309458,-1.5027767,-1.5490597,31.680508,1.0
587320185,1.444321,1.4888037,31.680508,1.0
587330913,2.2064452,2.2744,31.680508,1.0
587341641,2.5953543,2.6752868,31.680508,1.0
587352369,2.678918,2.761424,31.680508,1.0
587363098,2.4235203,2.4981606,31.680508,1.0
587373826,2.1347065,2.2004519,31.680508,1.0
587384553,2.2653089,2.3350358,31.680508,1.0
587395281,2.7121866,2.7956686,31.680508,1.0
587406009,3.1256456,3.221854,31.680508,1.0
587416738,3.394771,3.4992633,31.680508,1.0
587427466,3.4528606,3.5591407,31.680508,1.0
587438233,3.184539,3.2826824,31.680508,1.0
587448962,2.7735486,2.8590257,31.680508,1.0
587459689,2.4870093,2.5636556,31.680508,1.0
587470417,2.1063583,2.1712735,31.680508,1.0
587481145,1.5816468,1.6303566,31.680508,1.0
587491872,1.4795651,1.5251311,31.680508,1.0
587502603,1.6223241,1.6722866,31.680508,1.0
587513365,1.5218934,1.568763,31.680508,1.0
587524094,1.6257851,1.6758542,31.680508,1.0
587534829,2.1603465,2.2268784,31.680508,1.0
587545558,2.6121435,2.692636,31.680508,1.0
587556287,2.9115477,3.0012662,31.680508,1.0
587567016,3.3094292,3.4114084,31.680508,1.0
587577743,3.6526053,3.7651594,31.680508,1.0
587588510,3.7783823,3.8947735,31.680508,1.0
587599238,3.8367105,3.9548984,31.680508,1.0
587609966,3.9506626,4.072361,31.680508,1.0
587620694,4.133709,4.261046,31.680508,1.0
587631423,4.2467637,4.377583,31.680508,1.0
587642151,4.166229,4.2945466,31.680508,1.0
587652880,3.987375,4.110184,31.680508,1.0
587663660,3.740085,3.8552778,31.680508,1.0
587674388,3.354193,3.4575005,31.680508,1.0
587685115,2.9820542,3.0739,31.680508,1.0
587695843,2.6977942,2.780885,31.680508,1.0
587706581,2.469319,2.5454612,31.680508,1.0
587717310,2.5625398,2.6415565,31.680508,1.0
587728037,2.8504343,2.9383283,31.680508,1.0
587738798,3.0930262,3.1884005,31.680508,1.0
587749543,3.377063,3.4811397,31.680508,1.0
587760271,3.596468,3.7073064,31.680508,1.0
587770998,3.6821055,3.7955832,31.680508,1.0
587781727,3.6809788,3.7944217,31.680508,1.0
587792455,3.5813966,3.6917706,31.680508,1.0
587803182,3.535007,3.6439466,31.680508,1.0
587813945,3.5859063,3.6964145,31.680508,1.0
587824686,3.4860916,3.5935237,31.680508,1.0
587835413,3.3308346,3.4334822,31.680508,1.0
587846142,3.3320348,3.4347193,31.680508,1.0
587856869,3.2323864,3.332,31.680508,1.0
587867600,3.0526319,3.146706,31.680508,1.0
587878327,2.972706,3.0643172,31.680508,1.0
587889087,2.7759435,2.861491,31.680508,1.0
587899815,2.5812802,2.6608286,31.680508,1.0
587910543,2.6592214,2.7411985,31.680508,1.0
587921271,2.7161427,2.7998745,31.680508,1.0
587932032,2.660013,2.7420146,31.680508,1.0
587942762,2.6836214,2.7663507,31.680508,1.0
587953489,2.5741649,2.65352,31.680508,1.0
587964235,2.3175566,2.3889835,31.680508,1.0
587974964,2.316812,2.388216,31.680508,1.0
587985691,2.4972532,2.5742183,31.680508,1.0
587996420,2.6602633,2.7422523,31.680508,1.0
588007156,2.8353617,2.9227474,31.680508,1.0
588017886,2.8830936,2.9719503,31.680508,1.0
588028615,2.7069736,2.7904058,31.680508,1.0
588039391,2.405886,2.4800382,31.680508,1.0
588050123,2.0718627,2.13572,31.680508,1.0
588060851,1.9689157,2.0296001,31.680508,1.0
588071578,2.2392967,2.30832,31.680508,1.0
588082320,2.5370147,2.6152148,31.680508,1.0
588093048,2.8092628,2.8958547,31.680508,1.0
588103776,3.1200993,3.2162724,31.680508,1.0
588114526,3.267742,3.368466,31.680508,1.0
588125254,3.3583884,3.4620054,31.680508,1.0
588135982,3.565877,3.6758955,31.680508,1.0
588146711,3.6179483,3.7295735,31.680508,1.0
588157450,3.5321465,3.6411242,31.680508,1.0
588168182,3.6535444,3.7662678,31.680508,1.0
588178910,3.9084575,4.0290456,31.680508,1.0
588189672,4.106485,4.2330937,31.680508,1.0
588200401,4.222386,4.352568,31.680508,1.0
588211132,4.169658,4.298215,31.680508,1.0
588221860,4.009512,4.133131,31.680508,1.0
588232589,3.9047046,4.025142,31.680508,1.0
588243331,3.755266,3.8710942,31.680508,1.0
588254060,3.5552962,3.6649566,31.680508,1.0
588264816,3.4325192,3.5383925,31.680508,1.0
588275545,3.1949306,3.2934756,31.680508,1.0
588286272,2.916645,3.006629,31.680508,1.0
588297001,2.9185085,3.00855,31.680508,1.0
588307729,2.9309573,3.0213828,31.680508,1.0
588318467,2.9137971,3.003693,31.680508,1.0
588329195,3.0980442,3.1936245,31.680508,1.0
588339961,3.239494,3.3393474,31.680508,1.0
588350689,3.2816656,3.3828187,31.680508,1.0
588361417,3.439639,3.5456614,31.680508,1.0
588372144,3.5866027,3.697155,31.680508,1.0
588382875,3.610499,3.721788,31.680508,1.0
588393603,3.6512835,3.7639468,31.680508,1.0
588404331,3.571057,3.6812449,31.680508,1.0
588415115,3.1843534,3.282609,31.680508,1.0
588425844,2.6883516,2.7713027,31.680508,1.0
588436571,2.4020984,2.476217,31.680508,1.0
588447299,2.3602047,2.4330666,31.680508,1.0
588458028,2.293957,2.3647738,31.680508,1.0
588468784,2.261831,2.3316562,31.680508,1.0
588479525,2.4103138,2.4847226,31.680508,1.0
588490252,2.3605082,2.4333797,31.680508,1.0
588500981,2.0419745,2.1050673,31.680508,1.0
588511709,1.8557788,1.9131184,31.680508,1.0
588522442,1.5766913,1.6254077,31.680508,1.0
588533171,1.2066534,1.2439363,31.680508,1.0
588543937,1.4790347,1.5247337,31.680508,1.0
588554682,1.6155841,1.6654239,31.680508,1.0
588565416,1.3416901,1.3830804,31.680508,1.0
588576145,1.3982575,1.4413928,31.680508,1.0
588586873,1.6164995,1.6663675,31.680508,1.0
588597601,1.7087305,1.7614436,31.680508,1.0
588608343,1.9327412,1.9923675,31.680508,1.0
588619071,2.0723646,2.1362984,31.680508,1.0
588629799,2.0144455,2.0765924,31.680508,1.0
588640575,1.9876696,2.0489905,31.680508,1.0
588651304,2.0352688,2.0980582,31.680508,1.0
588662032,2.2189987,2.2874448,31.680508,1.0
588672762,2.4184291,2.4930267,31.680508,1.0
588683489,2.427803,2.5026898,31.680508,1.0
588694218,2.5784583,2.6579921,31.680508,1.0
588704947,2.8774326,2.9661884,31.680508,1.0
588715688,2.8216705,2.9088144,31.680508,1.0
588726422,2.5131812,2.5907977,31.680508,1.0
588737151,2.3311577,2.4031527,31.680508,1.0
588747879,2.1993856,2.267311,31.680508,1.0
588758607,2.0898447,2.154387,31.680508,1.0
588769371,1.9518937,2.0121083,31.680508,1.0
588780100,1.5082849,1.5548145,31.680508,1.0
588790831,0.86825764,0.89504284,31.680508,1.0
588801560,0.8624748,0.8890816,31.680508,1.0
588812288,1.5133512,1.5600371,31.680508,1.0
588823015,2.0976384,2.162376,31.680508,1.0
588833744,2.444869,2.5203228,31.680508,1.0
588844472,2.825482,2.9126823,31.680508,1.0
588855201,3.2430067,3.3430927,31.680508,1.0
588865989,3.2871552,3.3886037,31.680508,1.0
588876718,3.0073164,3.1000977,31.680508,1.0
588887446,2.7240329,2.8080742,31.680508,1.0
588898173,2.3077323,2.37893,31.680508,1.0
588908901,1.7301753,1.7835543,31.680508,1.0
588919629,1.5780989,1.6267861,31.680508,1.0
588930359,1.8366345,1.8934506,31.680508,1.0
588941121,2.1983008,2.2663052,31.680508,1.0
588951851,2.727869,2.8122554,31.680508,1.0
588962580,3.160883,3.2586646,31.680508,1.0
588973308,3.3766186,3.481074,31.680508,1.0
588984037,3.4494624,3.5559509,31.680508,1.0
588994765,3.2712374,3.3722239,31.680508,1.0
589005492,2.8457568,2.9336083,31.680508,1.0
589016286,2.4866936,2.5634604,31.680508,1.0
589027015,2.400205,2.4743018,31.680508,1.0
589037759,2.4107428,2.4852667,31.680508,1.0
589048487,2.271892,2.3421235,31.680508,1.0
589059217,2.0112152,2.0733883,31.680508,1.0
589069944,1.8463748,1.9034522,31.680508,1.0
589080688,1.584786,1.6337769,31.680508,1.0
589091417,0.96531147,0.9951165,31.680508,1.0
589102144,-0.80499625,-0.8298513,31.680508,1.0
589112886,-1.6393585,-1.6899754,31.680508,1.0
589123614,-2.058388,-2.1219428,31.680508,1.0
589134343,-2.0347593,-2.0975845,31.680508,1.0
589145075,-1.9553702,-2.0158346,31.680508,1.0
589155803,-1.9059137,-1.9648488,31.680508,1.0
589166571,-1.6874838,-1.7396644,31.680508,1.0
589177301,-1.4925802,-1.538734,31.680508,1.0
589188029,-1.1617601,-1.1976843,31.680508,1.0
589198756,0.055016775,0.056715973,31.680508,1.0
589209484,-0.4924013,-0.5076092,31.680508,1.0
589220212,-0.81563747,-0.84082854,31.680508,1.0
589230943,0.5617732,0.5791236,31.680508,1.0
589241701,-0.29998246,-0.30925393,31.680508,1.0
589252431,-1.0701402,-1.1032147,31.680508,1.0
589263159,-0.97230256,-1.0023532,31.680508,1.0
589273888,-1.4356406,-1.4800115,31.680508,1.0
589284618,-2.051054,-2.1144452,31.680508,1.0
589295350,-2.1763377,-2.243601,31.680508,1.0
589306079,-2.1689823,-2.2359493,31.680508,1.0
589316862,-2.213907,-2.2822611,31.680508,1.0
589327589,-2.2410383,-2.31023,31.680508,1.0
589338316,-2.5084038,-2.5858505,31.680508,1.0
589349045,-2.8082604,-2.8949652,31.680508,1.0
589359781,-2.8420293,-2.9298744,31.680508,1.0
589370522,-2.7557201,-2.8408976,31.680508,1.0
589381250,-2.591804,-2.6719148,31.680508,1.0
589392051,-2.4361808,-2.5114815,31.680508,1.0
589402780,-2.5664449,-2.6458015,31.680508,1.0
589413508,-2.5328467,-2.6111646,31.680508,1.0
589424236,-1.8489316,-1.9061021,31.680508,1.0
589434963,-0.57779205,-0.5956579,31.680508,1.0
589445708,1.4764743,1.5221281,31.680508,1.0
589456437,2.3242493,2.396117,31.680508,1.0
589467165,2.8086088,2.8953493,31.680508,1.0
589477892,3.2130435,3.3122745,31.680508,1.0
589488623,3.7619421,3.8781252,31.680508,1.0
589499371,4.082813,4.2089057,31.680508,1.0
589510098,4.0942984,4.220746,31.680508,1.0
589520839,4.1004167,4.227252,31.680508,1.0
589531568,4.115211,4.242504,31.680508,1.0
589542295,4.0243745,4.1488576,31.680508,1.0
589553024,3.9301913,4.051761,31.680508,1.0
589563753,3.8227148,3.9409702,31.680508,1.0
589574480,3.6718426,3.7854307,31.680508,1.0
589585208,3.558896,3.6695783,31.778212,1.0
589595936,3.4956489,3.6043642,31.778212,1.0
589606667,3.3546069,3.4589357,31.778212,1.0
589617449,2.905925,2.9962997,31.778212,1.0
589628177,2.2796233,2.350435,31.778212,1.0
589638936,1.8471268,1.9045041,31.778212,1.0
589649663,1.5707392,1.6195309,31.778212,1.0
589660391,1.618721,1.6690032,31.778212,1.0
589671121,2.0128248,2.075349,31.778212,1.0
589681857,2.2315958,2.3005931,31.680508,1.0
589692587,2.3696196,2.4428844,31.680508,1.0
589703316,2.6151295,2.695985,31.680508,1.0
589714043,2.8278923,2.915326,31.680508,1.0
589724772,3.020492,3.113761,31.680508,1.0
589735500,3.1295366,3.2261724,31.680508,1.0
589746227,3.1317587,3.2284632,31.680508,1.0
589756986,3.1160965,3.2123175,31.680508,1.0
589767745,2.9588652,3.050231,31.680508,1.0
589778472,2.6357439,2.717132,31.680508,1.0
589789200,2.3737688,2.4472435,31.680508,1.0
589799936,2.217665,2.2863076,31.680508,1.0
589810664,2.1781585,2.2455783,31.680508,1.0
589821392,2.3123426,2.383916,31.680508,1.0
589832128,2.5499852,2.628914,31.680508,1.0
589842863,2.9866621,3.0790846,31.680508,1.0
589853591,3.4722755,3.5797253,31.680508,1.0
589864324,3.6748996,3.7886195,31.680508,1.0
589875052,3.6665282,3.7799892,31.680508,1.0
589885781,3.6490586,3.761942,31.680508,1.0
589896509,3.7486694,3.8646343,31.680508,1.0
589907237,4.0482974,4.173531,31.680508,1.0
589918026,4.264157,4.396068,31.680508,1.0
589928768,4.2429066,4.374161,31.680508,1.0
589939495,4.141948,4.270079,31.680508,1.0
589950222,3.9416065,4.063474,31.680508,1.0
589960959,3.6149912,3.7267604,31.680508,1.0
589971687,3.3547778,3.4585016,31.680508,1.0
589982416,3.1303923,3.2271786,31.680508,1.0
589993197,2.7166195,2.800661,31.680508,1.0
590003924,2.1055155,2.170652,31.680508,1.0
590014653,1.3020326,1.3423125,31.680508,1.0
590025380,-0.55607355,-0.5732763,31.680508,1.0
590036108,-1.2970412,-1.3371665,31.680508,1.0
590046837,-1.9269418,-1.986581,31.680508,1.0
590057565,-2.4287982,-2.50397,31.680508,1.0
590068317,-2.574685,-2.654372,31.680508,1.0
590079048,-2.34607,-2.4186814,31.680508,1.0
590089775,-1.7231741,-1.7765067,31.680508,1.0
590100503,-1.1342355,-1.1693403,31.680508,1.0
590111232,-1.0872706,-1.1209649,31.680508,1.0
590121959,-0.78431714,-0.80862296,31.680508,1.0
590132688,0.5536434,0.57080066,31.680508,1.0
590143443,1.260405,1.2994646,31.680508,1.0
590154181,2.067683,2.131673,31.680508,1.0
590164909,2.475697,2.552314,31.680508,1.0
590175639,2.475239,2.551842,31.680508,1.0
590186366,2.3126442,2.384215,31.680508,1.0
590197094,1.8184019,1.8746773,31.680508,1.0
590207821,1.1737336,1.2100399,31.680508,1.0
590218600,1.1689429,1.205101,31.680508,1.0
590229371,1.5865142,1.6355888,31.680508,1.0
590240102,2.1995018,2.2675374,31.680508,1.0
590250831,2.8825536,2.9717176,31.680508,1.0
590261559,3.2743716,3.3756554,31.680508,1.0
590272286,3.3863785,3.4912267,31.680508,1.0
590283015,3.4062328,3.5116959,31.680508,1.0
590293782,3.3202364,3.4230368,31.680508,1.0
590304511,3.2748263,3.3762207,31.680508,1.0
590315239,3.4251866,3.5312583,31.680508,1.0
590325966,3.578632,3.689456,31.680508,1.0
590336695,3.6826823,3.7967284,31.680508,1.0
590347423,3.7348108,3.8504713,31.680508,1.0
590358151,3.718381,3.8335323,31.680508,1.0
590368893,3.8067214,3.9245842,31.680508,1.0
590379623,3.9940436,4.1177063,31.680508,1.0
590390352,4.2442994,4.3757105,31.680508,1.0
590401079,4.5583096,4.699443,31.680508,1.0
590411808,4.706308,4.8520236,31.680508,1.0
590422535,4.701381,4.8469443,31.680508,1.0
590433264,4.7503333,4.8973083,31.680508,1.0
590444036,4.745967,4.892807,31.680508,1.0
590454764,4.577693,4.7193265,31.680508,1.0
590465492,4.2485027,4.379951,31.680508,1.0
590476221,3.6534286,3.7664938,31.680508,1.0
590486948,2.9140494,3.0042324,31.680508,1.0
590497676,2.3112354,2.382763,31.680508,1.0
590508403,1.7082584,1.7611251,31.680508,1.0
590519183,1.0585071,1.0912654,31.680508,1.0
590529939,0.6213421,0.64061564,31.680508,1.0
590540667,-0.30050105,-0.30982235,31.680508,1.0
590551394,-0.4364039,-0.4499408,31.680508,1.0
590562122,-0.38044778,-0.39224896,31.680508,1.0
590572850,-0.7015288,-0.72328967,31.680508,1.0
590583579,0.46116173,0.4754666,31.680508,1.0
590594325,1.5486029,1.5965742,31.680508,1.0
590605053,2.3589642,2.432038,31.680508,1.0
590615791,3.184498,3.2831447,31.680508,1.0
590626519,3.7386427,3.854455,31.680508,1.0
590637246,3.916722,4.0380554,31.680508,1.0
590647975,3.9139225,4.035169,31.680508,1.0
590658718,3.7411573,3.857052,31.680508,1.0
590669473,3.4959714,3.6042707,31.680508,1.0
590680201,3.376984,3.4815972,31.680508,1.0
590690930,3.3871012,3.4919803,31.680508,1.0
590701657,3.5623367,3.6726418,31.680508,1.0
590712385,3.7456477,3.8616288,31.680508,1.0
590723113,3.736323,3.8520155,31.680508,1.0
590733840,3.7544632,3.8707173,31.680508,1.0
590744611,3.8517272,3.9710226,31.680508,1.0
590755339,3.7562742,3.8726132,31.680508,1.0
590766066,3.5503545,3.6603158,31.680508,1.0
590776810,3.4086692,3.5142422,31.680508,1.0
590787539,3.2125354,3.3120337,31.680508,1.0
590798267,3.0841558,3.1796625,31.680508,1.0
590808994,3.1754477,3.2737813,31.680508,1.0
590819764,3.2072637,3.3065827,31.680508,1.0
590830494,3.156111,3.253846,31.680508,1.0
590841222,3.153357,3.2510066,31.680508,1.0
590851950,3.0829077,3.1783874,31.680508,1.0
590862679,2.9714737,3.0635023,31.680508,1.0
590873406,2.910711,3.0008578,31.680508,1.0
590884133,2.8348763,2.9226744,31.680508,1.0
590894908,2.7163606,2.800937,31.778212,1.0
590905635,2.479528,2.5567112,31.778212,1.0
590916363,2.066306,2.1306264,31.778212,1.0
590927093,1.5162642,1.5634627,31.778212,1.0
590937838,0.117160924,0.12080793,31.778212,1.0
590948566,-1.2091076,-1.246745,31.778212,1.0
590959293,-0.88422865,-0.91176885,31.778212,1.0
590970123,-0.22417483,-0.23115699,31.778212,1.0
590980855,0.3717037,0.3832808,31.778212,1.0
590991584,1.4136665,1.4576966,31.778212,1.0
591002357,2.2717934,2.3421755,31.680508,1.0
591013086,2.780622,2.866889,31.680508,1.0
591023815,3.0893574,3.1852026,31.680508,1.0
591034543,3.3528762,3.456897,31.680508,1.0
591045272,3.6491115,3.7623227,31.680508,1.0
591056006,3.9413364,4.063614,31.680508,1.0
591066750,4.0356436,4.1608467,31.680508,1.0
591077478,3.9220788,4.043588,31.680508,1.0
591088207,3.8471322,3.9663196,31.680508,1.0
591098934,3.79046,3.9078918,31.680508,1.0
591109681,3.5568147,3.6670077,31.680508,1.0
591120492,3.333358,3.4366453,31.680508,1.0
591131238,3.4163892,3.5222492,31.680508,1.0
591141978,3.6788633,3.7928565,31.680508,1.0
591152706,3.8878984,4.0083685,31.680508,1.0
591163434,3.9009643,4.021839,31.680508,1.0
591174162,3.6835413,3.7977312,31.680508,1.0
591184955,3.4086618,3.5143304,31.680508,1.0
591195683,3.0702472,3.1654248,31.680508,1.0
591206413,2.562056,2.6414797,31.680508,1.0
591217140,2.0974305,2.1624508,31.680508,1.0
591227867,1.689811,1.7421951,31.680508,1.0
591238596,1.2482499,1.2869314,31.680508,1.0
591249370,1.0200611,1.0516714,31.680508,1.0
591260116,0.612056,0.63102275,31.680508,1.0
591270852,-0.40052038,-0.41293195,31.680508,1.0
591281582,0.88141733,0.9087402,31.680508,1.0
591292309,1.337813,1.3792837,31.680508,1.0
591303038,1.4775643,1.523367,31.680508,1.0
591313767,1.7350101,1.7887934,31.680508,1.0
591324509,1.8327578,1.8895712,31.680508,1.0
591335251,1.6484889,1.6996531,31.680508,1.0
591345992,1.4054991,1.4491217,31.680508,1.0
591356720,1.3082099,1.3488129,31.680508,1.0
591367450,1.4441981,1.4890219,31.680508,1.0
591378181,1.4894097,1.5356367,31.680508,1.0
591388908,1.4428563,1.4876384,31.680508,1.0
591399636,1.4940399,1.5403895,31.680508,1.0
591410389,1.4392323,1.4838817,31.680508,1.0
591421126,1.3390346,1.3805754,31.680508,1.0
591431875,1.2089558,1.2464613,31.680508,1.0
591442603,0.6578528,0.6782639,31.680508,1.0
591453331,-0.52026767,-0.5364099,31.680508,1.0
591464071,-0.7781067,-0.8022489,31.680508,1.0
591474799,-1.1691188,-1.2053928,31.680508,1.0
591485549,-1.243874,-1.2824675,31.680508,1.0
591496280,-1.1725975,-1.2089856,31.680508,1.0
591507009,-1.0459085,-1.0785378,31.778212,1.0
591517736,0.5189372,0.53512657,31.778212,1.0
591528463,1.488979,1.5354309,31.778212,1.0
591539191,1.9922985,2.0544527,31.778212,1.0
591549936,2.2682076,2.3389692,31.778212,1.0
591560684,2.3984423,2.4731965,31.778212,1.0
591571415,2.403086,2.477985,31.778212,1.0
591582182,2.060801,2.1250317,31.778212,1.0
591592910,1.3967803,1.4403149,31.778212,1.0
591603637,0.5894188,0.60770065,31.680508,1.0
591614364,-0.996893,-1.0278133,31.680508,1.0
591625092,-1.3735026,-1.4161042,31.680508,1.0
591635839,-1.5219588,-1.569165,31.680508,1.0
591646568,-1.6403706,-1.6912495,31.680508,1.0
591657296,-1.519768,-1.566906,31.680508,1.0
591668023,-1.1855783,-1.222351,31.680508,1.0
591678760,-0.17815241,-0.18367809,31.680508,1.0
591689489,1.4319613,1.4763758,31.680508,1.0
591700216,2.1186814,2.1843958,31.680508,1.0
591710979,2.618414,2.699628,31.680508,1.0
591721708,2.8504736,2.9389076,31.680508,1.0
591732437,2.994582,3.0874867,31.680508,1.0
591743182,3.2462142,3.3469257,31.680508,1.0
591753947,3.4442134,3.5510678,31.680508,1.0
591764675,3.5123851,3.6214173,31.680508,1.0
591775403,3.4967926,3.6053407,31.680508,1.0
591786130,3.3979104,3.5033891,31.680508,1.0
591796860,3.216312,3.3161533,31.680508,1.0
591807588,2.914263,3.0047283,31.680508,1.0
591818316,2.5038435,2.5815141,31.680508,1.0
591829043,1.9527136,2.0132878,31.680508,1.0
591839772,1.1559423,1.1918002,31.680508,1.0
591850499,-0.5148405,-0.53081113,31.680508,1.0
591861259,-1.1463472,-1.1819074,31.680508,1.0
591871989,-1.3495237,-1.3913745,31.680508,1.0
591882716,-1.0545369,-1.0872397,31.680508,1.0
591893444,0.33647284,0.3469074,31.680508,1.0
591904181,1.294039,1.3341691,31.680508,1.0
591914909,1.9069477,1.9660852,31.680508,1.0
591925638,2.2986276,2.3699703,31.680508,1.0
591936423,2.5481966,2.6272852,31.680508,1.0
591947152,2.648506,2.730708,31.680508,1.0
591957885,2.5360522,2.614764,31.680508,1.0
591968613,2.2083101,2.2768497,31.680508,1.0
591979373,1.8558761,1.9134842,31.680508,1.0
591990100,1.711733,1.7648667,31.680508,1.0
592000828,1.6849186,1.73722,31.680508,1.0
592011555,1.8267637,1.8834682,31.680508,1.0
592022286,2.042804,2.1062145,31.680508,1.0
592033015,2.0136075,2.0761013,31.680508,1.0
592043743,1.7486029,1.8028722,31.680508,1.0
592054471,1.572954,1.6217719,31.680508,1.0
592065221,1.6388531,1.6897161,31.680508,1.0
592075948,1.694976,1.7475809,31.680508,1.0
592086719,1.7104882,1.7636031,31.680508,1.0
592097452,1.75933,1.8139616,31.680508,1.0
592108183,1.7064327,1.7594217,31.680508,1.0
592118912,1.6815274,1.7340206,31.778212,1.0
592129639,1.6875705,1.7402523,31.778212,1.0
592140407,1.42718,1.4717187,31.778212,1.0
592151136,1.113865,1.1486259,31.778212,1.0
592161863,1.0991008,1.1334009,31.778212,1.0
592172593,1.250655,1.2896848,31.778212,1.0
592183322,1.4632138,1.5088769,31.778212,1.0
592194049,1.49219,1.5387765,31.778212,1.0
592204778,1.1848453,1.2218364,31.778212,1.0
592215505,0.48690015,0.50202084,31.680508,1.0
592226234,-0.6055292,-0.62433386,31.680508,1.0
592237000,0.6088167,0.62772346,31.680508,1.0
592247730,1.1941025,1.2311915,31.680508,1.0
592258459,1.3821137,1.4250423,31.680508,1.0
592269187,1.3733462,1.4160025,31.680508,1.0
592279914,0.95746636,0.9872054,31.680508,1.0
592290643,0.46105367,0.47537404,31.680508,1.0
592301371,0.67783767,0.6989122,31.680508,1.0
592312168,0.9576192,0.98739237,31.680508,1.0
592322937,1.2417492,1.2805612,31.778212,1.0
592333665,1.2930591,1.3334749,31.778212,1.0
592344393,1.0296961,1.0618802,31.778212,1.0
592355123,0.3998979,0.4123935,31.778212,1.0
592365851,-0.54885304,-0.5660031,31.778212,1.0
592376580,0.5914231,0.6099033,31.778212,1.0
592387309,0.9681654,0.9984177,31.778212,1.0
592398049,1.0775061,1.111175,31.778212,1.0
592408780,1.3245116,1.3658886,31.778212,1.0
592419507,1.3842188,1.4272323,31.680508,1.0
592430235,1.4001782,1.4436876,31.680508,1.0
592440971,1.7407118,1.794803,31.680508,1.0
592451699,2.1851099,2.2530103,31.680508,1.0
592462426,2.5089152,2.5869677,31.680508,1.0
592473157,2.612265,2.6935327,31.680508,1.0
592483888,2.543294,2.622416,31.680508,1.0
592494616,2.4469976,2.5231237,31.680508,1.0
592505343,2.403371,2.47814,31.680508,1.0
592516071,2.3770933,2.4510267,31.680508,1.0
592526798,2.1901433,2.2582622,31.680508,1.0
592537582,1.9189646,1.978649,31.680508,1.0
592548311,1.8684316,1.9265443,31.680508,1.0
592559040,1.7547077,1.8092834,31.680508,1.0
592569777,1.4406726,1.4854513,31.680508,1.0
592580505,1.2238755,1.2619158,31.680508,1.0
592591233,0.96394914,0.99391043,31.680508,1.0
592601961,0.8294333,0.8552136,31.680508,1.0
592612713,0.9397295,0.968938,31.680508,1.0
592623443,1.0326828,1.0647725,31.680508,1.0
592634182,1.4926219,1.5390038,31.680508,1.0
592644936,2.023841,2.08673,31.680508,1.0
592655664,2.454695,2.5309725,31.680508,1.0
592666392,2.7627196,2.848569,31.680508,1.0
592677123,2.798986,2.885951,31.680508,1.0
592687880,2.7633238,2.849181,31.680508,1.0
592698609,2.75879,2.8445063,31.680508,1.0
592709384,2.7747161,2.860927,31.680508,1.0
592720111,2.9696162,3.0618827,31.680508,1.0
592730840,3.1281512,3.225408,31.680508,1.0
592741568,3.11117,3.207899,31.680508,1.0
592752295,2.988057,3.0809581,31.680508,1.0
592763024,2.7094827,2.7937229,31.680508,1.0
592773759,2.4141736,2.4892137,31.680508,1.0
592784515,2.2973294,2.3687375,31.680508,1.0
592795242,2.2989717,2.370431,31.680508,1.0
592805971,2.2957945,2.3671548,31.680508,1.0
592816706,2.2286804,2.2979548,31.680508,1.0
592827433,2.3384452,2.4111314,31.680508,1.0
592838161,2.5926101,2.6731865,31.680508,1.0
592848936,2.73753,2.8226104,31.680508,1.0
592859699,2.936074,3.0273252,31.680508,1.0
592870428,3.1602268,3.2584445,31.680508,1.0
592881238,3.2985225,3.4010382,31.680508,1.0
592892004,3.4568968,3.5643787,31.680508,1.0
592902732,3.5005612,3.6094007,31.680508,1.0
592913460,3.3743896,3.4793062,31.680508,1.0
592924189,3.2286327,3.3290174,31.680508,1.0
592934966,3.0391672,3.1337311,31.680508,1.0
592945693,2.7916021,2.878463,31.680508,1.0
592956422,2.5511425,2.6305213,31.680508,1.0
592967150,2.3956518,2.4701927,31.680508,1.0
592977878,2.4460914,2.5222018,31.680508,1.0
592988607,2.578939,2.6591828,31.680508,1.0
592999374,2.7072797,2.7915514,31.680508,1.0
593010115,2.8938334,2.983912,31.680508,1.0
593020844,3.0087864,3.1024435,31.680508,1.0
593031572,3.055868,3.1514957,31.778212,1.0
593042299,3.080076,3.1764612,31.778212,1.0
593053027,2.9567173,3.0492115,31.778212,1.0
593063755,2.8530483,2.9422996,31.778212,1.0
593074483,2.8566196,2.9459827,31.778212,1.0
593085211,2.682997,2.7669287,31.778212,1.0
593095939,2.448359,2.524913,31.778212,1.0
593106678,2.3942242,2.4690857,31.778212,1.0
593117407,2.4478095,2.5243464,31.778212,1.0
593128134,2.6806517,2.7640264,31.680508,1.0
593138863,2.933865,3.0251155,31.680508,1.0
593149592,3.061207,3.156418,31.680508,1.0
593160320,3.1833792,3.2823937,31.680508,1.0
593171048,3.1797361,3.2786374,31.680508,1.0
593181815,2.9650953,3.0573204,31.680508,1.0
593192545,2.7081835,2.7924178,31.680508,1.0
593203272,2.4652398,2.5419176,31.680508,1.0
593214000,2.3522778,2.4255142,31.680508,1.0
593224730,2.5678253,2.6477726,31.680508,1.0
593235458,2.9204862,3.011896,31.778212,1.0
593246186,3.2068636,3.3072367,31.778212,1.0
593256985,3.4021766,3.5087278,31.778212,1.0
593267713,3.4862523,3.5954366,31.778212,1.0
593278441,3.4823322,3.5913937,31.778212,1.0
593289170,3.3818014,3.4877145,31.778212,1.0
593299898,3.1944315,3.2944765,31.778212,1.0
593310627,3.017113,3.1116045,31.778212,1.0
593321355,2.7482634,2.8342893,31.778212,1.0
593332101,2.4165535,2.4917974,31.680508,1.0
593342829,2.3092027,2.381104,31.680508,1.0
593353557,2.263136,2.333603,31.680508,1.0
593364284,2.1288226,2.1951017,31.680508,1.0
593375015,1.970819,2.0321789,31.680508,1.0
593385744,1.5455877,1.5937084,31.680508,1.0
593396472,0.9217324,0.95042986,31.680508,1.0
593407266,0.6097111,0.628694,31.680508,1.0
593417994,-0.6755874,-0.69660753,31.680508,1.0
593428721,-1.2709157,-1.3106687,31.778212,1.0
593439449,-1.5524249,-1.6009831,31.778212,1.0
593450179,-1.8224955,-1.8795012,31.778212,1.0
593460937,-1.8550218,-1.913045,31.778212,1.0
593471666,-1.5340421,-1.5820254,31.778212,1.0
593482426,-0.9962211,-1.0273997,31.778212,1.0
593493182,0.7332513,0.7561997,31.778212,1.0
593503909,1.3714651,1.4143876,31.778212,1.0
593514638,1.6177031,1.6683321,31.778212,1.0
593525366,1.8958896,1.9552422,31.778212,1.0
593536093,2.1955879,2.2643228,31.778212,1.0
593546825,2.4853334,2.563139,31.778212,1.0
593557552,2.8083935,2.8963127,31.778212,1.0
593568280,2.9994884,3.09339,31.778212,1.0
593579015,3.1532643,3.2520523,31.778212,1.0
593589743,3.406635,3.5133607,31.778212,1.0
593600472,3.5485842,3.6597571,31.778212,1.0
593611200,3.571716,3.6836135,31.778212,1.0
593621928,3.605833,3.7187994,31.778212,1.0
593632686,3.5383213,3.6485884,31.680508,1.0
593643414,3.447568,3.5548701,31.680508,1.0
593654182,3.4887435,3.5973272,31.680508,1.0
593664936,3.4971933,3.60604,31.680508,1.0
593675664,3.528426,3.6382446,31.680508,1.0
593686391,3.7226863,3.8386226,31.680508,1.0
593697119,3.8217275,3.9407482,31.680508,1.0
593707850,3.765452,3.88272,31.680508,1.0
593718577,3.695115,3.8101928,31.680508,1.0
593729316,3.606251,3.7185612,31.680508,1.0
593740044,3.6081486,3.721326,31.778212,1.0
593750772,3.7057016,3.821939,31.778212,1.0
593761499,3.7058427,3.8220847,31.778212,1.0
593772234,3.620058,3.7336092,31.778212,1.0
593782973,3.5114255,3.621569,31.778212,1.0
593793702,3.3486345,3.4536717,31.778212,1.0
593804429,3.096359,3.1934159,31.778212,1.0
593815181,2.6600106,2.7433898,31.778212,1.0
593825910,2.139384,2.206444,31.778212,1.0
593836640,1.8132434,1.8700804,31.778212,1.0
593847370,1.6656986,1.7178618,31.778212,1.0
593858141,1.6421237,1.6935486,31.778212,1.0
593868869,1.5223578,1.570032,31.778212,1.0
593879602,1.1371037,1.1727133,31.778212,1.0
593890329,1.2060726,1.243842,31.778212,1.0
593901057,1.747559,1.8022743,31.778212,1.0
593911784,2.1968045,2.2655857,31.778212,1.0
593922514,2.693751,2.7780914,31.778212,1.0
593933283,3.1321108,3.230176,31.778212,1.0
593944011,3.326419,3.4300187,31.680508,1.0
593954741,3.4800298,3.5884137,31.680508,1.0
593965472,3.5969236,3.7090445,31.680508,1.0
593976201,3.5583255,3.6692433,31.680508,1.0
593986929,3.519943,3.6296642,31.680508,1.0
593997683,3.4247684,3.531523,31.680508,1.0
594008413,3.1908538,3.290309,31.680508,1.0
594019141,2.8977199,2.9880383,31.680508,1.0
594029870,2.5085304,2.5867183,31.680508,1.0
594040597,2.2471952,2.3176086,31.778212,1.0
594051326,2.2308505,2.3007517,31.778212,1.0
594062067,2.229256,2.2991614,31.778212,1.0
594072796,2.320535,2.393303,31.778212,1.0
594083555,2.3495252,2.4232023,31.778212,1.0
594094284,2.2930937,2.365001,31.778212,1.0
594105011,2.4991777,2.5775476,31.778212,1.0
594115739,2.714613,2.7997038,31.778212,1.0
594126468,2.883856,2.974252,31.778212,1.0
594137199,3.1904929,3.2905004,31.778212,1.0
594148007,3.3107708,3.4140015,31.680508,1.0
594158736,3.1873698,3.286753,31.680508,1.0
594169483,3.0838306,3.1799734,31.680508,1.0
594180211,2.9554553,3.047596,31.680508,1.0
594190938,2.7309198,2.8160603,31.680508,1.0
594201665,2.50451,2.5825915,31.680508,1.0
594212393,2.2436726,2.3136222,31.680508,1.0
594223150,2.059238,2.1234324,31.680508,1.0
594233878,2.0007365,2.063107,31.680508,1.0
594244606,1.9395028,1.9999646,31.680508,1.0
594255336,2.1057787,2.171424,31.680508,1.0
594266063,2.474275,2.5514078,31.680508,1.0
594276792,2.8673522,2.9568338,31.680508,1.0
594287520,3.3636103,3.4685788,31.680508,1.0
594298284,3.828338,3.9478092,31.680508,1.0
594309014,4.097127,4.2249866,31.680508,1.0
594319741,4.2793994,4.412947,31.680508,1.0
594330468,4.353264,4.489089,31.680508,1.0
594341195,4.2264757,4.359043,31.778212,1.0
594351937,4.004005,4.1295943,31.778212,1.0
594362667,3.68252,3.7980258,31.778212,1.0
594373394,3.2981582,3.4016082,31.778212,1.0
594384137,3.0567544,3.1525657,31.778212,1.0
594394865,2.8912497,2.9818735,31.778212,1.0
594405609,2.7940173,2.8815935,31.778212,1.0
594416336,2.928381,3.0201685,31.778212,1.0
594427066,3.171937,3.2713587,31.778212,1.0
594437794,3.492544,3.6020951,31.778212,1.0
594448523,3.9077277,4.029657,31.680508,1.0
594459282,4.231156,4.363177,31.680508,1.0
594470011,4.4651785,4.6045012,31.680508,1.0
594480739,4.724763,4.872185,31.680508,1.0
594491467,4.9148316,5.0682344,31.680508,1.0
594502195,4.948257,5.102703,31.680508,1.0
594512923,4.8384714,4.989491,31.680508,1.0
594523650,4.628028,4.772479,31.680508,1.0
594534422,4.370519,4.5069327,31.680508,1.0
594545151,4.008982,4.1348195,31.778212,1.0
594555880,3.5136917,3.6239824,31.778212,1.0
594566609,3.077859,3.1744695,31.778212,1.0
594577339,2.8222,2.9107857,31.778212,1.0
594588070,2.6917737,2.7762654,31.778212,1.0
594598797,2.7013748,2.7861302,31.778212,1.0
594609590,2.743902,2.8299918,31.778212,1.0
594620317,2.851889,2.9413667,31.778212,1.0
594631046,3.1836238,3.2835097,31.778212,1.0
594641775,3.4507117,3.5589776,31.778212,1.0
594652504,3.4952,3.6042483,31.680508,1.0
594663231,3.500328,3.6095364,31.680508,1.0
594673960,3.4750028,3.583421,31.680508,1.0
594684715,3.340044,3.4442515,31.680508,1.0
594695444,3.168664,3.2675245,31.680508,1.0
594706171,2.9872334,3.0805175,31.680508,1.0
594716900,2.7415402,2.8271518,31.680508,1.0
594727628,2.573255,2.6536117,31.680508,1.0
594738356,2.5169773,2.5955765,31.680508,1.0
594749084,2.3807874,2.4551337,31.680508,1.0
594759886,2.2781858,2.3492436,31.680508,1.0
594770615,2.3140228,2.3861983,31.680508,1.0
594781343,2.3680577,2.4419186,31.680508,1.0
594792072,2.5121799,2.590536,31.680508,1.0
594802801,2.7678008,2.85413,31.680508,1.0
594813529,3.0692005,3.1650403,31.680508,1.0
594824258,3.4627419,3.5708704,31.680508,1.0
594834985,3.8118274,3.9308567,31.680508,1.0
594845713,3.9282415,4.0509057,31.680508,1.0
594856453,3.9656563,4.089489,31.680508,1.0
